     2.11           OBSERVATION DATA    Mixed(MIXED)        RINEX VERSION / TYPE
cnvtToRINEX 3.08.0  convertToRINEX OPR  10-Mar-23 03:50 UTC PGM / RUN BY / DATE 
----------------------------------------------------------- COMMENT             
cc03                                                        MARKER NAME         
cc03                                                        MARKER NUMBER       
GNSS Observer       Trimble                                 OBSERVER / AGENCY   
5806R00109          TRIMBLE R8S         5.22                REC # / TYPE / VERS 
                    TRMR8S          NONE                    ANT # / TYPE        
 -2956916.3805  5075869.0435  2476319.2232                  APPROX POSITION XYZ 
        1.7200        0.0000        0.0000                  ANTENNA: DELTA H/E/N
     1     1     0                                          WAVELENGTH FACT L1/2
     5    C1    C2    L1    L2    P2                        # / TYPES OF OBSERV 
  2023     3    10     2    53   24.0000000     GPS         TIME OF FIRST OBS   
  2023     3    10     3    29    7.0000000     GPS         TIME OF LAST OBS    
     0                                                      RCV CLOCK OFFS APPL 
    18                                                      LEAP SECONDS        
     9                                                      # OF SATELLITES     
   G04  2144  2144  2144  4288  2144                        PRN / # OF OBS      
   G08  2144  2144  2144  4288  2144                        PRN / # OF OBS      
   G09  1776  1688  1721  3369  1681                        PRN / # OF OBS      
   G16  2144     0  2144  2144  2144                        PRN / # OF OBS      
   G21   109     0   109   109   109                        PRN / # OF OBS      
   G26  1867  1792  1811  3240  1448                        PRN / # OF OBS      
   G27  2144  2144  2144  4288  2144                        PRN / # OF OBS      
   G28   695   592   652  1081   489                        PRN / # OF OBS      
   G31  1494  1452  1479  2892  1440                        PRN / # OF OBS      
CARRIER PHASE MEASUREMENTS: PHASE SHIFTS REMOVED            COMMENT             
                                                            END OF HEADER       
 23  3 10  2 53 24.0000000  0  7G04G08G16G26G27G28G31               
  21276651.484 5  21276660.094 9 111809554.996 5  87124362.458 9  21276659.25447
  21088261.938 6  21088275.699 9 110819562.063 6  86352962.560 9  21088274.37549
  21096796.719 6                 110864412.899 6  86387881.44048  21096802.16448
  22455398.359 6  22455412.820 9 118003907.887 6  91951114.238 9  22455412.95347
  19828413.328 7  19828423.395 9 104199016.506 7  81194076.561 9  19828422.74649
  23599601.039 1  23599623.168 8 124016742.127 1  96636505.062 8  23599621.59446
  23046799.227 6  23046818.824 8 121111739.625 6  94372860.118 8  23046817.69547
 23  3 10  2 53 25.0000000  0  7G04G08G16G26G27G28G31               
  21276493.609 6  21276502.797 9 111808728.297 6  87123718.276 9  21276501.67247
  21087813.781 6  21087827.242 9 110817207.699 6  86351127.993 9  21087825.87549
  21096999.438 6                 110865477.122 6  86388710.70248  21097005.02348
  22455746.836 5  22455761.746 9 118005741.257 5  91952542.827 9  22455761.71947
  19828357.133 7  19828367.039 9 104198720.726 7  81193846.084 9  19828366.28949
  23600056.742 2  23600078.770 8 124019138.937 2  96638372.701 8  23600076.97746
  23047177.758 6  23047198.051 8 121113731.326 6  94374412.086 8  23047197.00047
 23  3 10  2 53 26.0000000  0  7G04G08G16G26G27G28G31               
  21276336.531 5  21276346.043 9 111807902.391 5  87123074.701 9  21276344.98047
  21087366.273 6  21087379.844 9 110814853.998 6  86349293.941 9  21087378.58249
  21097201.570 6                 110866541.645 6  86389540.20348  21097207.54348
  22456095.711 5  22456110.887 9 118007574.806 5  91953971.556 9  22456110.69947
  19828301.250 7  19828311.027 9 104198425.781 7  81193616.258 9  19828310.91449
  23600513.672 1  23600535.586 8 124021536.196 1  96640240.709 8  23600533.70345
  23047557.844 6  23047577.035 8 121115723.455 6  94375964.388 8  23047576.14147
 23  3 10  2 53 27.0000000  0  7G04G08G16G26G27G28G31               
  21276180.242 5  21276188.637 9 111807077.368 5  87122431.831 9  21276187.99647
  21086918.664 6  21086932.309 9 110812501.028 6  86347460.463 9  21086930.89149
  21097404.680 6                 110867606.583 6  86390370.01748  21097410.09048
  22456445.141 5  22456460.031 9 118009408.583 5  91955400.461 9  22456459.48047
  19828245.508 7  19828255.109 9 104198131.752 7  81193387.145 9  19828254.38749
  23600970.172 2  23600991.598 8 124023933.996 2  96642109.143 8  23600989.80146
  23047936.594 6  23047956.137 8 121117716.106 6  94377517.105 8  23047955.23847
 23  3 10  2 53 28.0000000  0  7G04G08G16G26G27G28G31               
  21276023.555 5  21276031.633 9 111806253.271 5  87121789.671 9  21276030.69947
  21086470.922 6  21086484.184 9 110810148.922 6  86345627.647 9  21086483.07849
  21097606.938 6                 110868671.977 6  86391200.18248  21097612.74648
  22456793.680 5  22456809.289 9 118011242.666 5  91956829.599 9  22456808.53547
  19828189.805 7  19828199.473 9 104197838.744 7  81193158.823 9  19828198.98049
  23601426.961 2  23601447.551 8 124026332.396 2  96643978.033 8  23601445.97346
  23048315.945 6  23048336.059 8 121119709.369 6  94379070.292 8  23048334.69947
 23  3 10  2 53 29.0000000  0  7G04G08G16G26G27G28G31               
  21275865.969 5  21275875.152 9 111805429.957 5  87121148.122 9  21275874.16847
  21086023.398 6  21086036.699 9 110807797.427 6  86343795.317 9  21086035.34849
  21097810.281 6                 110869737.652 6  86392030.57648  21097815.82448
  22457143.727 5  22457158.156 9 118013076.845 5  91958258.823 9  22457157.43047
  19828134.047 7  19828143.930 9 104197546.533 7  81192931.126 9  19828143.38349
  23601883.984 3  23601904.492 8 124028731.243 3  96645847.274 8  23601902.83246
  23048694.773 6  23048714.645 8 121121703.001 6  94380623.770 8  23048713.49647
 23  3 10  2 53 30.0000000  0  7G04G08G16G26G27G28G31               
  21275709.844 5  21275718.832 9 111804607.654 5  87120507.360 9  21275717.83647
  21085575.984 6  21085589.547 9 110805446.824 6  86341963.679 9  21085588.49649
  21098013.195 6                 110870803.844 6  86392861.37448  21098018.71548
  22457491.938 5  22457506.875 9 118014911.415 5  91959688.351 9  22457506.28547
  19828078.961 7  19828088.270 9 104197255.389 7  81192704.257 9  19828087.75849
  23602340.242 3  23602361.047 8 124031130.724 3  96647716.989 8  23602359.59446
  23049074.969 6  23049094.488 8 121123697.313 6  94382177.774 8  23049093.21147
 23  3 10  2 53 31.0000000  0  7G04G08G16G26G27G28G31               
  21275553.188 5  21275562.492 8 111803786.181 5  87119867.242 8  21275561.32447
  21085128.602 6  21085142.012 9 110803096.916 6  86340132.584 9  21085141.33249
  21098216.266 6                 110871870.369 6  86393692.43248  21098221.48848
  22457841.039 5  22457856.246 9 118016746.134 5  91961117.984 9  22457855.52047
  19828023.180 7  19828032.641 9 104196965.107 7  81192478.065 9  19828032.13749
  23602797.094 4  23602818.008 8 124033530.673 4  96649587.064 8  23602816.57046
  23049454.773 6  23049473.531 8 121125692.089 6  94383732.140 8  23049472.37147
 23  3 10  2 53 32.0000000  0  7G04G08G16G26G27G28G31               
  21275397.180 5  21275406.000 8 111802965.614 5  87119227.838 8  21275405.10547
  21084681.461 6  21084694.805 9 110800747.835 6  86338302.123 9  21084694.01649
  21098418.969 6                 110872937.387 6  86394523.87147  21098424.60247
  22458190.672 5  22458205.262 9 118018581.169 5  91962547.877 9  22458204.54347
  19827967.961 7  19827977.887 9 104196675.848 7  81192252.664 9  19827977.36349
  23603254.750 3  23603274.527 8 124035931.252 3  96651457.644 8  23603273.24246
  23049834.469 6  23049853.574 8 121127687.439 6  94385286.940 8  23049852.26647
 23  3 10  2 53 33.0000000  0  7G04G08G16G26G27G28G31               
  21275241.898 5  21275250.148 8 111802145.868 5  87118589.074 8  21275249.32447
  21084235.109 6  21084248.004 9 110798399.424 6  86336472.191 9  21084247.14549
  21098621.844 6                 110874004.703 6  86395355.54048  21098627.50448
  22458539.273 5  22458554.688 9 118020416.349 5  91963977.890 9  22458554.20747
  19827913.484 7  19827923.227 9 104196387.406 7  81192027.901 9  19827922.89849
  23603711.398 3  23603731.387 8 124038332.226 3  96653328.538 8  23603730.12546
  23050214.031 6  23050233.590 8 121129683.219 6  94386842.093 8  23050232.27347
 23  3 10  2 53 34.0000000  0  7G04G08G16G26G27G28G31               
  21275085.305 5  21275093.996 8 111801327.068 5  87117951.041 8  21275093.09847
  21083788.078 6  21083801.215 9 110796051.862 6  86334642.922 9  21083800.40649
  21098824.898 6                 110875072.467 6  86396187.56048  21098830.69948
  22458889.188 5  22458904.035 9 118022251.813 5  91965408.106 9  22458903.14147
  19827858.523 7  19827867.887 9 104196099.985 7  81191803.938 9  19827867.50049
  23604169.430 4  23604188.281 8 124040733.855 4  96655199.940 8  23604187.23446
  23050593.750 6  23050613.434 8 121131679.622 6  94388397.735 8  23050612.02347
 23  3 10  2 53 35.0000000  0  7G04G08G16G26G27G28G31               
  21274930.102 5  21274939.055 8 111800508.990 5  87117313.581 8  21274937.39547
  21083341.352 6  21083355.172 9 110793704.912 6  86332814.131 9  21083354.11349
  21099028.594 6                 110876140.526 6  86397019.81648  21099033.71548
  22459238.844 5  22459253.824 9 118024087.400 5  91966838.415 9  22459252.89547
  19827804.031 7  19827813.664 9 104195813.347 7  81191580.585 9  19827813.09449
  23604625.523 4  23604645.207 8 124043135.898 4  96657071.641 8  23604644.51646
  23050973.734 6  23050993.555 8 121133676.385 6  94389953.636 8  23050991.90247
 23  3 10  2 53 36.0000000  0  7G04G08G16G26G27G28G31               
  21274774.641 5  21274783.809 8 111799691.763 5  87116676.776 8  21274782.08247
  21082894.922 6  21082908.711 9 110791358.677 6  86330985.897 9  21082907.85549
  21099231.656 6                 110877208.915 6  86397852.32048  21099236.79348
  22459587.938 5  22459602.820 9 118025923.162 5  91968268.866 9  22459602.05947
  19827749.781 7  19827759.348 9 104195527.597 7  81191357.918 9  19827758.57849
  23605082.203 3  23605102.152 8 124045538.411 3  96658943.724 8  23605101.63346
  23051353.766 6  23051372.980 8 121135673.628 6  94391509.923 8  23051371.56647
 23  3 10  2 53 37.0000000  0  7G04G08G16G26G27G28G31               
  21274618.984 5  21274628.059 9 111798875.458 5  87116040.702 9  21274626.56647
  21082448.711 6  21082462.367 9 110789013.245 6  86329158.290 9  21082461.30949
  21099434.719 6                 110878277.721 6  86398685.14548  21099440.13748
  22459937.070 5  22459951.785 9 118027759.173 5  91969699.521 9  22459951.23447
  19827695.484 7  19827705.332 9 104195242.814 7  81191136.003 9  19827704.81349
  23605539.422 3  23605559.754 8 124047941.482 3  96660816.255 8  23605559.38346
  23051733.563 6  23051753.328 8 121137671.459 6  94393066.673 8  23051751.84447
 23  3 10  2 53 38.0000000  0  7G04G08G16G26G27G28G31               
  21274463.969 6  21274472.914 9 111798060.019 6  87115405.293 9  21274471.50447
  21082002.836 6  21082016.039 9 110786668.576 6  86327331.272 9  21082015.23849
  21099638.781 6                 110879346.922 6  86399518.27348  21099644.02048
  22460286.344 5  22460301.262 9 118029595.416 5  91971130.348 9  22460300.77047
  19827641.711 7  19827650.977 9 104194958.947 7  81190914.811 9  19827650.58249
  23605996.031 3  23606017.293 9 124050345.128 3  96662689.221 9  23606016.88346
  23052113.594 6  23052133.438 8 121139669.769 6  94394623.785 8  23052132.00447
 23  3 10  2 53 39.0000000  0  7G04G08G16G26G27G28G31               
  21274309.164 6  21274318.082 9 111797245.511 6  87114770.604 9  21274316.62947
  21081557.195 6  21081570.465 9 110784324.738 6  86325504.908 9  21081569.32849
  21099842.586 6                 110880416.614 6  86400351.79848  21099847.39848
  22460635.984 5  22460650.727 9 118031431.976 5  91972561.420 9  22460650.42247
  19827587.688 7  19827597.512 9 104194676.086 7  81190694.394 9  19827596.81649
  23606452.898 3  23606474.641 9 124052749.332 3  96664562.639 9  23606474.28146
  23052494.398 6  23052514.090 8 121141668.690 6  94396181.372 8  23052512.45747
 23  3 10  2 53 40.0000000  0  7G04G08G16G26G27G28G31               
  21274154.516 6  21274163.262 9 111796431.846 6  87114136.573 9  21274161.70347
  21081110.891 6  21081124.297 9 110781981.596 6  86323679.082 9  21081123.64549
  21100045.969 6                 110881486.634 6  86401185.58448  21100050.95748
  22460985.648 5  22461000.348 9 118033268.745 5  91973992.662 9  22460999.75047
  19827534.008 7  19827543.305 9 104194394.113 7  81190474.677 9  19827543.02049
  23606910.195 3  23606932.125 9 124055153.964 3  96666436.388 9  23606931.64546
  23052875.188 6  23052894.602 8 121143668.058 6  94397739.322 8  23052892.91847
 23  3 10  2 53 41.0000000  0  7G04G08G16G26G27G28G31               
  21273999.539 6  21274008.773 9 111795618.999 6  87113503.189 9  21274007.09847
  21080665.195 6  21080678.656 9 110779639.123 6  86321853.776 9  21080677.58249
  21100249.352 6                 110882557.012 6  86402019.63748  21100254.94148
  22461335.195 5  22461349.809 9 118035105.630 5  91975423.997 9  22461349.16847
  19827480.883 7  19827490.313 9 104194113.011 7  81190255.630 9  19827489.61349
  23607368.375 3  23607389.879 9 124057559.144 3  96668310.564 9  23607389.59446
  23053255.805 6  23053275.305 8 121145667.923 6  94399297.652 8  23053273.01647
 23  3 10  2 53 42.0000000  0  7G04G08G16G26G27G28G31               
  21273845.070 6  21273854.188 9 111794807.038 6  87112870.482 9  21273853.03947
  21080219.742 6  21080232.512 9 110777297.344 6  86320029.016 9  21080231.86349
  21100453.305 6                 110883627.740 6  86402853.97348  21100458.32848
  22461685.102 5  22461699.809 9 118036942.761 5  91976855.523 9  22461698.82047
  19827427.320 7  19827436.555 9 104193832.810 7  81190037.305 9  19827435.97349
  23607825.672 3  23607847.410 9 124059964.863 3  96670185.155 9  23607847.57846
  23053635.766 6  23053656.078 8 121147668.264 6  94400856.348 8  23053653.67647
 23  3 10  2 53 43.0000000  0  7G04G08G16G26G27G28G31               
  21273690.820 6  21273699.512 8 111793995.873 6  87112238.408 8  21273698.42647
  21079774.109 6  21079787.336 9 110774956.330 6  86318204.850 9  21079786.31649
  21100656.977 6                 110884698.863 6  86403688.60748  21100662.59848
  22462034.625 6  22462049.004 9 118038780.137 6  91978287.232 9  22462048.34447
  19827374.383 7  19827383.980 9 104193553.534 7  81189819.683 9  19827383.30549
  23608283.141 2  23608305.371 8 124062371.079 2  96672060.138 8  23608305.54346
  23054016.547 6  23054036.680 8 121149669.183 6  94402415.502 8  23054034.25047
 23  3 10  2 53 44.0000000  0  7G04G08G16G26G27G28G31               
  21273536.203 6  21273545.293 8 111793185.852 6  87111607.216 8  21273543.95347
  21079328.977 6  21079342.273 9 110772616.324 6  86316381.475 9  21079341.25049
  21100860.883 6                 110885770.582 6  86404523.71148  21100866.39548
  22462384.414 6  22462399.215 9 118040617.917 6  91979719.263 9  22462398.61747
  19827321.031 7  19827330.910 9 104193275.374 7  81189602.930 9  19827330.03549
  23608740.805 2  23608762.750 8 124064778.014 2  96673935.678 8  23608763.09446
  23054397.125 6  23054417.836 8 121151670.730 6  94403975.142 8  23054414.90647
 23  3 10  2 53 45.0000000  0  7G04G08G16G26G27G28G31               
  21273382.695 6  21273391.531 8 111792376.609 6  87110976.646 8  21273390.12947
  21078883.242 6  21078896.910 9 110770276.942 6  86314558.583 9  21078895.98449
  21101064.656 6                 110886842.599 6  86405359.04648  21101070.10948
  22462733.602 5  22462748.359 9 118042455.796 5  91981151.362 9  22462747.73047
  19827268.414 7  19827278.129 9 104192998.073 7  81189386.851 9  19827277.52349
  23609199.586 3  23609220.695 8 124067185.384 3  96675811.543 8  23609221.34846
  23054778.375 6  23054798.629 8 121153672.725 6  94405535.123 8  23054795.86347
 23  3 10  2 53 46.0000000  0  7G04G08G16G26G27G28G31               
  21273228.789 6  21273237.438 8 111791568.174 6  87110346.691 8  21273235.94947
  21078438.242 6  21078451.934 9 110767938.292 6  86312736.259 9  21078450.82849
  21101268.703 6                 110887914.967 6  86406194.65648  21101274.41448
  22463083.664 5  22463098.715 9 118044293.901 5  91982583.657 9  22463098.03147
  19827215.891 7  19827225.797 9 104192721.648 7  81189171.446 9  19827225.00449
  23609657.906 3  23609679.199 8 124069593.279 3  96677687.832 8  23609680.03546
  23055160.141 6  23055180.289 8 121155675.211 6  94407095.492 8  23055177.12147
 23  3 10  2 53 47.0000000  0  7G04G08G16G26G27G28G31               
  21273075.125 6  21273084.039 8 111790760.521 6  87109717.368 8  21273082.62147
  21077993.266 6  21078006.680 9 110765600.290 6  86310914.440 9  21078005.68449
  21101473.070 6                 110888987.603 6  86407030.46248  21101478.70348
  22463433.516 5  22463448.676 9 118046132.127 5  91984016.035 9  22463447.63747
  19827163.477 7  19827173.047 9 104192446.022 7  81188956.669 9  19827172.62949
  23610116.492 3  23610138.016 9 124072001.529 3  96679564.394 9  23610138.60246
  23055540.844 6  23055561.574 8 121157678.063 6  94408656.149 8  23055558.16447
 23  3 10  2 53 48.0000000  0  7G04G08G16G26G27G28G31               
  21272921.602 6  21272930.035 8 111789953.693 6  87109088.671 8  21272928.64547
  21077548.938 6  21077562.402 9 110763263.010 6  86309093.188 9  21077561.39549
  21101676.898 6                 110890060.624 6  86407866.58548  21101682.75448
  22463783.234 5  22463798.430 9 118047970.549 5  91985448.555 9  22463797.71547
  19827110.977 7  19827121.145 9 104192171.292 7  81188742.592 9  19827120.13349
  23610574.320 3  23610596.398 9 124074410.312 3  96681441.372 9  23610596.94946
  23055921.953 6  23055942.805 8 121159681.455 6  94410217.214 8  23055939.38747
 23  3 10  2 53 49.0000000  0  7G04G08G16G26G27G28G31               
  21272768.289 6  21272776.828 9 111789147.686 6  87108460.605 9  21272775.39847
  21077104.000 6  21077117.617 9 110760926.379 6  86307272.442 9  21077116.50849
  21101881.484 6                 110891133.967 6  86408702.95548  21101887.16848
  22464132.859 5  22464147.414 9 118049809.142 5  91986881.211 9  22464146.91047
  19827059.219 7  19827068.934 9 104191897.438 7  81188529.199 9  19827068.23049
  23611033.047 2  23611054.863 9 124076819.548 2  96683318.728 9  23611055.55146
  23056303.844 6  23056323.969 8 121161685.279 6  94411778.628 8  23056320.14847
 23  3 10  2 53 50.0000000  0  7G04G08G16G26G27G28G31               
  21272614.789 6  21272623.707 8 111788342.662 6  87107833.316 8  21272621.96147
  21076659.156 6  21076673.172 9 110758590.627 6  86305452.377 9  21076672.14149
  21102085.430 6                 110892207.767 6  86409539.67048  21102091.98448
  22464483.320 5  22464497.813 9 118051648.024 5  91988314.082 9  22464497.07047
  19827006.938 7  19827016.707 9 104191624.591 7  81188316.590 9  19827016.11349
  23611491.133 2  23611513.414 8 124079229.430 2  96685196.566 8  23611513.60946
  23056685.375 6  23056706.207 8 121163689.752 6  94413340.539 8  23056702.16047
 23  3 10  2 53 51.0000000  0  7G04G08G16G26G27G28G31               
  21272461.531 6  21272470.906 8 111787538.479 6  87107206.675 8  21272468.99247
  21076215.344 6  21076228.574 9 110756255.604 6  86303632.875 9  21076227.61349
  21102289.859 6                 110893281.950 6  86410376.68847  21102295.40647
  22464832.742 5  22464848.016 9 118053487.131 5  91989747.142 9  22464847.19947
  19826955.367 7  19826964.836 9 104191352.676 7  81188104.712 9  19826964.09849
  23611950.734 2  23611972.008 8 124081639.806 2  96687074.793 8  23611971.97746
  23057066.273 6  23057087.688 8 121165694.700 6  94414902.818 8  23057083.58247
 23  3 10  2 53 52.0000000  0  7G04G08G16G26G27G28G31               
  21272309.133 5  21272318.082 9 111786735.051 5  87106580.622 9  21272316.28147
  21075770.953 6  21075784.371 9 110753921.216 6  86301813.880 9  21075783.28149
  21102494.648 6                 110894356.419 6  86411213.94547  21102500.17647
  22465183.945 5  22465198.039 9 118055326.352 5  91991180.306 9  22465197.52347
  19826903.602 7  19826913.152 9 104191081.558 7  81187893.452 9  19826912.16849
  23612409.242 3  23612430.797 8 124084050.652 3  96688953.385 8  23612430.47346
  23057448.188 6  23057469.363 8 121167700.083 6  94416465.447 8  23057465.31647
 23  3 10  2 53 53.0000000  0  7G04G08G16G26G27G28G31               
  21272156.633 5  21272164.828 8 111785932.553 5  87105955.292 8  21272163.29747
  21075326.773 6  21075340.469 9 110751587.616 6  86299995.489 9  21075339.09049
  21102699.164 6                 110895431.379 6  86412051.56748  21102705.01248
  22465533.109 5  22465548.082 9 118057165.967 5  91992613.761 9  22465547.44947
  19826852.578 7  19826862.434 9 104190811.451 7  81187682.979 9  19826861.73449
  23612867.734 2  23612889.734 8 124086462.112 2  96690832.453 8  23612889.42246
  23057829.742 5  23057851.281 8 121169706.088 5  94418028.574 8  23057847.36747
 23  3 10  2 53 54.0000000  0  7G04G08G16G26G27G28G31               
  21272003.641 5  21272012.684 8 111785130.896 5  87105330.624 8  21272011.24647
  21074882.750 6  21074896.598 9 110749254.717 6  86298177.649 9  21074895.20749
  21102904.555 6                 110896506.636 6  86412889.42748  21102909.53148
  22465882.891 5  22465898.375 9 118059005.661 5  91994047.274 9  22465897.75047
  19826801.539 7  19826810.707 9 104190542.191 7  81187473.167 9  19826810.07049
  23613327.273 2  23613348.797 8 124088874.021 2  96692711.872 8  23613348.37145
  23058211.680 5  23058232.801 8 121171712.531 5  94419592.037 8  23058229.09847
 23  3 10  2 53 55.0000000  0  7G04G08G16G26G27G28G31               
  21271851.984 6  21271859.699 8 111784330.023 6  87104706.555 8  21271858.21547
  21074439.109 6  21074452.648 9 110746922.505 6  86296360.340 9  21074451.35549
  21103108.758 6                 110897582.289 6  86413727.58648  21103113.88748
  22466234.133 5  22466248.289 9 118060845.614 5  91995480.990 9  22466247.68847
  19826750.188 7  19826759.570 9 104190273.841 7  81187264.057 9  19826758.51249
  23613785.219 1  23613807.887 8 124091286.453 1  96694591.667 8  23613807.29345
  23058593.438 5  23058614.551 8 121173719.443 5  94421155.861 8  23058611.09447
 23  3 10  2 53 56.0000000  0  7G04G08G16G26G27G28G31               
  21271699.281 6  21271707.965 8 111783530.065 6  87104083.198 8  21271706.24247
  21073995.383 6  21074009.148 9 110744591.089 6  86294543.662 9  21074007.39149
  21103313.070 6                 110898658.271 6  86414566.01448  21103318.66448
  22466583.914 5  22466598.621 9 118062685.695 5  91996914.807 9  22466597.71147
  19826699.250 7  19826708.676 9 104190006.360 7  81187055.628 9  19826707.77749
  23614244.891 2  23614267.121 8 124093699.308 2  96696471.790 8  23614266.34046
  23058975.672 6  23058996.008 8 121175726.825 6  94422720.027 8  23058993.19547
 23  3 10  2 53 57.0000000  0  7G04G08G16G26G27G28G31               
  21271546.953 6  21271555.535 8 111782730.980 6  87103460.521 8  21271553.88347
  21073551.734 6  21073565.543 9 110742260.403 6  86292727.544 9  21073563.80949
  21103518.609 6                 110899734.639 6  86415404.73848  21103523.57048
  22466934.039 5  22466948.316 8 118064526.041 5  91998348.828 8  22466947.37147
  19826648.602 7  19826658.063 9 104189739.831 7  81186847.942 9  19826657.49649
  23614704.664 3  23614726.176 8 124096112.680 3  96698352.345 8  23614725.32845
  23059357.656 6  23059378.094 8 121177734.727 6  94424284.627 8  23059375.44947
 23  3 10  2 53 58.0000000  0  7G04G08G16G26G27G28G31               
  21271395.664 6  21271403.965 8 111781932.833 6  87102838.574 8  21271402.27347
  21073108.313 6  21073122.070 9 110739930.552 6  86290912.073 9  21073120.17249
  21103723.039 6                 110900811.477 6  86416243.84348  21103728.71148
  22467284.352 5  22467298.824 9 118066366.664 5  91999783.068 9  22467298.41847
  19826597.836 7  19826607.445 9 104189474.285 7  81186641.019 9  19826606.68049
  23615164.633 3  23615185.824 8 124098526.747 3  96700233.418 8  23615184.52345
  23059739.695 5  23059760.344 8 121179743.200 5  94425849.650 8  23059757.60947
 23  3 10  2 53 59.0000000  0  7G04G08G16G26G27G28G31               
  21271243.867 6  21271252.207 8 111781135.491 6  87102217.282 8  21271250.61747
  21072665.563 6  21072678.883 9 110737601.414 6  86289097.154 9  21072677.24649
  21103928.094 6                 110901888.680 6  86417083.20148  21103933.47348
  22467634.875 5  22467648.723 9 118068207.492 5  92001217.460 9  22467648.23047
  19826547.719 7  19826557.035 9 104189209.626 7  81186434.787 9  19826556.27049
  23615623.742 2  23615645.184 8 124100941.233 2  96702114.811 8  23615643.84046
  23060122.266 6  23060142.598 8 121181752.143 6  94427415.049 8  23060139.99247
 23  3 10  2 54  0.0000000  0  7G04G08G16G26G27G28G31               
  21271092.117 6  21271100.391 8 111780338.997 6  87101596.638 8  21271098.90647
  21072222.484 6  21072235.777 9 110735272.986 6  86287282.794 9  21072234.52749
  21104133.234 6                 110902966.188 6  86417922.82848  21104139.00448
  22467984.984 5  22467998.977 9 118070048.459 5  92002651.983 9  22467998.41447
  19826497.398 7  19826507.016 9 104188945.818 7  81186229.220 9  19826506.24649
  23616083.609 2  23616105.129 8 124103356.229 2  96703996.603 8  23616104.01246
  23060504.352 6  23060524.758 8 121183761.530 6  94428980.771 8  23060522.44147
 23  3 10  2 54  1.0000000  0  7G04G08G16G26G27G28G31               
  21270940.523 6  21270949.316 8 111779543.442 6  87100976.709 8  21270947.71147
  21071779.094 6  21071793.102 9 110732945.371 6  86285469.068 9  21071791.37549
  21104338.578 6                 110904044.157 6  86418762.78948  21104343.96948
  22468334.992 5  22468349.504 9 118071889.715 5  92004086.716 9  22468348.92647
  19826447.313 7  19826456.875 9 104188682.999 7  81186024.426 9  19826456.06349
  23616541.680 2  23616564.797 8 124105771.766 2  96705878.849 8  23616563.44545
  23060886.914 6  23060907.070 8 121185771.537 6  94430547.004 8  23060904.99247
 23  3 10  2 54  2.0000000  0  7G04G08G16G26G27G28G31               
  21270789.422 6  21270797.707 8 111778748.746 6  87100357.459 8  21270796.23047
  21071336.039 6  21071349.813 9 110730618.491 6  86283655.914 9  21071347.97749
  21104543.789 6                 110905122.507 6  86419603.06348  21104549.30148
  22468686.344 5  22468700.098 9 118073731.214 5  92005521.644 9  22468699.26647
  19826397.188 7  19826407.516 9 104188421.089 7  81185820.347 9  19826406.74249
  23617001.625 3  23617024.465 8 124108187.823 3  96707761.482 8  23617022.61745
  23061269.766 6  23061289.785 8 121187782.012 6  94432113.606 8  23061287.76647
 23  3 10  2 54  3.0000000  0  7G04G08G16G26G27G28G31               
  21270638.094 6  21270646.898 8 111777954.830 6  87099738.819 8  21270645.34447
  21070893.703 6  21070907.434 9 110728292.275 6  86281843.282 9  21070905.80149
  21104748.969 6                 110906201.185 6  86420443.59148  21104754.58648
  22469036.195 6  22469050.809 9 118075572.827 6  92006956.662 9  22469049.46147
  19826347.727 7  19826357.445 9 104188160.055 7  81185616.941 9  19826356.77749
  23617461.063 2  23617484.621 8 124110604.384 2  96709644.496 8  23617482.80545
  23061652.516 6  23061672.633 8 121189792.950 6  94433680.558 8  23061670.50447
 23  3 10  2 54  4.0000000  0  7G04G08G16G26G27G28G31               
  21270487.219 6  21270495.750 9 111777161.862 6  87099120.925 9  21270494.10947
  21070451.445 6  21070465.016 9 110725966.864 6  86280031.276 9  21070463.30549
  21104954.438 6                 110907280.287 6  86421284.43948  21104959.98448
  22469387.109 6  22469401.301 9 118077414.770 6  92008391.933 9  22469399.94947
  19826297.961 7  19826307.738 9 104187899.977 7  81185414.285 9  19826307.12949
  23617921.547 2  23617944.344 8 124113021.425 2  96711527.905 8  23617942.36745
  23062035.273 6  23062055.301 8 121191804.453 6  94435247.939 8  23062053.61747
 23  3 10  2 54  5.0000000  0  7G04G08G16G26G27G28G31               
  21270336.953 6  21270345.441 9 111776369.704 6  87098503.648 9  21270343.64147
  21070008.898 6  21070022.332 9 110723642.154 6  86278219.814 9  21070020.83649
  21105159.445 6                 110908359.725 6  86422125.56348  21105165.11748
  22469737.695 5  22469751.809 9 118079256.843 5  92009827.309 9  22469750.54347
  19826249.031 7  19826258.887 9 104187640.779 7  81185212.315 9  19826258.19949
  23618380.234 2  23618404.270 8 124115439.032 2  96713411.775 8  23618402.34446
  23062418.266 6  23062438.184 9 121193816.404 6  94436815.690 9  23062436.64547
 23  3 10  2 54  6.0000000  0  7G04G08G16G26G27G28G31               
  21270186.242 5  21270194.707 9 111775578.593 5  87097887.194 9  21270193.17247
  21069566.531 6  21069580.418 9 110721318.360 6  86276409.068 9  21069578.50049
  21105365.016 6                 110909439.715 6  86422967.11248  21105371.13348
  22470088.055 5  22470102.125 9 118081099.310 5  92011262.997 9  22470100.95347
  19826199.680 7  19826209.586 9 104187382.690 7  81185011.209 9  19826209.01249
  23618840.602 2  23618864.102 8 124117857.288 2  96715296.111 8  23618862.37146
  23062800.805 6  23062821.379 9 121195829.065 6  94438383.984 9  23062819.78147
 23  3 10  2 54  7.0000000  0  7G04G08G16G26G27G28G31               
  21270036.297 6  21270043.984 8 111774788.165 6  87097271.274 8  21270042.84047
  21069124.664 6  21069138.371 9 110718995.147 6  86274598.769 9  21069136.73449
  21105570.266 6                 110910519.920 6  86423808.82548  21105576.56348
  22470438.141 5  22470453.277 9 118082941.837 5  92012698.722 9  22470452.04747
  19826150.750 7  19826160.742 9 104187125.312 7  81184810.641 9  19826160.10549
  23619300.734 2  23619324.410 8 124120275.897 2  96717180.761 8  23619322.62945
  23063183.727 6  23063204.055 9 121197842.045 6  94439952.518 9  23063202.53947
 23  3 10  2 54  8.0000000  0  7G04G08G16G26G27G28G31               
  21269885.625 5  21269893.652 8 111773998.563 5  87096656.009 8  21269892.48847
  21068682.508 6  21068696.082 9 110716672.598 6  86272788.990 9  21068694.38749
  21105775.883 6                 110911600.416 6  86424650.75447  21105782.59047
  22470788.773 5  22470803.402 9 118084784.476 5  92014134.529 9  22470802.38347
  19826102.102 7  19826111.574 9 104186868.810 7  81184610.777 9  19826111.06649
  23619762.281 2  23619784.703 8 124122694.895 2  96719065.726 8  23619783.18046
  23063566.836 6  23063587.590 8 121199855.442 6  94441521.402 8  23063586.48047
 23  3 10  2 54  9.0000000  0  7G04G08G16G26G27G28G31               
  21269735.391 5  21269744.051 8 111773209.789 5  87096041.355 8  21269742.76647
  21068240.922 6  21068254.352 9 110714350.777 6  86270979.778 9  21068252.52749
  21105981.648 6                 110912681.299 6  86425492.99547  21105987.75447
  22471139.188 5  22471154.277 9 118086627.380 5  92015570.553 9  22471153.30147
  19826053.500 7  19826063.371 9 104186613.183 7  81184411.581 9  19826063.01249
  23620223.016 1  23620245.094 8 124125114.483 1  96720951.143 8  23620243.60546
  23063950.383 6  23063970.801 8 121201869.368 6  94443090.688 8  23063969.99647
 23  3 10  2 54 10.0000000  0  7G04G08G16G26G27G28G31               
  21269585.328 5  21269593.531 8 111772421.960 5  87095427.461 8  21269592.53147
  21067799.016 6  21067813.039 9 110712029.771 6  86269171.207 9  21067811.15249
  21106187.633 6                 110913762.637 6  86426335.58748  21106193.58648
  22471490.523 5  22471504.867 9 118088470.503 5  92017006.753 9  22471503.90647
  19826004.953 7  19826014.625 9 104186358.574 7  81184213.173 9  19826014.11749
  23620683.227 2  23620705.699 9 124127534.714 2  96722837.036 9  23620704.48445
  23064333.570 6  23064354.520 8 121203883.866 6  94444660.420 8  23064353.53947
 23  3 10  2 54 11.0000000  0  7G04G08G16G26G27G28G31               
  21269435.844 5  21269443.816 8 111771634.945 5  87094814.188 8  21269442.81647
  21067357.414 6  21067371.488 9 110709709.433 6  86267363.150 9  21067369.70349
  21106393.414 6                 110914844.310 6  86427178.44748  21106399.49648
  22471841.117 5  22471855.387 9 118090313.862 5  92018443.126 9  22471854.50447
  19825956.813 7  19825966.148 9 104186104.792 7  81184015.419 9  19825965.81349
  23621144.313 2  23621165.973 9 124129955.309 2  96724723.216 9  23621164.91046
  23064717.664 6  23064738.078 9 121205898.810 6  94446230.495 9  23064737.23447
 23  3 10  2 54 12.0000000  0  7G04G08G16G26G27G28G31               
  21269285.531 6  21269294.363 8 111770848.586 6  87094201.441 8  21269293.41447
  21066916.000 6  21066929.859 9 110707389.670 6  86265555.541 9  21066927.93849
  21106599.367 6                 110915926.132 6  86428021.41948  21106605.52048
  22472192.125 5  22472207.094 9 118092157.218 5  92019879.500 9  22472205.92247
  19825908.320 7  19825917.941 9 104185851.749 7  81183818.239 9  19825917.24249
  23621604.344 1  23621627.117 9 124132376.246 1  96726609.694 9  23621626.12146
  23065101.148 6  23065121.512 9 121207914.058 6  94447800.816 9  23065121.05547
 23  3 10  2 54 13.0000000  0  7G04G08G16G26G27G28G31               
  21269136.633 6  21269144.949 8 111770063.031 6  87093589.322 8  21269143.64147
  21066474.922 6  21066488.754 9 110705070.600 6  86263748.482 9  21066486.77749
  21106805.172 6                 110917008.312 6  86428864.67348  21106811.27348
  22472542.852 5  22472557.625 9 118094000.721 5  92021315.980 9  22472556.34847
  19825860.500 7  19825870.129 9 104185599.556 7  81183621.724 9  19825869.69149
  23622064.914 1  23622087.777 9 124134797.620 1  96728496.481 9  23622086.69545
  23065483.875 6  23065504.879 9 121209929.776 6  94449371.492 9  23065504.53547
 23  3 10  2 54 14.0000000  0  7G04G08G16G26G27G28G31               
  21268987.445 5  21268995.887 8 111769278.563 5  87092978.036 8  21268994.42247
  21066033.594 6  21066047.523 9 110702752.445 6  86261942.124 9  21066045.73049
  21107011.594 6                 110918091.043 6  86429708.35448  21107017.21548
  22472893.516 5  22472907.984 9 118095844.621 5  92022752.781 9  22472907.20747
  19825813.000 7  19825822.461 9 104185348.494 7  81183426.095 9  19825821.92249
  23622525.125 1  23622548.867 9 124137219.828 1  96730383.921 9  23622547.98046
  23065867.766 6  23065888.168 9 121211946.185 6  94450942.714 9  23065887.96547
 23  3 10  2 54 15.0000000  0  7G04G08G16G26G27G28G31               
  21268837.883 5  21268846.758 8 111768494.892 5  87092367.376 8  21268845.35947
  21065592.586 6  21065606.457 9 110700435.014 6  86260136.340 9  21065604.47749
  21107217.633 6                 110919174.123 6  86430552.31548  21107223.51248
  22473244.656 5  22473258.809 9 118097688.768 5  92024189.781 9  22473257.73447
  19825765.430 7  19825775.035 9 104185098.297 7  81183231.129 9  19825774.60249
  23622986.930 1  23623009.758 9 124139642.454 1  96732271.677 9  23623009.05546
  23066251.836 6  23066272.352 9 121213963.063 6  94452514.303 9  23066271.71547
 23  3 10  2 54 16.0000000  0  7G04G08G16G26G27G28G31               
  21268688.781 5  21268697.895 8 111767711.997 5  87091757.343 8  21268696.45747
  21065151.672 6  21065165.715 9 110698118.313 6  86258331.121 9  21065164.14149
  21107423.680 6                 110920257.511 6  86431396.49548  21107429.32048
  22473595.773 5  22473610.313 9 118099532.979 5  92025626.820 9  22473609.19547
  19825717.766 7  19825727.609 9 104184848.936 7  81183036.818 9  19825727.07449
  23623447.672 2  23623470.594 9 124142065.467 2  96734159.768 9  23623470.03546
  23066635.359 6  23066656.227 9 121215980.372 6  94454086.238 9  23066655.64847
 23  3 10  2 54 17.0000000  0  7G04G08G16G26G27G28G31               
  21268540.625 5  21268549.195 8 111766930.083 5  87091148.074 8  21268547.82847
  21064710.875 6  21064725.168 9 110695802.394 6  86256526.506 9  21064723.07049
  21107629.883 6                 110921341.337 6  86432241.03848  21107635.68448
  22473946.859 5  22473960.723 9 118101377.508 5  92027064.088 9  22473959.92247
  19825670.680 7  19825680.449 9 104184600.549 7  81182843.268 9  19825679.91449
  23623909.172 2  23623931.738 9 124144489.098 2  96736048.336 9  23623931.48446
  23067019.844 5  23067040.480 9 121217998.239 5  94455658.601 9  23067039.80547
 23  3 10  2 54 18.0000000  0  7G04G08G16G26G27G28G31               
  21268391.211 5  21268400.895 9 111766148.955 5  87090539.397 9  21268399.49647
  21064270.148 6  21064283.895 9 110693487.168 6  86254722.450 9  21064282.10249
  21107836.063 6                 110922425.476 6  86433085.81348  21107842.37548
  22474297.906 5  22474311.527 9 118103222.189 5  92028501.505 9  22474310.78547
  19825623.594 7  19825633.094 9 104184353.019 7  81182650.387 9  19825632.44149
  23624370.953 1  23624393.238 9 124146913.221 1  96737937.272 9  23624393.05146
  23067403.547 5  23067424.359 9 121220016.560 5  94457231.310 9  23067423.72347
 23  3 10  2 54 19.0000000  0  7G04G08G16G26G27G28G31               
  21268243.398 5  21268252.055 8 111765368.764 5  87089931.457 8  21268250.88747
  21063829.664 6  21063843.922 9 110691172.762 6  86252919.013 9  21063842.00449
  21108042.430 6                 110923510.091 6  86433930.96048  21108048.39548
  22474649.414 6  22474662.715 9 118105067.163 6  92029939.128 9  22474661.88347
  19825576.539 7  19825586.414 9 104184106.494 7  81182458.289 9  19825585.83649
  23624832.234 2  23624854.340 9 124149337.892 2  96739826.627 9  23624854.23445
  23067787.664 6  23067808.414 9 121222035.496 6  94458804.492 9  23067808.02347
 23  3 10  2 54 20.0000000  0  7G04G08G16G26G27G28G31               
  21268094.648 5  21268103.641 8 111764589.325 5  87089324.098 8  21268102.65647
  21063389.711 6  21063403.336 9 110688858.960 6  86251116.045 9  21063401.43849
  21108248.836 6                 110924594.968 6  86434776.30948  21108254.50848
  22475000.367 5  22475013.746 8 118106912.263 5  92031376.859 8  22475012.91447
  19825530.117 7  19825539.648 9 104183860.768 7  81182266.818 9  19825539.17649
  23625293.508 2  23625315.938 8 124151763.013 2  96741716.338 8  23625315.89845
  23068172.031 6  23068192.840 8 121224054.812 6  94460377.977 8  23068192.27747
 23  3 10  2 54 21.0000000  0  7G04G08G16G26G27G28G31               
  21267946.234 5  21267955.523 8 111763810.713 5  87088717.387 8  21267954.60947
  21062949.266 6  21062963.586 9 110686545.849 6  86249313.627 9  21062961.46949
  21108455.375 6                 110925680.180 6  86435621.92548  21108461.05548
  22475351.914 5  22475365.203 9 118108757.507 5  92032814.712 9  22475364.40247
  19825483.383 7  19825493.156 9 104183615.921 7  81182076.030 9  19825492.30949
  23625756.398 2  23625777.473 8 124154188.645 2  96743606.460 8  23625777.28945
  23068556.297 5  23068577.566 8 121226074.594 5  94461951.829 8  23068576.64847
 23  3 10  2 54 22.0000000  0  7G04G08G16G26G27G28G31               
  21267798.688 5  21267807.332 8 111763033.196 5  87088111.539 8  21267806.47747
  21062509.539 6  21062523.262 9 110684233.692 6  86247511.940 9  21062521.34049
  21108662.188 6                 110926765.936 6  86436467.96648  21108667.82048
  22475702.750 6  22475716.355 9 118110603.150 6  92034252.863 9  22475715.60947
  19825436.891 7  19825446.789 9 104183372.154 7  81181886.072 9  19825446.10549
  23626217.438 2  23626239.852 8 124156614.856 2  96745497.017 8  23626239.34446
  23068941.195 5  23068961.457 9 121228095.005 5  94463526.175 9  23068960.84447
 23  3 10  2 54 23.0000000  0  7G04G08G16G26G27G28G31               
  21267650.789 5  21267659.531 8 111762256.270 5  87087506.126 8  21267658.71147
  21062069.539 6  21062084.063 9 110681922.007 6  86245710.636 9  21062081.63349
  21108868.492 6                 110927851.900 6  86437314.17248  21108874.24648
  22476053.492 5  22476067.688 9 118112448.856 5  92035691.052 9  22476066.62547
  19825390.883 7  19825400.383 9 104183129.107 7  81181696.691 9  19825399.66449
  23626678.391 2  23626700.977 8 124159041.498 2  96747387.913 8  23626700.95346
  23069325.539 5  23069345.797 9 121230115.805 5  94465100.823 9  23069345.45747
 23  3 10  2 54 24.0000000  0  7G04G08G16G26G27G28G31               
  21267502.734 5  21267512.227 9 111761480.399 5  87086901.552 9  21267511.35947
  21061629.961 6  21061643.801 9 110679611.265 6  86243910.058 9  21061641.71549
  21109075.563 6                 110928938.400 6  86438160.79348  21109081.61348
  22476405.023 5  22476419.129 9 118114294.928 5  92037129.543 9  22476418.51647
  19825344.352 7  19825354.289 9 104182887.152 7  81181508.157 9  19825353.65649
  23627140.492 3  23627162.848 8 124161468.817 3  96749279.324 8  23627162.62546
  23069710.477 5  23069730.387 9 121232137.263 5  94466675.976 9  23069730.22747
 23  3 10  2 54 25.0000000  0  7G04G08G16G26G27G28G31               
  21267355.875 5  21267364.414 9 111760705.514 5  87086297.747 9  21267363.60247
  21061190.203 6  21061204.473 9 110677301.396 6  86242110.159 9  21061202.21549
  21109282.258 6                 110930025.400 6  86439007.80448  21109288.33648
  22476756.031 5  22476770.691 9 118116141.312 5  92038568.272 9  22476769.82847
  19825298.586 7  19825308.293 9 104182646.215 7  81181320.410 9  19825307.55949
  23627602.586 3  23627624.750 8 124163896.740 3  96751171.229 8  23627624.10546
  23070094.938 5  23070115.703 9 121234159.328 5  94468251.600 9  23070115.16047
 23  3 10  2 54 26.0000000  0  7G04G08G16G26G27G28G31               
  21267207.953 5  21267217.219 9 111759931.356 5  87085694.507 9  21267216.38347
  21060750.656 6  21060764.996 9 110674992.101 6  86240310.715 9  21060762.46149
  21109488.875 6                 110931112.625 6  86439854.98548  21109495.14848
  22477107.633 5  22477122.305 9 118117987.770 5  92040007.058 9  22477121.29747
  19825253.266 7  19825262.891 9 104182406.054 7  81181133.273 9  19825261.94149
  23628064.531 3  23628087.211 8 124166325.043 3  96753063.408 8  23628086.12946
  23070480.109 5  23070499.871 9 121236181.733 5  94469827.492 9  23070499.32047
 23  3 10  2 54 27.0000000  0  7G04G08G16G26G27G28G31               
  21267060.945 5  21267070.258 9 111759157.933 5  87085091.835 9  21267069.32447
  21060311.289 6  21060325.656 9 110672683.476 6  86238511.785 9  21060323.51249
  21109696.078 6                 110932200.124 6  86440702.37548  21109702.13348
  22477459.305 5  22477473.156 9 118119834.345 5  92041445.940 9  22477472.35547
  19825207.344 7  19825216.973 9 104182166.697 7  81180946.764 9  19825216.52349
  23628526.727 3  23628549.313 8 124168753.699 3  96754955.868 8  23628548.12146
  23070865.313 6  23070885.570 9 121238204.539 6  94471403.698 9  23070884.57447
 23  3 10  2 54 28.0000000  0  7G04G08G16G26G27G28G31               
  21266914.750 5  21266923.215 9 111758385.468 5  87084489.908 9  21266922.50847
  21059872.328 6  21059886.852 9 110670375.634 6  86236713.466 9  21059884.07849
  21109902.781 6                 110933288.085 6  86441550.13748  21109909.23848
  22477810.242 5  22477824.508 9 118121681.203 5  92042885.048 9  22477823.94947
  19825162.047 7  19825171.418 9 104181928.334 7  81180761.023 9  19825170.67649
  23628989.234 3  23629011.441 8 124171183.057 3  96756848.881 8  23629010.38346
  23071250.297 6  23071270.449 9 121240227.990 6  94472980.394 9  23071269.53947
 23  3 10  2 54 29.0000000  0  7G04G08G16G26G27G28G31               
  21266766.867 5  21266776.211 9 111757613.764 5  87083888.576 9  21266775.33247
  21059433.109 6  21059447.422 9 110668068.463 6  86234915.676 9  21059445.01249
  21110110.305 6                 110934376.314 6  86442398.10848  21110116.43848
  22478161.813 5  22478176.223 9 118123528.195 5  92044324.251 9  22478175.51247
  19825117.078 7  19825126.656 9 104181690.785 7  81180575.919 9  19825126.12549
  23629451.586 2  23629473.652 8 124173612.805 2  96758742.188 8  23629472.39145
  23071635.289 6  23071655.539 9 121242251.782 6  94474557.367 9  23071654.59847
 23  3 10  2 54 30.0000000  0  7G04G08G16G26G27G28G31               
  21266620.633 5  21266629.613 9 111756842.959 5  87083287.945 9  21266628.78947
  21058994.008 6  21059008.297 9 110665762.079 6  86233118.496 9  21059005.91449
  21110317.031 6                 110935464.969 6  86443246.40748  21110323.36748
  22478513.453 5  22478527.488 9 118125375.426 5  92045763.659 9  22478527.10547
  19825071.930 7  19825081.008 9 104181454.180 7  81180391.542 9  19825080.31349
  23629914.391 2  23629936.250 8 124176043.029 2  96760635.859 8  23629934.92245
  23072020.070 6  23072040.707 9 121244276.119 6  94476134.763 9  23072039.53547
 23  3 10  2 54 31.0000000  0  7G04G08G16G26G27G28G31               
  21266474.461 5  21266483.863 9 111756072.975 5  87082687.961 9  21266482.94547
  21058555.695 6  21058569.531 9 110663456.368 6  86231321.832 9  21058567.16449
  21110524.445 6                 110936553.913 6  86444094.92248  21110530.74248
  22478864.922 5  22478878.961 9 118127222.828 5  92047203.180 9  22478878.61347
  19825027.117 7  19825036.719 9 104181218.430 7  81180207.841 9  19825036.14549
  23630376.789 2  23630398.672 8 124178473.776 2  96762529.963 8  23630397.03145
  23072406.117 5  23072426.832 8 121246300.964 5  94477712.547 8  23072425.41047
 23  3 10  2 54 32.0000000  0  7G04G08G16G26G27G28G31               
  21266327.648 5  21266336.699 8 111755303.944 5  87082088.707 8  21266335.97347
  21058116.883 6  21058130.961 9 110661151.551 6  86229525.882 9  21058128.86349
  21110731.953 6                 110937643.395 6  86444943.86148  21110738.33648
  22479216.570 5  22479230.645 9 118129070.563 5  92048642.958 9  22479230.14147
  19824982.570 7  19824991.676 9 104180983.714 7  81180024.945 9  19824991.12549
  23630838.836 2  23630861.805 7 124180905.138 2  96764424.514 7  23630859.48445
  23072791.352 6  23072811.375 8 121248326.403 6  94479290.788 8  23072809.92247
 23  3 10  2 54 33.0000000  0  7G04G08G16G26G27G28G31               
  21266181.984 5  21266190.918 8 111754535.771 5  87081490.126 8  21266190.28547
  21057678.672 6  21057692.449 9 110658847.471 6  86227730.491 9  21057690.25049
  21110939.492 6                 110938733.226 6  86445793.08448  21110945.10248
  22479568.625 5  22479582.266 9 118130918.487 5  92050082.896 9  22479581.78947
  19824937.914 7  19824947.180 9 104180749.908 7  81179842.756 9  19824946.47349
  23631301.898 2  23631325.449 8 124183336.994 2  96766319.452 8  23631322.48045
  23073176.719 6  23073196.699 8 121250352.304 6  94480869.403 8  23073195.23047
 23  3 10  2 54 34.0000000  0  7G04G08G16G26G27G28G31               
  21266035.070 5  21266044.813 9 111753768.292 5  87080892.088 9  21266044.24647
  21057240.711 6  21057254.070 9 110656543.950 6  86225935.540 9  21057252.35549
  21111146.945 6                 110939823.244 6  86446642.44948  21111152.70348
  22479920.313 5  22479934.422 9 118132766.475 5  92051522.876 9  22479933.89847
  19824893.703 7  19824903.168 9 104180516.848 7  81179661.149 9  19824902.49249
  23631764.938 2  23631788.457 8 124185769.268 2  96768214.711 8  23631784.99245
  23073562.297 6  23073582.672 8 121252378.616 6  94482448.331 8  23073581.33247
 23  3 10  2 54 35.0000000  0  7G04G08G16G26G27G28G31               
  21265889.344 5  21265898.594 9 111753001.698 5  87080294.742 9  21265898.02747
  21056802.289 6  21056815.895 9 110654241.151 6  86224141.155 9  21056813.84849
  21111354.156 6                 110940913.648 6  86447492.10448  21111360.39148
  22480272.141 5  22480285.996 9 118134614.637 5  92052962.984 9  22480285.65647
  19824849.570 7  19824858.848 9 104180284.687 7  81179480.241 9  19824858.34049
  23632227.039 2  23632251.473 8 124188201.955 2  96770110.309 8  23632247.95345
  23073948.313 6  23073968.281 9 121254405.362 6  94484027.599 9  23073966.68847
 23  3 10  2 54 36.0000000  0  7G04G08G16G26G27G28G31               
  21265743.648 5  21265753.137 9 111752235.924 5  87079698.028 9  21265752.41847
  21056364.211 6  21056377.914 9 110651939.084 6  86222347.343 9  21056375.87949
  21111561.742 6                 110942004.412 6  86448342.04248  21111568.05548
  22480623.844 6  22480637.539 9 118136463.042 6  92054403.287 9  22480637.09047
  19824805.664 7  19824814.902 9 104180053.415 7  81179300.027 9  19824814.15249
  23632689.742 2  23632714.629 8 124190635.175 2  96772006.331 8  23632710.57045
  23074333.938 6  23074354.125 8 121256432.613 6  94485607.253 8  23074352.64147
 23  3 10  2 54 37.0000000  0  7G04G08G16G26G27G28G31               
  21265598.609 5  21265607.426 9 111751470.963 5  87079101.958 9  21265606.62947
  21055925.828 6  21055939.984 9 110649637.701 6  86220554.053 9  21055937.55149
  21111769.313 6                 110943095.487 6  86449192.22648  21111775.28948
  22480975.508 5  22480989.414 9 118138311.581 5  92055843.704 9  22480988.88747
  19824761.305 7  19824771.070 9 104179823.006 7  81179120.483 9  19824770.46149
  23633154.211 2  23633177.695 8 124193068.850 2  96773902.699 8  23633173.28545
  23074719.813 6  23074740.477 9 121258460.322 6  94487187.287 9  23074738.52347
 23  3 10  2 54 38.0000000  0  7G04G08G16G26G27G28G31               
  21265453.672 5  21265462.230 9 111750706.827 5  87078506.527 9  21265461.56647
  21055488.758 6  21055502.582 9 110647337.019 6  86218761.308 9  21055500.65249
  21111977.305 6                 110944186.914 6  86450042.68648  21111983.52348
  22481326.977 5  22481341.414 9 118140160.290 5  92057284.240 9  22481340.76647
  19824718.086 7  19824727.648 9 104179593.462 7  81178941.618 9  19824726.82849
  23633617.281 2  23633641.031 8 124195503.013 2  96775799.456 8  23633636.71146
  23075105.266 6  23075126.613 9 121260488.463 6  94488767.644 9  23075124.91447
 23  3 10  2 54 39.0000000  0  7G04G08G16G26G27G28G31               
  21265307.844 5  21265317.031 9 111749943.652 5  87077911.849 9  21265316.54347
  21055050.477 6  21055064.621 9 110645037.178 6  86216969.239 9  21055062.63349
  21112184.680 6                 110945278.816 6  86450893.52548  21112191.33648
  22481678.859 5  22481692.910 9 118142009.307 5  92058725.041 9  22481692.73847
  19824674.219 7  19824683.527 9 104179364.931 7  81178763.557 9  19824682.78949
  23634080.688 2  23634103.453 8 124197937.797 2  96777696.688 8  23634099.83246
  23075492.234 6  23075512.320 9 121262517.219 6  94490348.500 9  23075510.50847
 23  3 10  2 54 40.0000000  0  7G04G08G16G26G27G28G31               
  21265162.445 5  21265171.996 9 111749181.128 5  87077317.686 9  21265171.55947
  21054612.813 6  21054627.188 9 110642737.859 6  86215177.581 9  21054625.59049
  21112392.563 6                 110946370.875 6  86451744.49948  21112398.84048
  22482030.406 5  22482044.660 9 118143858.346 5  92060165.866 9  22482044.31347
  19824630.883 7  19824640.645 9 104179137.108 7  81178586.056 9  19824639.94949
  23634543.336 2  23634566.379 8 124200372.868 2  96779594.193 8  23634562.88346
  23075878.008 6  23075897.828 9 121264546.291 6  94491929.618 9  23075896.07047
 23  3 10  2 54 41.0000000  0  7G04G08G16G26G27G28G31               
  21265017.836 5  21265026.715 9 111748419.667 5  87076724.369 9  21265026.23047
  21054175.516 6  21054189.016 9 110640439.441 6  86213386.638 9  21054187.23049
  21112600.539 6                 110947463.471 6  86452595.91248  21112606.55548
  22482383.063 5  22482396.602 9 118145707.816 5  92061607.028 9  22482396.67647
  19824587.992 7  19824597.129 9 104178910.365 7  81178409.410 9  19824596.57449
  23635007.805 3  23635029.523 8 124202808.651 3  96781492.254 8  23635026.62545
  23076263.898 6  23076284.645 9 121266576.021 6  94493511.260 9  23076283.41047
 23  3 10  2 54 42.0000000  0  7G04G08G16G26G27G28G31               
  21264872.969 5  21264881.969 9 111747658.953 5  87076131.621 9  21264881.49647
  21053738.344 6  21053752.164 9 110638141.710 6  86211596.210 9  21053750.85949
  21112808.438 6                 110948556.388 6  86453447.55748  21112814.93048
  22482735.102 5  22482748.594 9 118147557.368 5  92063048.249 9  22482748.32447
  19824544.930 7  19824554.574 9 104178684.457 7  81178233.390 9  19824554.38349
  23635470.992 3  23635492.828 8 124205244.867 3  96783390.615 8  23635490.13345
  23076650.875 6  23076670.891 9 121268606.170 6  94495093.207 9  23076669.55947
 23  3 10  2 54 43.0000000  0  7G04G08G16G26G27G28G31               
  21264728.078 5  21264737.492 9 111746898.967 5  87075539.416 9  21264737.02747
  21053301.023 6  21053315.363 9 110635844.565 6  86209806.227 9  21053313.68049
  21113016.367 6                 110949649.533 6  86454299.35648  21113022.86748
  22483087.156 5  22483100.430 9 118149407.004 5  92064489.506 9  22483100.05147
  19824502.133 7  19824512.102 9 104178459.339 7  81178057.975 9  19824511.48449
  23635935.195 2  23635956.258 8 124207681.451 2  96785289.249 8  23635953.84046
  23077037.344 6  23077057.125 9 121270636.717 6  94496675.438 9  23077056.07047
 23  3 10  2 54 44.0000000  0  7G04G08G16G26G27G28G31               
  21264583.953 5  21264592.891 8 111746140.025 5  87074948.023 8  21264592.37947
  21052864.406 6  21052878.184 9 110633548.361 6  86208016.976 9  21052876.46949
  21113225.133 6                 110950743.194 6  86455151.55247  21113231.15247
  22483438.891 5  22483452.309 8 118151257.025 5  92065931.074 8  22483451.91047
  19824459.586 7  19824469.156 9 104178235.278 7  81177883.370 9  19824468.87549
  23636399.047 3  23636420.363 8 124210118.739 3  96787188.441 8  23636418.00446
  23077423.148 6  23077443.402 8 121272667.861 6  94498258.144 8  23077442.52347
 23  3 10  2 54 45.0000000  0  7G04G08G16G26G27G28G31               
  21264439.344 5  21264448.266 8 111745381.890 5  87074357.265 8  21264448.02347
  21052427.438 6  21052441.227 9 110631252.813 6  86206228.231 9  21052439.62149
  21113433.227 6                 110951837.229 6  86456004.04648  21113439.32448
  22483790.695 5  22483804.184 8 118153107.189 5  92067372.736 8  22483804.06347
  19824416.781 7  19824426.547 9 104178012.081 7  81177709.445 9  19824426.12949
  23636863.406 3  23636884.348 8 124212556.467 3  96789087.974 8  23636882.10945
  23077809.852 6  23077830.004 8 121274699.530 6  94499841.246 8  23077829.35947
 23  3 10  2 54 46.0000000  0  7G04G08G16G26G27G28G31               
  21264295.133 5  21264304.684 9 111744624.340 5  87073766.959 9  21264304.23047
  21051990.742 6  21052004.121 9 110628957.764 6  86204439.881 9  21052002.62949
  21113641.273 6                 110952931.328 6  86456856.58448  21113647.53148
  22484143.023 5  22484156.688 9 118154957.306 5  92068814.382 9  22484156.36747
  19824374.555 7  19824383.867 9 104177789.519 7  81177536.019 9  19824383.54349
  23637327.047 3  23637348.082 8 124214994.429 3  96790987.695 8  23637346.04745
  23078197.719 6  23078217.230 9 121276731.412 6  94501424.520 9  23078216.43047
 23  3 10  2 54 47.0000000  0  7G04G08G16G26G27G28G31               
  21264151.203 5  21264160.637 9 111743867.714 5  87073177.377 9  21264160.09847
  21051554.102 6  21051567.715 9 110626663.511 6  86202652.148 9  21051566.22749
  21113849.758 6                 110954025.884 6  86457709.47948  21113856.09848
  22484495.023 5  22484508.594 9 118156807.706 5  92070256.254 9  22484508.10947
  19824332.664 7  19824341.957 9 104177567.933 7  81177363.352 9  19824341.27049
  23637790.781 3  23637812.059 8 124217433.047 3  96792887.904 8  23637810.07845
  23078583.875 6  23078604.066 9 121278763.848 6  94503008.228 9  23078603.17247
 23  3 10  2 54 48.0000000  0  7G04G08G16G26G27G28G31               
  21264007.930 6  21264016.566 9 111743111.939 6  87072588.467 9  21264016.00847
  21051117.617 6  21051131.547 9 110624370.011 6  86200865.006 9  21051130.00449
  21114057.992 6                 110955120.812 6  86458562.65848  21114064.29748
  22484847.164 5  22484861.184 9 118158658.302 5  92071698.266 9  22484860.83247
  19824290.484 7  19824300.141 9 104177347.275 7  81177191.413 9  19824299.69549
  23638254.625 2  23638276.406 9 124219872.104 2  96794788.476 9  23638274.51245
  23078970.117 6  23078990.551 9 121280796.801 6  94504592.320 9  23078989.81347
 23  3 10  2 54 49.0000000  0  7G04G08G16G26G27G28G31               
  21263863.398 5  21263873.086 9 111742357.005 5  87072000.209 9  21263872.55547
  21050681.063 6  21050694.723 9 110622077.196 6  86199078.399 9  21050693.12549
  21114266.422 6                 110956216.052 6  86459416.08448  21114272.83248
  22485199.023 5  22485213.441 9 118160509.066 5  92073140.406 9  22485212.89847
  19824248.563 7  19824258.313 9 104177127.463 7  81177020.126 9  19824257.60249
  23638718.492 2  23638740.355 9 124222311.650 2  96796689.419 9  23638738.85545
  23079357.664 6  23079377.828 9 121282830.223 6  94506176.799 9  23079377.19147
 23  3 10  2 54 50.0000000  0  7G04G08G16G26G27G28G31               
  21263720.688 5  21263729.590 9 111741603.011 5  87071412.669 9  21263729.41047
  21050244.859 6  21050258.563 9 110619785.217 6  86197292.434 9  21050257.21949
  21114474.977 6                 110957311.770 6  86460269.88948  21114481.95348
  22485551.250 5  22485565.887 9 118162360.161 5  92074582.808 9  22485565.19147
  19824206.961 7  19824216.797 9 104176908.646 7  81176849.619 9  19824216.27749
  23639182.844 3  23639204.855 9 124224751.796 3  96798590.835 9  23639203.24246
  23079744.367 6  23079764.426 9 121284864.199 6  94507761.711 9  23079763.76647
 23  3 10  2 54 51.0000000  0  7G04G08G16G26G27G28G31               
  21263577.086 6  21263586.512 9 111740849.761 6  87070825.710 9  21263586.07047
  21049809.664 6  21049822.848 9 110617493.876 6  86195506.980 9  21049821.53949
  21114683.359 6                 110958407.740 6  86461123.88848  21114690.12948
  22485903.594 5  22485918.449 9 118164211.344 5  92076025.280 9  22485917.98047
  19824165.273 7  19824175.676 9 104176690.646 7  81176679.748 9  19824174.65649
  23639647.531 3  23639669.355 9 124227192.317 3  96800492.558 9  23639667.87946
  23080130.977 6  23080151.660 9 121286898.572 6  94509346.930 9  23080151.10947
 23  3 10  2 54 52.0000000  0  7G04G08G16G26G27G28G31               
  21263434.117 5  21263443.301 9 111740097.385 5  87070239.430 9  21263442.56347
  21049373.641 6  21049386.984 9 110615203.253 6  86193722.081 9  21049385.75849
  21114892.125 6                 110959504.099 6  86461978.18448  21114898.75448
  22486256.359 6  22486270.125 9 118166062.744 6  92077467.920 9  22486269.95347
  19824124.344 7  19824133.785 9 104176473.542 7  81176510.568 9  19824133.11749
  23640110.766 3  23640133.660 9 124229633.432 3  96802394.733 9  23640132.36746
  23080518.797 6  23080539.047 9 121288933.480 6  94510932.568 9  23080538.27347
 23  3 10  2 54 53.0000000  0  7G04G08G16G26G27G28G31               
  21263290.859 5  21263300.609 9 111739345.885 5  87069653.848 9  21263299.99647
  21048937.453 6  21048950.918 9 110612913.411 6  86191937.799 9  21048949.59049
  21115100.891 6                 110960600.873 6  86462832.80848  21115106.98448
  22486608.258 5  22486622.559 9 118167914.355 5  92078910.726 9  22486622.47747
  19824083.047 7  19824092.992 9 104176257.379 7  81176342.132 9  19824092.12549
  23640575.766 3  23640597.879 9 124232074.978 3  96804297.238 9  23640596.96946
  23080906.094 6  23080926.145 9 121290968.881 6  94512518.602 9  23080925.16047
 23  3 10  2 54 54.0000000  0  7G04G08G16G26G27G28G31               
  21263148.297 5  21263157.426 9 111738595.049 5  87069068.773 9  21263157.11747
  21048502.305 6  21048516.035 9 110610624.106 6  86190153.935 9  21048514.47349
  21115309.602 6                 110961697.745 6  86463687.50748  21115316.01648
  22486961.500 6  22486975.379 9 118169765.997 6  92080353.563 9  22486975.32047
  19824042.188 7  19824051.746 9 104176041.908 7  81176174.233 9  19824051.09049
