     3.02           OBSERVATION DATA    G: GPS              RINEX VERSION / TYPE
convert_skytraq_raw Skytraq Corp.       20241228 100653 UTC PGM / RUN BY / DATE 
Test version 0.1                                            COMMENT             
                                                            MARKER NAME         
                                                            MARKER NUMBER       
                                                            MARKER TYPE         
Skytraq Corp.                                               OBSERVER / AGENCY   
                                                            REC # / TYPE / VERS 
                                                            ANT # / TYPE        
 -2964410.4769  5075134.6638  2468938.9608                  APPROX POSITION XYZ 
        0.0000        0.0000        0.0000                  ANTENNA: DELTA H/E/N
G    4 C1C L1C D1C S1C                                      SYS / # / OBS TYPES 
  2024    12    28     3    23   34.9949999     GPS         TIME OF FIRST OBS   
  2024    12    28     4    15    1.9940000     GPS         TIME OF LAST OBS    
                                                            END OF HEADER       
> 2024 12 28  3 23 34.9949999  0  8                     
G10  23585251.447      217125.843       -2822.000          36.000  
G16  20056944.144     -194890.970        2499.000          45.000  
G25  23903844.749      102480.8201      -2948.000          16.000  
G27  23229461.017     -322280.861        4202.000          36.000  
G28  20568780.529       -9433.350         118.000          40.000  
G29  22248526.204       59384.434        -790.000          36.000  
G31  20163568.290      -64379.096         828.000          43.000  
G32  20066744.500       98033.400       -1287.000          49.000  
> 2024 12 28  3 23 35.9949999  0  8                     
G10  23585793.695      219947.615       -2821.000          35.000  
G16  20056468.032     -197390.527        2499.000          45.000  
G25  23904402.668      105425.2051      -2944.000          20.000  
G27  23228660.576     -326483.596        4202.000          36.000  
G28  20568757.739       -9552.418         119.000          40.000  
G29  22248664.409       60175.022        -790.000          35.000  
G31  20163410.610      -65208.086         828.000          43.000  
G32  20066989.257       99320.880       -1287.000          48.000  
> 2024 12 28  3 23 36.9949999  0  8                     
G10  23586332.663      222768.434       -2820.000          35.000  
G16  20055991.397     -199890.382        2499.000          46.000  
G25  23904978.315      108379.6171      -2954.000          16.000  
G27  23227864.357     -330687.158        4203.000          36.000  
G28  20568734.670       -9672.172         119.000          40.000  
G29  22248823.695       60965.347        -790.000          36.000  
G31  20163252.720      -66037.738         829.000          44.000  
G32  20067233.944      100608.085       -1287.000          49.000  
> 2024 12 28  3 23 37.9949999  0  8                     
G10  23586868.454      225588.582       -2820.000          34.000  
G16  20055515.146     -202390.213        2499.000          46.000  
G25  23905498.751      111321.8231      -2942.000          20.000  
G27  23227064.753     -334891.308        4204.000          36.000  
G28  20568711.426       -9792.392         120.000          40.000  
G29  22248974.535       61755.746        -790.000          36.000  
G31  20163095.040      -66867.878         830.000          44.000  
G32  20067478.805      101895.315       -1287.000          49.000  
> 2024 12 28  3 23 38.9949999  0  8                     
G10  23587407.352      228408.100       -2819.000          35.000  
G16  20055039.139     -204889.992        2499.000          46.000  
G25  23906057.681      114259.2531      -2937.000          18.000  
G27  23226265.079     -339096.002        4204.000          36.000  
G28  20568687.484       -9912.960         120.000          41.000  
G29  22249124.432       62546.292        -790.000          36.000  
G31  20162937.569      -67698.307         830.000          44.000  
G32  20067723.039      103182.619       -1287.000          49.000  
> 2024 12 28  3 23 39.9949999  0  8                     
G10  23587944.993      231228.832       -2820.000          35.000  
G16  20054563.655     -207387.973        2497.000          46.000  
G25  23906626.314      117200.6101      -2941.000          16.000  
G27  23225463.731     -343299.420        4203.000          36.000  
G28  20568664.310      -10032.095         119.000          41.000  
G29  22249274.818       63338.679        -792.000          36.000  
G31  20162780.238      -68527.329         829.000          44.000  
G32  20067967.481      104471.784       -1289.000          48.000  
> 2024 12 28  3 23 40.9949999  0  8                     
G10  23588481.029      234051.942       -2823.000          35.000  
G16  20054088.835     -209882.853        2494.000          46.000  
G25  23907178.509      120141.7191      -2941.000          18.000  
G27  23224663.813     -347500.387        4200.000          36.000  
G28  20568641.206      -10148.596         116.000          40.000  
G29  22249426.007       64134.222        -795.000          37.000  
G31  20162623.012      -69353.719         826.000          44.000  
G32  20068212.936      105764.048       -1292.000          48.000  
> 2024 12 28  3 23 41.9949999  0  8                     
G10  23589013.540      236876.406       -2824.000          34.000  
G16  20053615.026     -212375.764        2492.000          46.000  
G25  23907771.188      123090.6751      -2948.000          18.000  
G27  23223863.964     -351699.894        4199.000          36.000  
G28  20568619.359      -10263.516         114.000          41.000  
G29  22249577.649       64931.836        -797.000          37.000  
G31  20162466.274      -70178.519         824.000          44.000  
G32  20068458.740      107058.312       -1294.000          48.000  
> 2024 12 28  3 23 42.9949999  0  8                     
G10  23589547.133      239698.305       -2821.000          33.000  
G16  20053141.148     -214870.556        2494.000          46.000  
G25  23908314.099      126034.6321      -2943.000          21.000  
G27  23223063.872     -355901.853        4201.000          37.000  
G28  20568596.708      -10380.749         117.000          41.000  
G29  22249729.920       65727.579        -795.000          38.000  
G31  20162308.943      -71005.611         827.000          44.000  
G32  20068704.334      108350.738       -1292.000          48.000  
> 2024 12 28  3 23 43.9949999  0  8                     
G10  23590087.007      242520.553       -2822.000          34.000  
G16  20052666.537     -217364.304        2493.000          45.000  
G25  23908865.840      128979.1111      -2944.000          21.000  
G27  23222263.954     -360103.399        4201.000          37.000  
G28  20568574.861      -10497.361         116.000          41.000  
G29  22249883.202       66524.439        -796.000          38.000  
G31  20162151.332      -71832.081         826.000          44.000  
G32  20068950.417      109644.226       -1293.000          48.000  
> 2024 12 28  3 23 44.9949999  0  8                     
G10  23590622.555      245344.569       -2824.000          33.000  
G16  20052192.450     -219855.653        2491.000          46.000  
G25  23909446.234      131922.4681      -2943.000          20.000  
G27  23221464.315     -364303.110        4199.000          37.000  
G28  20568553.571      -10611.981         114.000          41.000  
G29  22250036.450       67323.804        -799.000          38.000  
G31  20161993.826      -72656.545         824.000          44.000  
G32  20069196.814      110940.124       -1295.000          48.000  
> 2024 12 28  3 23 45.9949999  0  8                     
G10  23591158.939      248167.730       -2823.000          33.000  
G16  20051718.222     -222347.143        2491.000          46.000  
G25  23909980.385      134872.3461      -2949.000          20.000  
G27  23220665.095     -368503.496        4200.000          36.000  
G28  20568532.701      -10727.142         115.000          42.000  
G29  22250188.930       68123.076        -799.000          39.000  
G31  20161836.879      -73481.540         824.000          43.000  
G32  20069443.456      112235.925       -1295.000          48.000  
> 2024 12 28  3 23 46.9949999  0  8                     
G10  23591701.013      250989.983       -2822.000          33.000  
G16  20051243.262     -224838.896        2491.000          46.000  
G25  23910548.320      137816.2521      -2943.000          21.000  
G27  23219864.584     -372704.759        4201.000          36.000  
G28  20568511.761      -10843.000         115.000          41.000  
G29  22250340.991       68922.109        -799.000          39.000  
G31  20161679.653      -74307.230         825.000          43.000  
G32  20069689.853      113531.499       -1295.000          48.000  
> 2024 12 28  3 23 47.9949999  0  8                     
G10  23592238.480      253811.443       -2821.000          33.000  
G16  20050769.070     -227330.781        2491.000          46.000  
G25  23911125.992      140763.5661      -2947.000          19.000  
G27  23219058.907     -376906.688        4201.000          36.000  
G28  20568491.274      -10959.395         116.000          41.000  
G29  22250492.599       69721.097        -798.000          39.000  
G31  20161521.589      -75133.453         826.000          43.000  
G32  20069936.424      114826.961       -1295.000          48.000  
> 2024 12 28  3 23 48.9949999  0  8                     
G10  23592782.368      256631.523       -2820.000          33.000  
G16  20050294.808     -229823.384        2492.000          46.000  
G25  23911635.259      143711.7951      -2948.000          18.000  
G27  23218260.665     -381109.918        4203.000          36.000  
G28  20568470.718      -11076.913         117.000          42.000  
G29  22250644.276       70519.450        -798.000          39.000  
G31  20161364.013      -75960.813         827.000          44.000  
G32  20070182.193      116121.725       -1294.000          48.000  
> 2024 12 28  3 23 49.9949999  0  8                     
G10  23593316.903      259450.772       -2819.000          34.000  
G16  20049820.442     -232316.151        2492.000          46.000  
G25  23912230.068      146653.0501      -2941.000          23.000  
G27  23217462.387     -385313.922        4204.000          36.000  
G28  20568448.940      -11195.042         118.000          42.000  
G29  22250795.116       71317.672        -798.000          38.000  
G31  20161206.473      -76788.740         827.000          43.000  
G32  20070427.648      117416.339       -1294.000          48.000  
> 2024 12 28  3 23 50.9949999  0  8                     
G10  23593853.846      262269.404       -2818.000          34.000  
G16  20049345.830     -234808.848        2492.000          46.000  
G25  23912782.262      149593.5381      -2940.000          23.000  
G27  23216662.329     -389518.408        4204.000          36.000  
G28  20568426.708      -11313.518         118.000          42.000  
G29  22250945.188       72116.032        -798.000          38.000  
G31  20161048.967      -77616.987         828.000          43.000  
G32  20070673.242      118711.078       -1294.000          48.000  
> 2024 12 28  3 23 51.9949999  0  8                     
G10  23594391.313      265087.686       -2818.000          34.000  
G16  20048871.778     -237301.218        2492.000          46.000  
G25  23913335.609      152532.5321      -2938.000          21.000  
G27  23215862.411     -393723.126        4204.000          36.000  
G28  20568404.163      -11432.052         118.000          42.000  
G29  22251095.957       72914.804        -798.000          38.000  
G31  20160891.636      -78445.343         828.000          43.000  
G32  20070919.779      120006.161       -1295.000          48.000  
> 2024 12 28  3 23 52.9949999  0  8                     
G10  23594930.525      267906.026       -2818.000          35.000  
G16  20048398.109     -239792.868        2491.000          46.000  
G25  23913906.405      155472.9941      -2940.000          24.000  
G27  23215061.551     -397927.764        4204.000          36.000  
G28  20568380.570      -11550.300         118.000          41.000  
G29  22251247.984       73714.330        -799.000          38.000  
G31  20160734.235      -79273.380         828.000          43.000  
G32  20071166.665      121301.962       -1295.000          48.000  
> 2024 12 28  3 23 53.9949999  0  8                     
G10  23595471.202      270724.334       -2818.000          35.000  
G16  20047924.475     -242283.896        2491.000          46.000  
G25  23914470.745      158412.8381      -2939.000          24.000  
G27  23214252.001     -402132.349        4204.000          36.000  
G28  20568358.059      -11668.378         118.000          41.000  
G29  22251401.022       74514.542        -800.000          39.000  
G31  20160577.253      -80101.203         827.000          44.000  
G32  20071413.864      122598.406       -1296.000          48.000  
> 2024 12 28  3 23 54.9949999  0  8                     
G10  23596011.182      273543.112       -2818.000          36.000  
G16  20047450.981     -244773.787        2489.000          46.000  
G25  23915019.380      161353.4091      -2940.000          24.000  
G27  23213455.852     -406336.356        4204.000          36.000  
G28  20568334.606      -11785.697         117.000          41.000  
G29  22251553.956       75315.914        -801.000          39.000  
G31  20160419.642      -80928.333         827.000          44.000  
G32  20071661.343      123896.003       -1297.000          48.000  
> 2024 12 28  3 23 55.9949999  0  8                     
G10  23596545.542      276361.860       -2818.000          36.000  
G16  20046977.068     -247262.973        2489.000          46.000  
G25  23915579.009      164294.7281      -2941.000          23.000  
G27  23212655.899     -410540.206        4203.000          36.000  
G28  20568311.013      -11902.742         117.000          41.000  
G29  22251706.261       76118.121        -802.000          39.000  
G31  20160262.416      -81755.163         826.000          43.000  
G32  20071908.648      125194.383       -1298.000          48.000  
> 2024 12 28  3 23 56.9949999  0  8                     
G10  23597080.985      279179.051       -2817.000          35.000  
G16  20046503.295     -249753.115        2490.000          46.000  
G25  23916113.299      167235.3861      -2940.000          21.000  
G27  23211856.260     -414745.595        4205.000          36.000  
G28  20568287.909      -12021.141         118.000          41.000  
G29  22251858.323       76919.451        -801.000          38.000  
G31  20160104.701      -82583.333         828.000          43.000  
G32  20072155.499      126491.832       -1297.000          48.000  
> 2024 12 28  3 23 57.9949999  0  8                     
G10  23597624.699      281994.935       -2815.000          36.000  
G16  20046028.509     -252243.884        2490.000          45.000  
G25  23916711.877      170174.0231      -2938.000          23.000  
G27  23211053.411     -418952.1991       4206.000          35.000  
G28  20568264.735      -12140.623         119.000          41.000  
G29  22252010.489       77720.152        -800.000          38.000  
G31  20159946.776      -83412.509         829.000          43.000  
G32  20072402.175      127788.657       -1296.000          48.000  
> 2024 12 28  3 23 58.9949999  0  8                     
G10  23598158.117      284810.672       -2815.000          36.000  
G16  20045553.828     -254734.134        2490.000          45.000  
G25  23917278.381      173114.1611      -2940.000          22.000  
G27  23210251.224     -423158.8431       4206.000          34.000  
G28  20568241.945      -12259.960         119.000          41.000  
G29  22252162.689       78521.422        -801.000          38.000  
G31  20159789.306      -84241.646         829.000          43.000  
G32  20072649.270      129086.016       -1297.000          48.000  
> 2024 12 28  3 23 59.9949999  0  8                     
G10  23598687.417      287625.839       -2815.000          36.000  
G16  20045079.880     -257224.276        2490.000          45.000  
G25  23917838.847      176052.1221      -2937.000          22.000  
G27  23209447.781     -427365.9681       4207.000          34.000  
G28  20568218.946      -12379.641         119.000          41.000  
G29  22252315.065       79322.910        -801.000          38.000  
G31  20159631.172      -85071.022         829.000          43.000  
G32  20072896.505      130383.505       -1297.000          48.000  
> 2024 12 28  3 24  0.9949999  0  8                     
G10  23599219.439      290440.751       -2814.000          35.000  
G16  20044606.282     -259713.985        2489.000          45.000  
G25  23918394.497      178990.6631      -2938.000          19.000  
G27  23208642.593     -431573.254        4207.000          34.000  
G28  20568196.540      -12499.273         119.000          41.000  
G29  22252467.300       80124.885        -801.000          39.000  
G31  20159472.863      -85900.411         829.000          43.000  
G32  20073143.739      131681.462       -1297.000          48.000  
> 2024 12 28  3 24  1.9949999  0  8                     
G10  23599752.369      293256.334       -2815.000          35.000  
G16  20044132.892     -262202.404        2488.000          46.000  
G25  23918963.269      181924.8471      -2934.000          20.000  
G27  23207836.114     -435779.740        4206.000          33.000  
G28  20568173.575      -12618.049         118.000          41.000  
G29  22252619.780       80928.203        -803.000          38.000  
G31  20159314.485      -86728.903         828.000          43.000  
G32  20073390.869      132980.765       -1299.000          48.000  
> 2024 12 28  3 24  2.9949999  0  8                     
G10  23600287.183      296071.717       -2815.000          35.000  
G16  20043659.258     -264690.354        2487.000          46.000  
G25  23919537.067      184860.5781      -2935.000          17.000  
G27  23207035.254     -439986.356        4206.000          33.000  
G28  20568149.843      -12736.769         118.000          41.000  
G29  22252772.889       81732.061        -803.000          38.000  
G31  20159156.596      -87557.308         828.000          43.000  
G32  20073638.069      134280.530       -1299.000          48.000  
> 2024 12 28  3 24  3.9949999  0  8                     
G10  23600822.835      298887.157       -2815.000          34.000  
G16  20043185.869     -267177.502        2487.000          46.000  
G25  23920091.844      187796.8501      -2936.000          12.000  
G27  23206237.988     -444192.862        4206.000          34.000  
G28  20568126.390      -12855.094         118.000          41.000  
G29  22252926.136       82536.764        -804.000          38.000  
G31  20158998.252      -88385.378         828.000          43.000  
G32  20073885.269      135581.135       -1300.000          48.000  
> 2024 12 28  3 24  4.9949999  0  8                     
G10  23601352.659      301702.205       -2815.000          33.000  
G16  20042712.793     -269664.457        2486.000          46.000  
G25  23920669.935      190734.7611      -2937.000          17.000  
G27  23205439.396     -448399.625        4206.000          34.000  
G28  20568103.670      -12973.600         118.000          41.000  
G29  22253080.396       83341.762        -804.000          37.000  
G31  20158839.735      -89213.606         828.000          43.000  
G32  20074132.678      136881.968       -1300.000          48.000  
> 2024 12 28  3 24  5.9949999  0  8                     
G10  23601884.157      304517.017       -2814.000          33.000  
G16  20042239.962     -272150.918        2486.000          46.000  
G25  23921171.315      193671.2301      -2936.000          20.000  
G27  23204637.663     -452606.516        4206.000          33.000  
G28  20568081.124      -13092.100         118.000          41.000  
G29  22253234.551       84147.336        -805.000          36.000  
G31  20158681.147      -90041.781         828.000          42.000  
G32  20074380.332      138183.313       -1301.000          48.000  
> 2024 12 28  3 24  6.9949999  0  8                     
G10  23602431.431      307330.785       -2813.000          34.000  
G16  20041767.341     -274637.778        2486.000          45.000  
G25  23921709.340      196607.4751      -2936.000          17.000  
G27  23203835.791     -456814.362        4207.000          33.000  
G28  20568059.242      -13211.377         119.000          41.000  
G29  22253386.613       84952.522        -805.000          37.000  
G31  20158523.188      -90870.764         828.000          43.000  
G32  20074628.090      139484.263       -1300.000          48.000  
> 2024 12 28  3 24  7.9949999  0  9                     
G10  23602959.928      310143.986       -2813.000          34.000  
G16  20041294.335     -277124.547        2486.000          46.000  
G25  23922265.269      199543.5121      -2936.000          16.000  
G26  19098232.846       -2126.2621        349.000          31.000  
G27  23203035.245     -461022.749        4208.000          32.000  
G28  20568038.266      -13330.979         119.000          42.000  
G29  22253539.197       85757.849        -805.000          36.000  
G31  20158364.460      -91700.074         829.000          43.000  
G32  20074876.406      140785.353       -1301.000          48.000  
> 2024 12 28  3 24  8.9949999  0  9                     
G10  23603502.386      312956.584       -2812.000          33.000  
G16  20040821.713     -279611.184        2486.000          45.000  
G25  23922864.544      202489.8571      -2946.000          16.000  
G26  19098162.801       -2475.2931        349.000          31.000  
G27  23202232.989     -465231.507        4208.000          31.000  
G28  20568017.221      -13450.901         119.000          42.000  
G29  22253692.201       86563.367        -805.000          37.000  
G31  20158206.885      -92529.646         829.000          42.000  
G32  20075124.549      142086.592       -1301.000          48.000  
> 2024 12 28  3 24  9.9949999  0  9                     
G10  23604036.921      315769.644       -2813.000          34.000  
G16  20040349.136     -282096.815        2485.000          46.000  
G25  23923420.299      205430.5621      -2940.000          19.000  
G26  19098086.089       -2823.4031        348.000          30.000  
G27  23201432.687     -469439.788        4208.000          33.000  
G28  20567992.864      -13570.177         119.000          42.000  
G29  22253846.182       87370.017        -806.000          36.000  
G31  20158053.090      -93358.604         828.000          42.000  
G32  20075371.661      143388.864       -1302.000          48.000  
> 2024 12 28  3 24 10.9949999  0  9                     
G10  23604568.629      318583.505       -2813.000          33.000  
G16  20039876.423     -284580.919        2484.000          46.000  
G25  23923948.866      208368.8831      -2938.000          18.000  
G26  19098025.049       -3169.9721        346.000          31.000  
G27  23200631.791     -473647.184        4207.000          33.000  
G28  20567970.414      -13688.369         118.000          42.000  
G29  22253999.429       88178.253        -808.000          36.000  
G31  20157895.519      -94186.449         827.000          43.000  
G32  20075619.784      144692.702       -1303.000          48.000  
> 2024 12 28  3 24 11.9949999  0  9                     
G10  23605109.097      321396.867       -2813.000          33.000  
G16  20039403.748     -287064.827        2483.000          46.000  
G25  23924579.901      211308.5031      -2939.000          19.000  
G26  19097963.903       -3516.5181        346.000          31.000  
G27  23199833.793     -477854.993        4207.000          32.000  
G28  20567947.920      -13806.818         118.000          42.000  
G29  22254146.639       88986.639        -808.000          35.000  
G31  20157737.913      -95014.539         828.000          43.000  
G32  20075867.945      145996.734       -1304.000          48.000  
> 2024 12 28  3 24 12.9949999  0  9                     
G10  23605643.842      324210.370       -2813.000          34.000  
G16  20038931.227     -289547.963        2483.000          46.000  
G25  23925148.987      214247.2411      -2938.000          23.000  
G26  19097902.234       -3862.264         345.000          30.000  
G27  23199035.899     -482062.484        4207.000          32.000  
G28  20567925.518      -13924.831         118.000          42.000  
G29  22254300.690       89795.995        -809.000          35.000  
G31  20157580.398      -95842.214         827.000          43.000  
G32  20076116.269      147301.617       -1304.000          49.000  
> 2024 12 28  3 24 13.9949999  0  9                     
G10  23606180.645      327024.414       -2814.000          33.000  
G16  20038458.943     -292029.907        2481.000          46.000  
G25  23925667.119      217185.5881      -2938.000          23.000  
G26  19097835.539       -4206.667         344.000          31.000  
G27  23198237.028     -486269.490        4207.000          33.000  
G28  20567903.247      -14042.134         117.000          42.000  
G29  22254454.426       90606.469        -810.000          34.000  
G31  20157423.033      -96669.142         826.000          43.000  
G32  20076364.810      148607.645       -1306.000          49.000  
> 2024 12 28  3 24 14.9949999  0  9                     
G10  23606713.086      329838.101       -2813.000          32.000  
G16  20037986.737     -294511.438        2481.000          46.000  
G25  23926227.480      220122.1201      -2936.000          21.000  
G26  19097778.093       -4550.888         344.000          31.000  
G27  23197441.857     -490476.638        4207.000          33.000  
G28  20567880.981      -14159.392         117.000          42.000  
G29  22254607.674       91417.558        -811.000          35.000  
G31  20157265.666      -97496.065         826.000          43.000  
G32  20076613.444      149914.176       -1306.000          49.000  
> 2024 12 28  3 24 15.9949999  0  9                     
G10  23607248.982      332651.512       -2813.000          31.000  
G16  20037514.584     -296992.691        2481.000          46.000  
G25  23926805.711      223060.5401      -2938.000          19.000  
G26  19097714.330       -4894.835         343.000          31.000  
G27  23196639.740     -494684.038        4207.000          34.000  
G28  20567858.668      -14276.852         117.000          42.000  
G29  22254762.702       92228.898        -811.000          35.000  
G31  20157108.271      -98323.146         827.000          43.000  
G32  20076862.124      151220.963       -1306.000          48.000  
> 2024 12 28  3 24 16.9949999  0  9                     
G10  23607775.386      335464.603       -2813.000          32.000  
G16  20037042.516     -299473.521        2480.000          46.000  
G25  23927356.195      225997.4351      -2936.000          22.000  
G26  19097648.717       -5238.391         343.000          30.000  
G27  23195841.148     -498891.609        4207.000          34.000  
G28  20567836.352      -14394.271         117.000          41.000  
G29  22254915.391       93040.709        -811.000          34.000  
G31  20156950.897      -99150.178         827.000          43.000  
G32  20077110.893      152528.224       -1307.000          49.000  
> 2024 12 28  3 24 17.9949999  0  9                     
G10  23608306.570      338278.3571      -2813.000          30.000  
G16  20036570.691     -301953.076        2479.000          46.000  
G25  23927907.238      228934.3651      -2936.000          21.000  
G26  19097571.901       -5580.6711        342.000          29.000  
G27  23195038.717     -503098.413        4206.000          33.000  
G28  20567814.182      -14510.819         116.000          41.000  
G29  22255067.732       93853.933        -813.000          34.000  
G31  20156793.699      -99976.314         826.000          43.000  
G32  20077359.907      153836.762       -1308.000          49.000  
> 2024 12 28  3 24 18.9949999  0  9                     
G10  23608820.479      341091.663       -2813.000          29.000  
G16  20036098.914     -304432.388        2479.000          46.000  
G25  23928448.823      231873.5191      -2939.000          21.000  
G26  19097506.638       -5922.751         342.000          29.000  
G27  23194244.314     -507305.653        4207.000          34.000  
G28  20567791.966      -14627.535         116.000          41.000  
G29  22255221.747       94667.448        -813.000          33.000  
G31  20156636.459     -100802.667         826.000          43.000  
G32  20077608.980      155145.595       -1308.000          49.000  
> 2024 12 28  3 24 19.9949999  0  9                     
G10  23609358.086      343904.291       -2812.000          29.000  
G16  20035627.132     -306911.751        2479.000          46.000  
G25  23929017.212      234810.1841      -2936.000          22.000  
G26  19097441.758       -6264.880         342.000          30.000  
G27  23193436.857     -511513.468        4207.000          36.000  
G28  20567769.629      -14744.750         117.000          40.000  
G29  22255375.938       95480.918        -813.000          33.000  
G31  20156479.127     -101629.484         826.000          42.000  
G32  20077858.043      156454.374       -1308.000          49.000  
> 2024 12 28  3 24 20.9949999  0  9                     
G10  23609891.225      346716.1291      -2811.000          28.000  
G16  20035155.342     -309391.153        2479.000          46.000  
G25  23929560.647      237744.8341      -2934.000          17.000  
G26  19097385.742       -6607.161         342.000          30.000  
G27  23192638.266     -515721.903        4208.000          35.000  
G28  20567747.191      -14862.421         117.000          41.000  
G29  22255538.329       96294.483        -813.000          33.000  
G31  20156321.714     -102456.745         827.000          43.000  
G32  20078107.111      157763.169       -1308.000          49.000  
> 2024 12 28  3 24 21.9949999  0  9                     
G10  23610420.106      349528.1741      -2812.000          28.000  
G16  20034683.728     -311869.639        2478.000          46.000  
G25  23930113.993      240680.0781      -2935.000          19.000  
G26  19097322.852       -6948.545         341.000          30.000  
G27  23191841.314     -519930.017        4208.000          35.000  
G28  20567724.840      -14979.603         117.000          41.000  
G29  22255696.603       97108.896        -814.000          32.000  
G31  20156164.395     -103283.492         826.000          43.000  
G32  20078356.350      159072.836       -1309.000          49.000  
> 2024 12 28  3 24 22.9949999  0  9                     
G10  23610966.647      352340.6581      -2812.000          30.000  
G16  20034212.314     -314347.093        2477.000          46.000  
G25  23930654.601      243617.7041      -2937.000          18.000  
G26  19097264.045       -7288.940         340.000          31.000  
G27  23191040.942     -524137.665        4207.000          35.000  
G28  20567702.611      -15096.168         116.000          41.000  
G29  22255850.899       97924.401        -815.000          34.000  
G31  20156007.188     -104109.618         826.000          43.000  
G32  20078605.802      160383.609       -1310.000          49.000  
> 2024 12 28  3 24 23.9949999  0  9                     
G10  23611505.021      355154.1761      -2813.000          30.000  
G16  20033741.217     -316822.848        2475.000          46.000  
G25  23931186.483      246554.9331      -2937.000          20.000  
G26  19097191.696       -7627.6791        338.000          29.000  
G27  23190246.050     -528344.171        4206.000          37.000  
G28  20567680.640      -15211.411         115.000          41.000  
G29  22256006.451       98741.742        -817.000          34.000  
G31  20155850.221     -104934.474         824.000          43.000  
G32  20078855.585      161696.106       -1312.000          49.000  
> 2024 12 28  3 24 24.9949999  0  9                     
G10  23612032.541      357967.088       -2812.000          29.000  
G16  20033270.121     -319298.551        2475.000          46.000  
G25  23931755.395      249493.9891      -2939.000          18.000  
G26  19097126.816       -7966.351         338.000          30.000  
G27  23189444.806     -532551.162        4206.000          37.000  
G28  20567658.608      -15327.024         115.000          41.000  
G29  22256162.010       99559.228        -817.000          33.000  
G31  20155693.184     -105759.663         825.000          43.000  
G32  20079105.382      163008.673       -1312.000          49.000  
> 2024 12 28  3 24 25.9949999  0  9                     
G10  23612571.927      360779.246       -2812.000          29.000  
G16  20032799.016     -321774.271        2475.000          45.000  
G25  23932350.657      252422.4131      -2928.000          18.000  
G26  19097058.272       -8305.1381        338.000          29.000  
G27  23188643.666     -536758.786        4207.000          36.000  
G28  20567636.501      -15443.099         116.000          41.000  
G29  22256317.523      100376.752        -817.000          33.000  
G31  20155536.052     -106585.294         825.000          43.000  
G32  20079355.183      164321.266       -1312.000          48.000  
> 2024 12 28  3 24 26.9949999  0  9                     
G10  23613107.021      363591.055       -2811.000          29.000  
G16  20032327.963     -324249.666        2475.000          46.000  
G25  23932898.699      255351.6791      -2929.000           0.000  
G26  19096995.381       -8643.5661        338.000          30.000  
G27  23187842.806     -540966.667        4207.000          36.000  
G28  20567614.402      -15559.258         116.000          41.000  
G29  22256473.065      101194.572        -817.000          33.000  
G31  20155378.907     -107410.990         825.000          43.000  
G32  20079605.043      165634.182       -1312.000          48.000  
> 2024 12 28  3 24 27.9949999  0  8                     
G10  23613646.826      366403.2861      -2812.000          29.000  
G16  20031857.107     -326724.020        2474.000          46.000  
G26  19096933.782       -8981.0671        337.000          29.000  
G27  23187042.400     -545174.052        4207.000          36.000  
G28  20567592.431      -15674.792         115.000          41.000  
G29  22256628.836      102013.575        -818.000          34.000  
G31  20155221.881     -108236.049         825.000          43.000  
G32  20079855.104      166948.170       -1313.000          49.000  
> 2024 12 28  3 24 28.9949999  0  8                     
G10  23614186.212      369215.2261      -2811.000          29.000  
G16  20031386.347     -329197.874        2473.000          46.000  
G26  19096866.145       -9318.0221        336.000          30.000  
G27  23186237.491     -549381.563        4207.000          36.000  
G28  20567570.480      -15790.250         115.000          41.000  
G29  22256784.712      102833.063        -819.000          34.000  
G31  20155064.868     -109061.044         824.000          43.000  
G32  20080105.265      168262.675       -1314.000          49.000  
> 2024 12 28  3 24 29.9949999  0  8                     
G10  23614716.000      372026.8361      -2811.000          28.000  
G16  20030915.627     -331671.543        2473.000          46.000  
G26  19096801.928       -9654.8811        336.000          29.000  
G27  23185443.715     -553589.407        4207.000          36.000  
G28  20567548.482      -15905.934         115.000          41.000  
G29  22256940.659      103652.856        -819.000          34.000  
G31  20154907.812     -109886.284         825.000          43.000  
G32  20080355.465      169577.390       -1314.000          49.000  
> 2024 12 28  3 24 30.9949999  0  8                     
G10  23615253.537      374838.0471      -2811.000          28.000  
G16  20030444.968     -334144.905        2473.000          46.000  
G26  19096747.483       -9991.4231        336.000          30.000  
G27  23184636.189     -557797.551        4208.000          36.000  
G28  20567526.467      -16021.670         115.000          41.000  
G29  22257096.758      104472.992        -820.000          35.000  
G31  20154750.756     -110711.579         825.000          44.000  
G32  20080605.728      170892.459       -1315.000          49.000  
> 2024 12 28  3 24 31.9949999  0  8                     
G10  23615789.119      377648.5261      -2810.000          28.000  
G16  20029974.312     -336618.219        2473.000          46.000  
G26  19096685.221      -10328.0491        336.000          30.000  
G27  23183834.770     -562006.176        4208.000          36.000  
G28  20567504.358      -16137.843         116.000          41.000  
G29  22257252.876      105293.229        -820.000          35.000  
G31  20154593.622     -111537.313         825.000          44.000  
G32  20080856.001      172207.584       -1315.000          49.000  
> 2024 12 28  3 24 32.9949999  0  9                     
G10  23616329.866      380459.0981      -2810.000          28.000  
G16  20029503.783     -339090.829        2472.000          46.000  
G25  23936263.520      272930.8231      -2930.000          16.000  
G26  19096616.676      -10663.9831        335.000          29.000  
G27  23183034.713     -566214.694        4208.000          36.000  
G28  20567482.300      -16253.705         115.000          40.000  
G29  22257409.117      106114.256        -821.000          35.000  
G31  20154436.563     -112362.687         825.000          44.000  
G32  20081106.418      173523.448       -1315.000          49.000  
> 2024 12 28  3 24 33.9949999  0  8                     
G10  23616867.403      383269.0051      -2809.000          29.000  
G16  20029033.246     -341563.446        2472.000          46.000  
G26  19096555.636      -10999.8551        335.000          30.000  
G27  23182235.039     -570423.783        4209.000          36.000  
G28  20567460.167      -16369.957         116.000          40.000  
G29  22257565.413      106935.341        -821.000          35.000  
G31  20154279.427     -113188.470         825.000          44.000  
G32  20081356.834      174839.313       -1315.000          49.000  
> 2024 12 28  3 24 34.9949999  0  9                     
G10  23617415.444      386078.2751      -2809.000          29.000  
G16  20028562.709     -344036.063        2472.000          45.000  
G25  23937369.898      278796.7621      -2933.000          21.000  
G26  19096488.313      -11335.8671        336.000          31.000  
G27  23181433.690     -574633.471        4209.000          36.000  
G28  20567437.946      -16486.695         116.000          40.000  
G29  22257721.739      107756.449        -821.000          33.000  
G31  20154122.203     -114014.708         826.000          44.000  
G32  20081607.254      176155.206       -1315.000          49.000  
> 2024 12 28  3 24 35.9949999  0  9                     
G10  23617960.240      388887.0071      -2808.000          29.000  
G16  20028092.196     -346508.517        2472.000          45.000  
G25  23937936.262      281731.4771      -2934.000          20.000  
G26  19096426.155      -11671.7671        335.000          31.000  
G27  23180632.900     -578843.561        4210.000          36.000  
G28  20567415.694      -16603.631         116.000          40.000  
G29  22257878.078      108577.790        -821.000          34.000  
G31  20153964.926     -114841.194         826.000          44.000  
G32  20081857.707      177471.296       -1316.000          49.000  
> 2024 12 28  3 24 36.9949999  0  9                     
G10  23618493.065      391695.160       -2808.000          29.000  
G16  20027621.712     -348980.831        2472.000          45.000  
G25  23938536.096      284665.5771      -2934.000          20.000  
G26  19096361.764      -12007.485         335.000          30.000  
G27  23179831.865     -583054.049        4210.000          36.000  
G28  20567393.402      -16720.865         117.000          41.000  
G29  22258034.418      109399.354        -821.000          34.000  
G31  20153807.597     -115667.928         826.000          44.000  
G32  20082108.182      178787.533       -1316.000          49.000  
> 2024 12 28  3 24 37.9949999  0  9                     
G10  23619027.810      394503.111       -2807.000          29.000  
G16  20027151.305     -351452.735        2471.000          45.000  
G25  23939099.878      287599.8281      -2934.000          22.000  
G26  19096301.107      -12342.846         335.000          30.000  
G27  23179030.027     -587264.707        4210.000          36.000  
G28  20567371.124      -16838.089         117.000          41.000  
G29  22258190.772      110221.415        -822.000          33.000  
G31  20153650.261     -116494.646         826.000          43.000  
G32  20082358.741      180104.229       -1316.000          49.000  
> 2024 12 28  3 24 38.9949999  0  9                     
G10  23619553.864      397310.901       -2807.000          29.000  
G16  20026680.980     -353924.188        2471.000          45.000  
G25  23939645.197      290532.0551      -2932.000          21.000  
G26  19096244.777      -12677.863         335.000          30.000  
G27  23178220.407     -591475.504        4210.000          35.000  
G28  20567348.843      -16955.321         117.000          40.000  
G29  22258347.193      111043.924        -822.000          33.000  
G31  20153492.920     -117321.354         826.000          44.000  
G32  20082609.381      181421.359       -1317.000          49.000  
> 2024 12 28  3 24 39.9949999  0  9                     
G10  23620094.541      400117.729       -2806.000          29.000  
G16  20026210.619     -356395.814        2471.000          44.000  
G25  23940184.374      293465.3421      -2933.000          22.000  
G26  19096176.233      -13013.0401        335.000          29.000  
G27  23177423.386     -595687.049        4211.000          35.000  
G28  20567326.447      -17073.126         117.000          40.000  
G29  22258503.567      111866.349        -822.000          32.000  
G31  20153335.470     -118148.643         827.000          43.000  
G32  20082859.998      182738.366       -1317.000          48.000  
> 2024 12 28  3 24 40.9949999  0  9                     
G10  23620623.632      402923.765       -2806.000          29.000  
G16  20025740.229     -358867.625        2471.000          45.000  
G25  23940747.004      296392.3131      -2926.000          21.000  
G26  19096104.059      -13348.4091        335.000          29.000  
G27  23176621.897     -599899.327        4212.000          35.000  
G28  20567303.927      -17191.528         118.000          41.000  
G29  22258659.937      112688.672        -822.000          33.000  
G31  20153177.910     -118976.527         827.000          44.000  
G32  20083110.588      184055.221       -1316.000          49.000  
> 2024 12 28  3 24 41.9949999  0  9                     
G10  23621150.908      405728.6941      -2804.000          28.000  
G16  20025269.770     -361339.813        2472.000          45.000  
G25  23941317.103      299322.1321      -2929.000          22.000  
G26  19096032.024      -13684.1831        335.000          28.000  
G27  23175817.372     -604112.560        4213.000          34.000  
G28  20567281.238      -17310.738         119.000          40.000  
G29  22258816.274      113510.675        -821.000          31.000  
G31  20153020.203     -119805.182         828.000          44.000  
G32  20083361.113      185371.718       -1316.000          49.000  
> 2024 12 28  3 24 42.9949999  0  9                     
G10  23621689.073      408533.086       -2804.000          28.000  
G16  20024799.343     -363811.845        2472.000          45.000  
G25  23941860.991      302252.6771      -2930.000          22.000  
G26  19095959.536      -14019.943         335.000          27.000  
G27  23175011.137     -608326.218        4213.000          34.000  
G28  20567258.481      -17430.182         119.000          40.000  
G29  22258972.659      114332.859        -822.000          32.000  
G31  20152862.440     -120634.100         828.000          44.000  
G32  20083611.673      186688.379       -1316.000          49.000  
> 2024 12 28  3 24 43.9949999  0  9                     
G10  23622221.234      411337.309       -2804.000          28.000  
G16  20024329.028     -366283.314        2471.000          45.000  
G25  23942424.040      305182.6021      -2929.000          20.000  
G26  19095897.274      -14355.176         335.000          27.000  
G27  23174208.951     -612539.890        4213.000          34.000  
G28  20567235.722      -17549.513         119.000          39.000  
G29  22259129.201      115155.670        -822.000          35.000  
G31  20152704.702     -121462.900         828.000          45.000  
G32  20083862.346      188005.638       -1317.000          49.000  
> 2024 12 28  3 24 44.9949999  0  9                     
G10  23622751.407      414141.309       -2803.000          28.000  
G16  20023858.770     -368754.475        2471.000          45.000  
G25  23942977.945      308112.0991      -2929.000          23.000  
G26  19095842.759      -14690.0261        334.000          28.000  
G27  23173409.696     -616753.813        4213.000          35.000  
G28  20567212.941      -17668.896         119.000          38.000  
G29  22259285.800      115978.860        -823.000          35.000  
G31  20152546.957     -122291.759         828.000          44.000  
G32  20084113.079      189323.219       -1317.000          49.000  
> 2024 12 28  3 24 45.9949999  0  9                     
G10  23623277.705      416945.429       -2804.000          27.000  
G16  20023388.662     -371224.873        2470.000          45.000  
G25  23943527.731      311042.2931      -2930.000          22.000  
G26  19095791.979      -15024.1541        334.000          30.000  
G27  23172607.963     -620967.571        4213.000          34.000  
G28  20567190.210      -17788.003         119.000          39.000  
G29  22259442.523      116802.838        -823.000          34.000  
G31  20152389.277     -123120.292         828.000          45.000  
G32  20084363.956      190641.545       -1318.000          49.000  
> 2024 12 28  3 24 46.9949999  0  9                     
G10  23623816.638      419749.279       -2803.000          28.000  
G16  20022918.657     -373694.701        2469.000          45.000  
G25  23944109.801      313972.9451      -2930.000          22.000  
G26  19095731.950      -15357.7711        333.000          29.000  
G27  23171805.428     -625181.290        4213.000          34.000  
G28  20567167.525      -17906.900         118.000          39.000  
G29  22259599.352      117627.510        -824.000          33.000  
G31  20152231.637     -123948.658         828.000          45.000  
G32  20084614.961      191960.543       -1318.000          49.000  
> 2024 12 28  3 24 47.9949999  0  9                     
G10  23624358.956      422553.066       -2803.000          28.000  
G16  20022448.756     -376163.960        2469.000          45.000  
G25  23944634.808      316903.9391      -2930.000          23.000  
G26  19095662.673      -15691.0081        333.000          30.000  
G27  23171006.208     -629395.092        4213.000          34.000  
G28  20567144.860      -18025.683         118.000          39.000  
G29  22259756.260      118452.733        -825.000          30.000  
G31  20152074.023     -124776.883         828.000          45.000  
G32  20084866.064      193280.050       -1319.000          49.000  
> 2024 12 28  3 24 48.9949999  0  9                     
G10  23624883.963      425357.102       -2804.000          28.000  
G16  20021979.005     -378632.406        2468.000          45.000  
G25  23945217.645      319833.8601      -2929.000          22.000  
G26  19095607.251      -16023.217         332.000          31.000  
G27  23170207.442     -633608.556        4213.000          35.000  
G28  20567122.287      -18144.021         118.000          39.000  
G29  22259913.361      119278.944        -826.000          30.000  
G31  20151916.497     -125604.660         827.000          44.000  
G32  20085117.342      194600.464       -1320.000          49.000  
> 2024 12 28  3 24 49.9949999  0  9                     
G10  23625401.537      428160.2271      -2803.000          24.000  
G16  20021509.215     -381101.030        2468.000          45.000  
G25  23945738.360      322762.9611      -2929.000          22.000  
G26  19095534.205      -16355.834         332.000          31.000  
G27  23169410.351     -637822.813        4214.000          35.000  
G28  20567099.611      -18263.022         119.000          40.000  
G29  22260070.433      120104.904        -825.000          30.000  
G31  20151758.861     -126433.035         828.000          44.000  
G32  20085368.583      195920.688       -1320.000          49.000  
> 2024 12 28  3 24 50.9949999  0  9                     
G10  23625942.633      430962.7951      -2802.000          26.000  
G16  20021039.441     -383569.563        2468.000          44.000  
G25  23946291.252      325691.6371      -2928.000          20.000  
G26  19095457.842      -16688.318         332.000          31.000  
G27  23168609.700     -642037.558        4214.000          35.000  
G28  20567076.906      -18382.310         119.000          40.000  
G29  22260227.585      120931.049        -826.000          31.000  
G31  20151601.148     -127261.790         828.000          44.000  
G32  20085619.847      197241.031       -1320.000          49.000  
> 2024 12 28  3 24 51.9949999  0  9                     
G10  23626486.521      433764.5951      -2801.000          25.000  
G16  20020569.678     -386038.042        2468.000          44.000  
G25  23946860.199      328620.1311      -2928.000          22.000  
G26  19095396.104      -17020.857         332.000          31.000  
G27  23167809.153     -646252.811        4215.000          34.000  
G28  20567054.159      -18501.962         119.000          41.000  
G29  22260384.732      121757.286        -826.000          29.000  
G31  20151443.373     -128090.855         829.000          44.000  
G32  20085871.125      198561.451       -1320.000          49.000  
> 2024 12 28  3 24 52.9949999  0  9                     
G10  23627031.143      436566.2951      -2801.000          26.000  
G16  20020100.008     -388506.087        2468.000          44.000  
G25  23947426.389      331550.5111      -2930.000          21.000  
G26  19095334.853      -17352.915         332.000          31.000  
G27  23167010.073     -650468.197        4215.000          35.000  
G28  20567031.435      -18621.604         119.000          41.000  
G29  22260541.957      122584.030        -826.000          30.000  
G31  20151285.598     -128919.919         829.000          44.000  
G32  20086122.487      199882.323       -1320.000          48.000  
> 2024 12 28  3 24 53.9949999  0  9                     
G10  23627554.928      439367.5191      -2801.000          27.000  
G16  20019630.368     -390973.969        2467.000          45.000  
G25  23947976.455      334477.8531      -2927.000          22.000  
G26  19095280.339      -17684.928         332.000          31.000  
G27  23166210.050     -654683.964        4215.000          35.000  
G28  20567008.676      -18741.478         119.000          40.000  
G29  22260699.248      123411.053        -827.000          31.000  
G31  20151127.772     -129749.228         829.000          44.000  
G32  20086373.893      201203.415       -1321.000          48.000  
> 2024 12 28  3 24 54.9949999  0  9                     
G10  23628090.510      442168.289       -2800.000          27.000  
G16  20019160.792     -393441.488        2467.000          45.000  
G25  23948505.755      337403.5391      -2925.000          20.000  
G26  19095231.897      -18016.557         331.000          31.000  
G27  23165405.002     -658900.038        4216.000          35.000  
G28  20566985.913      -18861.417         119.000          41.000  
G29  22260856.639      124238.484        -827.000          33.000  
G31  20150969.936     -130578.571         829.000          44.000  
G32  20086625.359      202524.834       -1321.000          48.000  
> 2024 12 28  3 24 55.9949999  0  9                     
G10  23628633.212      444968.7471      -2800.000          27.000  
G16  20018691.262     -395908.724        2467.000          44.000  
G25  23949102.447      340333.7501      -2930.000          18.000  
G26  19095167.436      -18347.972         331.000          32.000  
G27  23164607.283     -663116.336        4216.000          35.000  
G28  20566963.113      -18981.538         120.000          41.000  
G29  22261014.114      125066.224        -827.000          34.000  
G31  20150812.069     -131408.059         829.000          45.000  
G32  20086876.884      203846.575       -1321.000          48.000  
> 2024 12 28  3 24 56.9949999  0  9                     
G10  23629151.833      447770.4011      -2801.000          28.000  
G16  20018222.093     -398374.098        2465.000          45.000  
G25  23949645.743      343262.4351      -2928.000          21.000  
G26  19095102.347      -18677.549         329.000          31.000  
G27  23163813.298     -667331.340        4215.000          36.000  
G28  20566940.592      -19100.157         118.000          41.000  
G29  22261171.953      125895.947        -829.000          35.000  
G31  20150654.492     -132236.060         828.000          45.000  
G32  20087128.773      205170.217       -1323.000          49.000  
> 2024 12 28  3 24 57.9949999  0  9                     
G10  23629689.299      450573.5631      -2803.000          28.000  
G16  20017753.338     -400837.280        2463.000          44.000  
G25  23950218.843      346193.0141      -2930.000          19.000  
G26  19095032.022      -19005.0141        327.000          32.000  
G27  23163011.391     -671544.802        4213.000          37.000  
G28  20566918.372      -19217.053         116.000          40.000  
G29  22261330.193      126727.726        -831.000          32.000  
G31  20150497.250     -133062.351         826.000          45.000  
G32  20087381.076      206496.039       -1325.000          48.000  
> 2024 12 28  3 24 58.9949999  0  9                     
G10  23630227.464      453376.3101      -2802.000          28.000  
G16  20017284.640     -403300.191        2462.000          44.000  
G25  23950778.331      349123.9671      -2930.000          20.000  
G26  19094964.699      -19332.1521        327.000          32.000  
G27  23162209.239     -675758.438        4213.000          37.000  
G28  20566896.105      -19333.991         116.000          40.000  
G29  22261488.546      127560.077        -832.000          33.000  
G31  20150340.002     -133888.693         826.000          45.000  
G32  20087633.454      207822.229       -1326.000          49.000  
> 2024 12 28  3 24 59.9949999  0  9                     
G10  23630781.997      456178.5101      -2802.000          29.000  
G16  20016815.965     -405762.952        2462.000          44.000  
G25  23951309.202      352053.1841      -2929.000          20.000  
G26  19094897.725      -19659.2801        327.000          31.000  
G27  23161407.925     -679972.522        4214.000          36.000  
G28  20566873.748      -19451.264         117.000          40.000  
G29  22261646.955      128392.480        -832.000          33.000  
G31  20150182.689     -134715.359         826.000          45.000  
G32  20087885.853      209148.510       -1326.000          49.000  
> 2024 12 28  3 25  0.9949999  0  9                     
G10  23631321.104      458979.473       -2800.000          29.000  
G16  20016347.193     -408226.208        2463.000          44.000  
G25  23951858.535      354979.8081      -2927.000          17.000  
G26  19094845.340      -19986.863         327.000          31.000  
G27  23160597.537     -684187.723        4215.000          35.000  
G28  20566851.190      -19569.453         118.000          40.000  
G29  22261805.326      129224.551        -832.000          33.000  
G31  20150025.205     -135542.924         827.000          45.000  
G32  20088138.175      210474.357       -1325.000          49.000  
> 2024 12 28  3 25  1.9949999  0  9                     
G10  23631846.600      461780.235       -2800.000          30.000  
G16  20015878.479     -410689.181        2462.000          44.000  
G25  23952417.744      357908.8121      -2928.000          20.000  
G26  19094786.463      -20314.274         327.000          32.000  
G27  23159800.097     -688403.167        4215.000          36.000  
G28  20566828.611      -19687.773         118.000          40.000  
G29  22261963.701      130056.921        -832.000          34.000  
G31  20149867.700     -136370.603         827.000          45.000  
G32  20088390.557      211800.492       -1326.000          49.000  
> 2024 12 28  3 25  2.9949999  0  9                     
G10  23632375.691      464580.7371      -2800.000          30.000  
G16  20015409.881     -413151.548        2462.000          44.000  
G25  23952978.525      360835.8621      -2927.000          21.000  
G26  19094726.783      -20641.105         326.000          32.000  
G27  23158999.237     -692618.643        4215.000          36.000  
G28  20566806.076      -19805.920         118.000          40.000  
G29  22262122.263      130889.907        -832.000          35.000  
G31  20149710.229     -137198.099         827.000          45.000  
G32  20088643.064      213127.259       -1326.000          48.000  
> 2024 12 28  3 25  3.9949999  0  9                     
G10  23632893.334      467382.3251      -2801.000          30.000  
G16  20014941.585     -415612.364        2460.000          44.000  
G25  23953525.135      363764.2231      -2928.000          23.000  
G26  19094662.112      -20966.433         325.000          31.000  
G27  23158198.865     -696833.085        4214.000          36.000  
G28  20566783.775      -19922.889         116.000          41.000  
G29  22262281.193      131724.574        -834.000          36.000  
G31  20149552.974     -138024.438         826.000          45.000  
G32  20088895.873      214455.623       -1328.000          48.000  
> 2024 12 28  3 25  4.9949999  0  9                     
G10  23633433.278      470186.4081      -2804.000          31.000  
G16  20014473.923     -418069.888        2457.000          44.000  
G25  23954102.912      366696.4921      -2932.000          21.000  
G26  19094598.594      -21288.411         321.000          31.000  
