     3.02           OBSERVATION DATA    G: GPS              RINEX VERSION / TYPE
convert_skytraq_raw Skytraq Corp.       20241228 100724 UTC PGM / RUN BY / DATE 
Test version 0.1                                            COMMENT             
                                                            MARKER NAME         
                                                            MARKER NUMBER       
                                                            MARKER TYPE         
Skytraq Corp.                                               OBSERVER / AGENCY   
                                                            REC # / TYPE / VERS 
                                                            ANT # / TYPE        
 -2956522.6321  5075844.0474  2476795.2949                  APPROX POSITION XYZ 
        0.0000        0.0000        0.0000                  ANTENNA: DELTA H/E/N
G    4 C1C L1C D1C S1C                                      SYS / # / OBS TYPES 
  2024    12    28     5    10   43.9960001     GPS         TIME OF FIRST OBS   
  2024    12    28     6    25   13.9949999     GPS         TIME OF LAST OBS    
                                                            END OF HEADER       
> 2024 12 28  5 10 43.9960001  0 11                     
G 3  23594375.887     1547503.297       -1380.000          37.000  
G 4  20991272.218    -3731334.4611       2676.000          16.000  
G 8  21582819.102    -5109271.189        3909.000          44.000  
G 9  23214927.847    -4694027.3331       3588.000          25.000  
G16  19827567.733      135558.5511       -289.000          42.000  
G18  24365655.408    -1405484.7801        955.000          33.000  
G26  20870293.732     1472338.1731      -1199.000          22.000  
G27  19631616.645    -3518388.146        2480.000          44.000  
G28  21958164.736     1107468.9091      -1021.000          40.000  
G31  20591504.015       11749.882        -130.000          42.000  
G32  24131508.945       60380.1281      -3222.000          30.000  
> 2024 12 28  5 10 44.9960001  0 11                     
G 3  23594639.665     1548884.825       -1381.000          38.000  
G 4  20990744.628    -3733996.3311       2661.000          20.000  
G 8  21582075.125    -5113180.772        3909.000          43.000  
G 9  23213573.641    -4701180.7691       3574.000          20.000  
G16  19827621.933      135849.3061       -290.000          45.000  
G18  24365470.541    -1406442.5001        957.000          33.000  
G26  20870508.160     1473543.7701      -1205.000          19.000  
G27  19631144.670    -3520868.456        2480.000          44.000  
G28  21958358.329     1108488.6181      -1019.000          40.000  
G31  20591528.583       11878.909        -129.000          42.000  
G32  24132109.442       63613.1911      -3233.000          29.000  
> 2024 12 28  5 10 45.9960001  0 11                     
G 3  23594903.477     1550266.685       -1381.000          38.000  
G 4  20990233.790    -3736663.8311       2667.000          32.000  
G 8  21581331.128    -5117090.479        3909.000          42.000  
G 9  23212916.256    -4704751.9901       3571.000          20.000  
G16  19827667.443      136141.7221       -292.000          44.000  
G18  24365286.825    -1407400.1171        957.000          34.000  
G26  20870774.939     1474763.9251      -1220.000          22.000  
G27  19630672.771    -3523348.336        2479.000          43.000  
G28  21958552.236     1109508.0451      -1019.000          40.000  
G31  20591553.166       12007.981        -129.000          42.000  
G32  24132713.150       66853.8851      -3240.000          27.000  
> 2024 12 28  5 10 46.9960001  0 11                     
G 3  23595165.719     1551646.847       -1380.000          38.000  
G 4  20989723.197    -3739351.1891       2687.000          41.000  
G 8  21580586.933    -5121001.221        3910.000          42.000  
G 9  23212214.408    -4708327.0161       3575.000          18.000  
G16  19827745.725      136433.7731       -292.000          28.000  
G18  24365102.865    -1408355.8711        955.000          33.000  
G26  20871019.975     1475997.2101      -1233.000          24.000  
G27  19630200.879    -3525828.171        2479.000          43.000  
G28  21958747.050     1110528.7191      -1020.000          40.000  
G31  20591577.993       12138.331        -130.000          41.000  
G32  24133332.284       70097.3791      -3243.000          26.000  
> 2024 12 28  5 10 47.9960001  0 11                     
G 3  23595419.340     1553023.0411      -1376.000          35.000  
G 4  20989221.224    -3742036.5881       2685.000          35.000  
G 8  21579842.287    -5124914.305        3913.000          42.000  
G 9  23211549.450    -4711910.1301       3583.000          16.000  
G16  19827783.208      136726.9621       -293.000          24.000  
G18  24364922.150    -1409306.5211        950.000          30.000  
G26  20871254.436     1477241.8911      -1244.000          27.000  
G27  19629728.934    -3528308.293        2480.000          43.000  
G28  21958943.225     1111553.2911      -1024.000          40.000  
G31  20591603.439       12271.960        -133.000          41.000  
G32  24133946.950       73328.5821      -3231.000          29.000  
> 2024 12 28  5 10 48.9960001  0 11                     
G 3  23595686.782     1554394.087       -1371.000          35.000  
G 4  20988726.824    -3744716.8921       2680.000          21.000  
G 8  21579096.993    -5128830.780        3916.000          42.000  
G 9  23210870.916    -4715493.1221       3582.000          12.000  
G16  19827858.279      137026.4161       -299.000          27.000  
G18  24364747.334    -1410252.008         945.000          32.000  
G26  20871437.664     1478502.1631      -1260.000          27.000  
G27  19629256.885    -3530788.990        2480.000          44.000  
G28  21959139.191     1112581.658       -1028.000          40.000  
G31  20591629.504       12408.821        -136.000          42.000  
G32  24134541.723       76546.1601      -3217.000          30.000  
> 2024 12 28  5 10 49.9960001  0  9                     
G 3  23595948.047     1555759.969       -1365.000          36.000  
G 8  21578351.095    -5132750.424        3919.000          42.000  
G16  19827904.487      137332.4911       -306.000          24.000  
G18  24364566.550    -1411191.6691        939.000          31.000  
G26  20871662.039     1479792.3861      -1290.000          21.000  
G27  19628784.694    -3533270.391        2481.000          43.000  
G28  21959336.030     1113614.325       -1032.000          40.000  
G31  20591656.271       12549.387        -140.000          42.000  
G32  24135154.924       79764.9291      -3218.000          31.000  
> 2024 12 28  5 10 50.9960001  0  9                     
G 3  23596207.741     1557120.116       -1360.000          36.000  
G 4  20987721.413    -3750071.3711       2676.000          18.000  
G 8  21577604.494    -5136673.876        3923.000          44.000  
G16  19827950.765      137633.8161       -301.000          25.000  
G18  24364386.184    -1412125.5881        933.000          31.000  
G27  19628312.338    -3535752.654        2482.000          44.000  
G28  21959533.776     1114651.258       -1036.000          40.000  
G31  20591683.738       12693.646        -144.000          42.000  
G32  24135744.113       82982.3001      -3217.000          32.000  
> 2024 12 28  5 10 51.9960001  0  9                     
G 3  23596465.097     1558474.929       -1354.000          37.000  
G 4  20987230.294    -3752748.3921       2677.000          17.000  
G 8  21576857.268    -5140600.557        3926.000          42.000  
G16  19828011.387      137932.4421       -298.000          23.000  
G18  24364213.916    -1413053.1451        927.000          32.000  
G27  19627839.892    -3538235.414        2482.000          44.000  
G28  21959731.940     1115692.807       -1041.000          40.000  
G31  20591711.977       12841.944        -148.000          42.000  
G32  24136338.782       86197.4431      -3215.000          34.000  
> 2024 12 28  5 10 52.9960001  0 10                     
G 3  23596721.022     1559825.198       -1350.000          37.000  
G 4  20986733.905    -3755430.3051       2681.000          12.000  
G 8  21576109.472    -5144530.251        3929.000          42.000  
G16  19828063.458      138228.1321       -295.000          30.000  
G18  24364033.830    -1413975.6611        922.000          31.000  
G26  20872350.031        2558.6861      -1211.000          40.000  
G27  19627367.384    -3540718.512        2483.000          44.000  
G28  21959930.733     1116738.151       -1045.000          40.000  
G31  20591740.845       12993.537        -151.000          41.000  
G32  24136945.072       89413.5821      -3216.000          36.000  
> 2024 12 28  5 10 53.9960001  0 10                     
G 3  23596978.029     1561173.660       -1348.000          36.000  
G 4  20986195.600    -3758124.6101       2694.000          19.000  
G 8  21575345.036    -5148460.7941       3930.000          43.000  
G16  19828125.546      138523.1561       -295.000          45.000  
G18  24363862.399    -1414894.9891        919.000          32.000  
G26  20872578.280        3771.8541      -1213.000          40.000  
G27  19626894.955    -3543201.231        2482.000          44.000  
G28  21960129.317     1117785.928       -1047.000          40.000  
G31  20591770.122       13147.304        -153.000          42.000  
G32  24137565.672       92630.7301      -3217.000          32.000  
> 2024 12 28  5 10 54.9960001  0 10                     
G 3  23597233.570     1562519.968       -1346.000          37.000  
G 4  20985667.173    -3760822.5151       2697.000          19.000  
G 8  21574605.146    -5152392.688        3931.000          42.000  
G16  19828180.305      138817.695        -295.000          45.000  
G18  24363689.607    -1415812.0631        917.000          32.000  
G26  20872808.239        4986.1211      -1214.000          40.000  
G27  19626422.473    -3545684.172        2482.000          43.000  
G28  21960329.052     1118835.208       -1049.000          40.000  
G31  20591799.641       13302.353        -155.000          41.000  
G32  24138165.645       95850.2791      -3219.000          32.000  
> 2024 12 28  5 10 55.9960001  0 10                     
G 3  23597488.622     1563862.326       -1342.000          38.000  
G 4  20985155.323    -3763518.7971       2696.000          19.000  
G 8  21573861.732    -5156327.041        3934.000          44.000  
G16  19828235.483      139113.390        -295.000          45.000  
G18  24363514.825    -1416724.3241        912.000          33.000  
G26  20873040.152        6203.1581      -1217.000          40.000  
G27  19625949.979    -3548167.166        2482.000          43.000  
G28  21960529.380     1119888.214       -1053.000          40.000  
G31  20591829.772       13460.620        -158.000          41.000  
G32  24138781.009       99067.3861      -3217.000          34.000  
> 2024 12 28  5 10 56.9960001  0 10                     
G 3  23597744.617     1565200.514       -1338.000          37.000  
G 4  20984537.446    -3766215.8961       2697.000          18.000  
G 8  21573115.770    -5160263.928        3936.000          42.000  
G16  19828291.777      139409.971        -296.000          45.000  
G18  24363339.765    -1417631.0151        906.000          32.000  
G26  20873271.123        7423.5151      -1220.000          40.000  
G27  19625477.465    -3550650.239        2483.000          43.000  
G28  21960730.407     1120945.293       -1057.000          40.000  
G31  20591860.615       13622.602        -161.000          41.000  
G32  24139393.687      102285.5091      -3218.000          29.000  
> 2024 12 28  5 10 57.9960001  0  9                     
G 3  23597999.006     1566534.811       -1334.000          37.000  
G 8  21572369.041    -5164203.143        3939.000          44.000  
G16  19828347.967      139707.084        -297.000          45.000  
G18  24363168.613    -1418533.1651        902.000          32.000  
G26  20873502.478        8646.3311      -1222.000          40.000  
G27  19625004.894    -3553133.619        2483.000          43.000  
G28  21960932.271     1122005.821       -1060.000          40.000  
G31  20591892.025       13787.584        -164.000          42.000  
G32  24140014.914      105503.3141      -3217.000          28.000  
> 2024 12 28  5 10 58.9960001  0  9                     
G 3  23598253.011     1567866.179       -1331.000          37.000  
G 8  21571619.798    -5168144.096        3940.000          44.000  
G16  19828404.122      140004.837        -297.000          45.000  
G18  24362994.180    -1419431.4921        898.000          32.000  
G26  20873735.125        9871.3301      -1224.000          39.000  
G27  19624532.335    -3555616.935        2483.000          42.000  
G28  21961135.043     1123069.153       -1063.000          39.000  
G31  20591923.909       13955.093        -167.000          42.000  
G32  24140628.848      108721.1501      -3217.000          30.000  
> 2024 12 28  5 10 59.9960001  0  9                     
G 3  23598508.099     1569197.264       -1331.000          35.000  
G 8  21570870.451    -5172085.055        3940.000          43.000  
G16  19828460.207      140302.920        -298.000          44.000  
G18  24362831.335    -1420328.9231        897.000          29.000  
G26  20873968.364       11096.7041      -1225.000          39.000  
G27  19624059.893    -3558099.665        2482.000          42.000  
G28  21961338.687     1124133.208       -1064.000          40.000  
G31  20591955.898       14123.183        -168.000          41.000  
G32  24141220.375      111938.5561      -3217.000          29.000  
> 2024 12 28  5 11  0.9960001  0  9                     
G 3  23598760.115     1570529.873       -1332.000          37.000  
G 8  21570120.405    -5176024.698        3939.000          43.000  
G16  19828517.688      140601.177        -298.000          45.000  
G18  24362659.415    -1421227.2981        898.000          34.000  
G26  20874201.080       12320.779       -1224.000          39.000  
G27  19623587.621    -3560581.482        2481.000          42.000  
G28  21961541.877     1125196.419       -1063.000          40.000  
G31  20591987.750       14290.514        -167.000          42.000  
G32  24141827.608      115156.0211      -3217.000          33.000  
> 2024 12 28  5 11  1.9960001  0  9                     
G 3  23599013.282     1571863.012       -1333.000          37.000  
G 8  21569367.917    -5179963.823        3939.000          42.000  
G16  19828574.226      140899.627        -298.000          45.000  
G18  24362492.661    -1422125.8241        898.000          32.000  
G26  20874434.390       13545.018       -1224.000          40.000  
G27  19623115.464    -3563062.685        2481.000          43.000  
G28  21961744.055     1126259.575       -1063.000          39.000  
G31  20592019.607       14457.870        -167.000          42.000  
G32  24142441.018      118373.3291      -3217.000          32.000  
> 2024 12 28  5 11  2.9960001  0  9                     
G 3  23599266.136     1573194.987       -1331.000          37.000  
G 8  21568614.766    -5183903.493        3939.000          41.000  
G16  19828631.079      141198.332        -298.000          45.000  
G18  24362308.980    -1423022.9541        897.000          32.000  
G26  20874667.001       14769.945       -1224.000          40.000  
G27  19622643.367    -3565543.604        2480.000          43.000  
G28  21961946.199     1127323.697       -1064.000          39.000  
G31  20592051.624       14626.103        -168.000          41.000  
G32  24143063.014      121590.8061      -3217.000          34.000  
> 2024 12 28  5 11  3.9960001  0  9                     
G 3  23599517.245     1574526.281       -1331.000          36.000  
G 8  21567866.570    -5187843.307        3939.000          42.000  
G16  19828688.176      141497.850        -299.000          44.000  
G18  24362145.437    -1423917.8131        894.000          32.000  
G26  20874902.544       15996.267       -1226.000          40.000  
G27  19622171.415    -3568023.739        2480.000          43.000  
G28  21962143.212     1128389.697       -1065.000          39.000  
G31  20592083.955       14795.987        -169.000          41.000  
G32  24143665.186      124808.6621      -3217.000          36.000  
> 2024 12 28  5 11  4.9960001  0  9                     
G 3  23599771.599     1575856.781       -1330.000          36.000  
G 8  21567118.165    -5191783.377        3940.000          42.000  
G16  19828745.343      141797.707        -299.000          44.000  
G18  24361971.074    -1424811.3551        893.000          34.000  
G26  20875138.122       17223.127       -1226.000          39.000  
G27  19621699.536    -3570503.495        2479.000          43.000  
G28  21962350.485     1129456.591       -1066.000          40.000  
G31  20592116.434       14966.684        -170.000          40.000  
G32  24144282.470      128026.5591      -3217.000          35.000  
> 2024 12 28  5 11  5.9960001  0 10                     
G 3  23600024.208     1577187.322       -1330.000          36.000  
G 8  21566369.376    -5195723.263        3939.000          42.000  
G 9  23199167.858      -10062.1271       3598.000          19.000  
G16  19828802.231      142097.725        -300.000          44.000  
G18  24361806.100    -1425704.6341        893.000          34.000  
G26  20875371.152       18449.953       -1226.000          39.000  
G27  19621227.766    -3572982.673        2479.000          43.000  
G28  21962555.770     1130523.693       -1067.000          39.000  
G31  20592148.951       15137.566        -170.000          40.000  
G32  24144894.833      131244.3371      -3217.000          35.000  
> 2024 12 28  5 11  6.9960001  0 10                     
G 3  23600276.853     1578517.978       -1330.000          36.000  
G 8  21565620.169    -5199662.838        3939.000          42.000  
G 9  23198519.198      -13663.1961       3601.000          20.000  
G16  19828859.747      142398.030        -300.000          44.000  
G18  24361641.405    -1426597.473         892.000          34.000  
G26  20875604.497       19676.837       -1226.000          39.000  
G27  19620756.108    -3575461.284        2478.000          43.000  
G28  21962760.216     1131591.060       -1067.000          39.000  
G31  20592181.525       15308.734        -171.000          40.000  
G32  24145509.499      134462.119       -3217.000          35.000  
> 2024 12 28  5 11  7.9960001  0 10                     
G 3  23600531.172     1579847.728       -1329.000          36.000  
G 8  21564871.450    -5203603.113        3940.000          43.000  
G 9  23197828.065      -17264.4171       3601.000          18.000  
G16  19828916.600      142697.642        -299.000          44.000  
G18  24361472.626    -1427490.908         893.000          34.000  
G26  20875836.515       20902.739       -1225.000          38.000  
G27  19620284.380    -3577940.248        2478.000          44.000  
G28  21962963.337     1132657.718       -1066.000          39.000  
G31  20592213.966       15479.182        -170.000          41.000  
G32  24146121.269      137678.982       -3216.000          35.000  
> 2024 12 28  5 11  8.9960001  0 10                     
G 3  23600783.223     1581178.929       -1331.000          36.000  
G 8  21564122.626    -5207541.705        3938.000          43.000  
G 9  23197158.710      -20863.4021       3598.000          19.000  
G16  19828974.220      142998.900        -301.000          44.000  
G18  24361302.556    -1428382.494         891.000          34.000  
G26  20876067.765       22130.159       -1227.000          38.000  
G27  19619813.017    -3580417.266        2477.000          43.000  
G28  21963167.016     1133726.117       -1068.000          39.000  
G31  20592246.727       15651.286        -172.000          41.000  
G32  24146730.770      140897.244       -3218.000          35.000  
> 2024 12 28  5 11  9.9960001  0 10                     
G 3  23601027.770     1582510.660       -1331.000          36.000  
G 8  21563374.291    -5211479.595        3937.000          42.000  
G 9  23196444.682      -24462.8121       3599.000          18.000  
G16  19829032.469      143300.811        -301.000          44.000  
G18  24361133.778    -1429273.307         890.000          34.000  
G26  20876300.097       23357.983       -1227.000          37.000  
G27  19619341.860    -3582893.237        2475.000          43.000  
G28  21963369.403     1134795.176       -1069.000          39.000  
G31  20592279.628       15824.060        -172.000          41.000  
G32  24147344.494      144115.904       -3218.000          34.000  
> 2024 12 28  5 11 10.9960001  0 10                     
G 3  23601287.116     1583842.120       -1331.000          36.000  
G 8  21562625.886    -5215417.555        3937.000          43.000  
G 9  23195739.518      -28054.8191       3592.000          15.000  
G16  19829090.543      143602.648        -301.000          44.000  
G18  24360960.986    -1430164.039         890.000          34.000  
G26  20876532.429       24585.523       -1227.000          37.000  
G27  19618870.736    -3585369.036        2475.000          43.000  
G28  21963571.233     1135864.138       -1068.000          39.000  
G31  20592312.527       15996.734        -172.000          41.000  
G32  24147958.951      147334.201       -3218.000          35.000  
> 2024 12 28  5 11 11.9960001  0 10                     
G 3  23601543.564     1585174.145       -1332.000          36.000  
G 4  20976958.014       -7482.6581       2688.000          19.000  
G 8  21561877.411    -5219354.760        3937.000          43.000  
G16  19829148.443      143905.238        -302.000          44.000  
G18  24360789.345    -1431053.953         889.000          35.000  
G26  20876765.390       25813.598       -1228.000          37.000  
G27  19618399.823    -3587843.731        2474.000          43.000  
G28  21963773.934     1136933.873       -1069.000          39.000  
G31  20592345.582       16170.119        -173.000          41.000  
G32  24148573.094      150552.986       -3218.000          35.000  
> 2024 12 28  5 11 12.9960001  0  9                     
G 3  23601795.091     1586506.293       -1332.000          36.000  
G 8  21561128.413    -5223291.640        3936.000          43.000  
G16  19829205.854      144208.095        -302.000          44.000  
G18  24360616.868    -1431943.388         889.000          34.000  
G26  20876998.874       27041.710       -1228.000          37.000  
G27  19617929.032    -3590317.784        2474.000          43.000  
G28  21963976.427     1138003.900       -1070.000          38.000  
G31  20592378.699       16343.813        -173.000          41.000  
G32  24149188.598      153771.830       -3218.000          35.000  
> 2024 12 28  5 11 13.9960001  0  9                     
G 3  23602051.889     1587838.914       -1332.000          35.000  
G 8  21560379.729    -5227227.847        3936.000          42.000  
G16  19829263.615      144511.606        -303.000          44.000  
G18  24360445.018    -1432832.065         888.000          34.000  
G26  20877233.195       28270.282       -1228.000          37.000  
G27  19617458.434    -3592790.837        2473.000          43.000  
G28  21964179.931     1139074.621       -1070.000          38.000  
G31  20592411.947       16518.166        -174.000          41.000  
G32  24149803.195      156991.037       -3219.000          35.000  
> 2024 12 28  5 11 14.9960001  0  9                     
G 3  23602301.357     1589171.549       -1332.000          35.000  
G 8  21559631.149    -5231163.831        3935.000          42.000  
G16  19829320.886      144815.334        -303.000          44.000  
G18  24360274.215    -1433720.365         888.000          35.000  
G26  20877467.342       29498.872       -1228.000          37.000  
G27  19616987.928    -3595263.396        2472.000          43.000  
G28  21964382.249     1140145.582       -1070.000          38.000  
G31  20592445.226       16692.716        -174.000          41.000  
G32  24150415.384      160210.209       -3219.000          35.000  
> 2024 12 28  5 11 15.9960001  0  9                     
G 3  23602559.446     1590504.436       -1332.000          35.000  
G 8  21558881.977    -5235099.421        3935.000          42.000  
G16  19829379.205      145119.426        -304.000          44.000  
G18  24360102.819    -1434608.175         887.000          34.000  
G26  20877700.233       30727.566       -1228.000          37.000  
G27  19616517.562    -3597735.235        2471.000          43.000  
G28  21964585.684     1141216.899       -1071.000          38.000  
G31  20592478.564       16867.663        -174.000          41.000  
G32  24151025.757      163429.492       -3219.000          35.000  
> 2024 12 28  5 11 16.9960001  0  9                     
G 3  23602816.313     1591837.380       -1332.000          36.000  
G 8  21558132.280    -5239034.696        3935.000          42.000  
G16  19829437.593      145423.816        -304.000          44.000  
G18  24359936.833    -1435495.539         887.000          34.000  
G26  20877934.485       31956.391       -1228.000          38.000  
G27  19616047.307    -3600206.485        2471.000          43.000  
G28  21964789.118     1142288.554       -1071.000          38.000  
G31  20592511.949       17042.881        -175.000          41.000  
G32  24151643.425      166648.773       -3219.000          35.000  
> 2024 12 28  5 11 17.9960001  0  9                     
G 3  23603069.900     1593170.565       -1333.000          36.000  
G 8  21557383.352    -5242969.534        3934.000          42.000  
G16  19829495.702      145728.629        -304.000          44.000  
G18  24359772.486    -1436382.364         886.000          34.000  
G26  20878169.330       33185.392       -1228.000          38.000  
G27  19615577.204    -3602676.945        2470.000          43.000  
G28  21964992.518     1143360.652       -1072.000          38.000  
G31  20592545.409       17218.515        -175.000          41.000  
G32  24152253.136      169868.253       -3219.000          36.000  
> 2024 12 28  5 11 18.9960001  0  9                     
G 3  23603323.067     1594503.960       -1333.000          36.000  
G 8  21556634.493    -5246903.963        3934.000          42.000  
G16  19829553.847      146033.801        -305.000          44.000  
G18  24359601.544    -1437268.728         886.000          34.000  
G26  20878403.372       34414.565       -1229.000          38.000  
G27  19615107.233    -3605146.717        2469.000          43.000  
G28  21965196.232     1144433.086       -1072.000          38.000  
G31  20592578.935       17394.506        -175.000          41.000  
G32  24152864.417      173087.791       -3219.000          36.000  
> 2024 12 28  5 11 19.9960001  0  9                     
G 3  23603576.794     1595837.554       -1333.000          36.000  
G 8  21555885.390    -5250838.007        3934.000          42.000  
G16  19829611.781      146339.338        -305.000          44.000  
G18  24359435.278    -1438154.523         885.000          34.000  
G26  20878638.496       35643.826       -1229.000          38.000  
G27  19614637.391    -3607615.813        2469.000          43.000  
G28  21965399.841     1145505.934       -1072.000          38.000  
G31  20592612.531       17570.866        -176.000          41.000  
G32  24153476.222      176307.480       -3219.000          36.000  
> 2024 12 28  5 11 20.9960001  0  9                     
G 3  23603831.532     1597171.437       -1333.000          36.000  
G 8  21555135.694    -5254771.578        3933.000          42.000  
G16  19829669.681      146645.327        -305.000          44.000  
G18  24359269.013    -1439039.757         885.000          34.000  
G26  20878874.353       36873.422       -1229.000          39.000  
G27  19614167.701    -3610084.098        2468.000          43.000  
G28  21965602.996     1146579.285       -1073.000          38.000  
G31  20592646.209       17747.718        -176.000          41.000  
G32  24154087.782      179527.341       -3219.000          35.000  
> 2024 12 28  5 11 21.9960001  0 10                     
G 3  23604085.956     1598505.452       -1334.000          36.000  
G 8  21554386.696    -5258704.813        3933.000          41.000  
G 9  23188259.657       -9329.8861       3592.000          21.000  
G16  19829727.581      146951.638        -306.000          44.000  
G18  24359105.434    -1439924.543         884.000          34.000  
G26  20879109.128       38103.063       -1229.000          39.000  
G27  19613698.135    -3612551.735        2467.000          43.000  
G28  21965806.466     1147652.912       -1073.000          38.000  
G31  20592679.919       17924.825        -177.000          41.000  
G32  24154698.156      182747.290       -3219.000          35.000  
> 2024 12 28  5 11 22.9960001  0 11                     
G 3  23604340.206     1599839.616       -1334.000          36.000  
G 4  20971331.924       -6941.5571       2686.000          22.000  
G 8  21553637.802    -5262637.652        3932.000          42.000  
G 9  23187557.355      -12923.2241       3593.000          23.000  
G16  19829785.411      147258.322        -306.000          44.000  
G18  24358936.167    -1440808.802         884.000          34.000  
G26  20879344.706       39332.867       -1229.000          39.000  
G27  19613228.698    -3615018.680        2466.000          43.000  
G28  21966010.284     1148726.976       -1074.000          38.000  
G31  20592713.686       18102.317        -177.000          41.000  
G32  24155311.356      185967.326       -3220.000          35.000  
> 2024 12 28  5 11 23.9960001  0 11                     
G 3  23604592.152     1601174.130       -1334.000          36.000  
G 4  20970838.257       -9627.4301       2685.000          22.000  
G 8  21552889.013    -5266569.991        3932.000          42.000  
G 9  23186868.944      -16516.1531       3592.000          23.000  
G16  19829843.381      147565.480        -307.000          44.000  
G18  24358770.530    -1441692.474         883.000          34.000  
G26  20879579.028       40562.929       -1230.000          39.000  
G27  19612759.412    -3617484.815        2466.000          43.000  
G28  21966215.150     1149801.532       -1074.000          38.000  
G31  20592747.537       18280.324        -178.000          40.000  
G32  24155925.011      189187.563       -3220.000          35.000  
> 2024 12 28  5 11 24.9960001  0 11                     
G 3  23604845.738     1602508.858       -1334.000          36.000  
G 4  20970337.890      -12310.6561       2683.000          25.000  
G 8  21552140.748    -5270501.868        3931.000          42.000  
G 9  23186172.227      -20106.0341       3589.000          23.000  
G16  19829901.874      147873.037        -307.000          44.000  
G18  24358604.718    -1442575.583         883.000          35.000  
G26  20879812.896       41793.161       -1230.000          39.000  
G27  19612290.256    -3619950.225        2465.000          43.000  
G28  21966419.911     1150876.501       -1074.000          38.000  
G31  20592781.453       18458.732        -178.000          41.000  
G32  24156533.779      192407.991       -3220.000          35.000  
> 2024 12 28  5 11 25.9960001  0 11                     
G 3  23605100.093     1603843.727       -1334.000          36.000  
G 4  20969813.720      -14992.4921       2681.000          26.000  
G 8  21551392.413    -5274433.431        3931.000          42.000  
G 9  23185484.688      -23701.5041       3595.000          22.000  
G16  19829959.983      148180.925        -307.000          44.000  
G18  24358435.695    -1443458.211         882.000          35.000  
G26  20880045.368       43023.543       -1230.000          39.000  
G27  19611821.219    -3622414.976        2464.000          43.000  
G28  21966626.382     1151951.825       -1075.000          38.000  
G31  20592815.429       18637.446        -178.000          41.000  
G32  24157145.723      195628.462       -3220.000          34.000  
> 2024 12 28  5 11 26.9960001  0 11                     
G 3  23605353.994     1605178.949       -1335.000          36.000  
G 4  20969300.753      -17675.8481       2683.000          25.000  
G 8  21550643.694    -5278364.439        3931.000          42.000  
G 9  23184821.755      -27292.9891       3591.000          22.000  
G16  19830019.000      148489.285        -308.000          44.000  
G18  24358266.847    -1444340.195         881.000          35.000  
G26  20880278.119       44254.206       -1230.000          38.000  
G27  19611352.332    -3624878.906        2463.000          43.000  
G28  21966830.794     1153027.668       -1075.000          38.000  
G31  20592849.505       18816.642        -179.000          41.000  
G32  24157757.004      198849.179       -3220.000          34.000  
> 2024 12 28  5 11 27.9960001  0 11                     
G 3  23605608.418     1606514.252       -1335.000          36.000  
G 4  20968789.776      -20356.8431       2680.000          25.000  
G 8  21549895.498    -5282295.184        3930.000          42.000  
G 9  23184104.830      -30883.0071       3590.000          22.000  
G16  19830077.772      148797.951        -308.000          44.000  
G18  24358091.577    -1445221.813         881.000          35.000  
G26  20880511.498       45484.875       -1230.000          38.000  
G27  19610883.564    -3627342.202        2463.000          43.000  
G28  21967035.450     1154103.771       -1076.000          38.000  
G31  20592883.641       18996.120        -179.000          41.000  
G32  24158372.892      202069.869       -3220.000          35.000  
> 2024 12 28  5 11 28.9960001  0 11                     
G 3  23605862.249     1607849.659       -1335.000          36.000  
G 4  20968245.853      -23037.0041       2680.000          26.000  
G 8  21549146.744    -5286225.591        3930.000          42.000  
G 9  23183395.688      -34472.9251       3589.000          19.000  
G16  19830137.138      149106.894        -308.000          44.000  
G18  24357922.938    -1446102.979         881.000          35.000  
G26  20880743.481       46715.653       -1230.000          38.000  
G27  19610414.907    -3629804.899        2462.000          43.000  
G28  21967238.989     1155180.181       -1076.000          38.000  
G31  20592917.842       19175.906        -179.000          41.000  
G32  24158982.324      205290.628       -3220.000          34.000  
> 2024 12 28  5 11 29.9960001  0 11                     
G 3  23606117.266     1609185.601       -1335.000          36.000  
G 4  20967735.539      -25716.3571       2679.000          25.000  
G 8  21548399.666    -5290155.299        3929.000          41.000  
G 9  23182731.882      -38063.8931       3590.000          19.000  
G16  19830196.713      149416.549        -309.000          44.000  
G18  24357751.367    -1446983.347         880.000          34.000  
G26  20880975.708       47946.914       -1231.000          38.000  
G27  19609946.461    -3632266.535        2461.000          43.000  
G28  21967443.890     1156257.368       -1077.000          38.000  
G31  20592952.180       19356.374        -180.000          41.000  
G32  24159592.453      208511.783       -3221.000          34.000  
> 2024 12 28  5 11 30.9960001  0 11                     
G 3  23606372.702     1610521.777       -1336.000          36.000  
G 4  20967212.800      -28395.0781       2678.000          25.000  
G 8  21547652.098    -5294084.565        3929.000          41.000  
G 9  23182033.175      -41660.8781       3596.000          10.000  
G16  19830256.078      149726.565        -310.000          44.000  
G18  24357586.532    -1447863.092         879.000          34.000  
G26  20881207.796       49178.371       -1231.000          37.000  
G27  19609478.150    -3634727.477        2460.000          43.000  
G28  21967650.779     1157334.910       -1077.000          38.000  
G31  20592986.609       19537.274        -180.000          41.000  
G32  24160202.966      211733.143       -3221.000          34.000  
> 2024 12 28  5 11 31.9960001  0 10                     
G 3  23606622.659     1611858.053       -1336.000          36.000  
G 4  20966700.845      -31073.5051       2678.000          23.000  
G 8  21546905.264    -5298013.506        3928.000          42.000  
G16  19830315.409      150036.887        -310.000          44.000  
G18  24357418.557    -1448742.490         879.000          34.000  
G26  20881441.106       50409.874       -1231.000          37.000  
G27  19609009.961    -3637187.806        2460.000          43.000  
G28  21967857.250     1158412.808       -1077.000          38.000  
G31  20593021.082       19718.409        -181.000          42.000  
G32  24160815.748      214954.475       -3221.000          34.000  
> 2024 12 28  5 11 32.9960001  0 10                     
G 3  23606879.736     1613194.172       -1336.000          36.000  
G 4  20966191.055      -33751.2421       2677.000          25.000  
G 8  21546157.732    -5301942.338        3928.000          42.000  
G16  19830374.181      150347.332        -310.000          44.000  
G18  24357251.768    -1449621.640         879.000          34.000  
G26  20881674.555       51641.252       -1231.000          37.000  
G27  19608541.864    -3639647.678        2459.000          43.000  
G28  21968064.454     1159490.806       -1077.000          38.000  
G31  20593055.582       19899.651        -181.000          41.000  
G32  24161428.530      218175.638       -3221.000          34.000  
> 2024 12 28  5 11 33.9960001  0 10                     
G 3  23607129.728     1614530.639       -1336.000          35.000  
G 4  20965685.452      -36428.4621       2677.000          25.000  
G 8  21545410.094    -5305870.730        3928.000          42.000  
G16  19830433.303      150658.171        -310.000          45.000  
G18  24357087.910    -1450500.146         878.000          35.000  
G26  20881909.190       52872.854       -1231.000          37.000  
G27  19608073.908    -3642106.823        2459.000          44.000  
G28  21968271.798     1160569.250       -1078.000          39.000  
G31  20593090.171       20081.339        -181.000          41.000  
G32  24162037.752      221397.015       -3221.000          33.000  
> 2024 12 28  5 11 34.9960001  0 11                     
G 3  23607381.848     1615867.137       -1336.000          35.000  
G 4  20965170.601      -39105.1491       2676.000          25.000  
G 8  21544663.016    -5309798.885        3928.000          42.000  
G 9  23179212.836      -56055.3441       3598.000          15.000  
G16  19830491.761      150969.232        -311.000          45.000  
G18  24356925.379    -1451378.425         878.000          35.000  
G26  20882142.954       54104.431       -1231.000          37.000  
G27  19607606.067    -3644565.417        2458.000          44.000  
G28  21968479.455     1161647.911       -1078.000          39.000  
G31  20593124.802       20263.213        -181.000          41.000  
G32  24162653.710      224618.309       -3221.000          34.000  
> 2024 12 28  5 11 35.9960001  0 10                     
G 3  23607634.388     1617204.187       -1337.000          35.000  
G 4  20964666.290      -41781.2621       2676.000          25.000  
G 8  21543915.658    -5313726.380        3927.000          42.000  
G16  19830550.673      151280.729        -311.000          44.000  
G18  24356761.381    -1452256.280         877.000          35.000  
G26  20882379.648       55336.156       -1231.000          38.000  
G27  19607138.398    -3647023.135        2457.000          44.000  
G28  21968686.520     1162726.927       -1079.000          39.000  
G31  20593159.502       20445.401        -182.000          41.000  
G32  24163274.344      227839.790       -3221.000          34.000  
> 2024 12 28  5 11 36.9960001  0 10                     
G 3  23607892.930     1618543.831       -1339.000          37.000  
G 4  20964143.725      -44456.4691       2674.000          22.000  
G 8  21543168.823    -5317651.805        3925.000          43.000  
G16  19830609.829      151592.387        -311.000          45.000  
G18  24356583.180    -1453136.310         880.000          33.000  
G26  20882616.657       56566.320       -1230.000          40.000  
G27  19606670.952    -3649479.667        2456.000          43.000  
G28  21968891.036     1163804.287       -1077.000          38.000  
G31  20593193.932       20626.207        -180.000          42.000  
G32  24163888.871      231061.208       -3221.000          34.000  
> 2024 12 28  5 11 37.9960001  0 10                     
G 3  23608150.391     1619889.174       -1345.000          37.000  
G 4  20963643.742      -47130.5911       2674.000          23.000  
G 8  21542422.547    -5321572.976        3921.000          44.000  
G16  19830669.055      151904.202        -311.000          45.000  
G18  24356410.597    -1454021.331         885.000          33.000  
G26  20882850.699       57793.500       -1227.000          40.000  
G27  19606203.876    -3651934.228        2454.000          43.000  
G28  21969094.331     1164878.067       -1073.000          39.000  
G31  20593227.764       20803.892        -177.000          42.000  
G32  24164503.887      234282.7041      -3221.000          32.000  
> 2024 12 28  5 11 38.9960001  0 10                     
G 3  23608408.515     1621241.441       -1352.000          36.000  
G 4  20963127.041      -49801.9961       2671.000          26.000  
G 8  21541675.678    -5325489.255        3916.000          44.000  
G16  19830728.735      152216.045        -311.000          45.000  
G18  24356239.899    -1454912.4311        891.000          32.000  
G26  20883084.079       59016.852       -1223.000          40.000  
G27  19605737.223    -3654386.533        2452.000          43.000  
G28  21969297.068     1165947.370       -1069.000          38.000  
G31  20593260.857       20977.707        -173.000          42.000  
G32  24165117.297      237503.8801      -3221.000          32.000  
> 2024 12 28  5 11 39.9960001  0 11                     
G 3  23608664.300     1622597.971       -1356.000          36.000  
G 4  20962616.203      -52471.1271       2669.000          31.000  
G 8  21540931.147    -5329402.164        3912.000          43.000  
G 9  23175767.884      -74034.3381       3595.000          18.000  
G16  19830787.891      152526.957        -310.000          45.000  
G18  24356076.775    -1455808.2971        895.000          33.000  
G26  20883317.109       60236.528       -1219.000          40.000  
G27  19605270.840    -3656837.404        2450.000          43.000  
G28  21969499.316     1167013.342       -1065.000          38.000  
G31  20593293.319       21148.258        -170.000          42.000  
G32  24165719.364      240726.9761      -3223.000          35.000  
> 2024 12 28  5 11 40.9960001  0 11                     
G 3  23608925.285     1623957.3821      -1359.000          33.000  
G 4  20962110.845      -55140.6921       2669.000          44.000  
G 8  21540186.825    -5333310.065        3907.000          41.000  
G 9  23175082.753      -77630.1211       3595.000          15.000  
G16  19830846.524      152835.346        -308.000          46.000  
G18  24355906.146    -1456707.3071        899.000          34.000  
G26  20883549.301       61451.860       -1215.000          41.000  
G27  19604804.968    -3659285.583        2448.000          42.000  
G28  21969701.738     1168078.482       -1065.000          41.000  
G31  20593325.344       21316.509        -168.000          42.000  
G32  24166352.109      243953.9411      -3226.000          29.000  
> 2024 12 28  5 11 41.9960001  0 11                     
G 3  23609186.585     1625317.8441      -1360.000          37.000  
G 4  20961601.159      -57815.6241       2674.000          45.000  
G 8  21539444.703    -5337212.8391       3902.000          40.000  
G 9  23174393.330      -81223.1241       3593.000          14.000  
G16  19830904.040      153139.169        -303.000          44.000  
G18  24355736.635    -1457606.0931        898.000          35.000  
G26  20883780.447       62662.677       -1210.000          42.000  
G27  19604339.848    -3661729.830        2444.000          44.000  
G28  21969905.068     1169146.869       -1068.000          40.000  
G31  20593357.374       21484.771        -168.000          45.000  
G32  24166964.996      247187.4061      -3233.000          35.000  
> 2024 12 28  5 11 42.9960001  0 10                     
G 3  23609443.941     1626672.6721      -1355.000          38.000  
G 4  20961089.623      -60499.006        2683.000          41.000  
G 8  21538702.440    -5341112.748        3899.000          42.000  
G16  19830960.683      153437.917        -298.000          41.000  
G18  24355563.389    -1458497.3561        891.000          35.000  
G26  20884011.872       63872.264       -1209.000          42.000  
G27  19603875.442    -3664170.326        2440.000          45.000  
G28  21970109.690     1170224.842       -1077.000          42.000  
G31  20593390.232       21657.400        -172.000          45.000  
G32  24167572.054      250432.607       -3245.000          34.000  
> 2024 12 28  5 11 43.9960001  0 10                     
G 3  23609703.774     1628016.9591      -1344.000          37.000  
G 4  20960578.332      -63190.546        2691.000          40.000  
G 8  21537960.457    -5345014.990        3902.000          43.000  
G16  19831017.047      153733.714        -295.000          42.000  
G18  24355396.356    -1459375.1931        877.000          38.000  
G26  20884243.366       65085.547       -1213.000          43.000  
G27  19603411.405    -3666608.867        2438.000          46.000  
G28  21970307.226     1171315.737       -1090.000          38.000  
G31  20593424.760       21838.830        -181.000          42.000  
G32  24168200.576      253687.2261      -3254.000          34.000  
> 2024 12 28  5 11 44.9960001  0 11                     
G 3  23609946.332     1629354.7121      -1337.000          34.000  
G 4  20960069.134      -65885.877        2695.000          38.000  
G 8  21537217.182    -5348919.756        3904.000          42.000  
G 9  23172343.697      -92016.3401       3599.000          19.000  
G16  19831073.656      154028.681        -294.000          42.000  
G18  24355222.377    -1460244.4641        869.000          36.000  
G26  20884473.500       66302.182       -1216.000          42.000  
G27  19602947.476    -3669046.843        2437.000          45.000  
G28  21970519.072     1172414.352       -1098.000          41.000  
G31  20593460.315       22025.660        -186.000          41.000  
G32  24168803.062      256945.6491      -3258.000          36.000  
> 2024 12 28  5 11 45.9960001  0 10                     
G 4  20959553.934      -68583.238        2697.000          38.000  
G 8  21536473.873    -5352823.036        3903.000          41.000  
G 9  23171652.703      -95621.3801       3605.000          22.000  
G16  19831129.985      154322.048        -293.000          42.000  
G18  24355053.668    -1461112.8311        868.000          32.000  
G26  20884707.647       67517.7691      -1215.000          38.000  
G27  19602483.814    -3671483.398        2436.000          45.000  
G28  21970730.219     1173514.9741      -1100.000          42.000  
G31  20593495.168       22213.1911       -187.000          40.000  
G32  24169430.537      260207.1571      -3261.000          33.000  
> 2024 12 28  5 11 46.9960001  0 11                     
G 3  23610487.568     1632057.4491      -1358.000          16.000  
G 4  20959039.816      -71282.731        2699.000          40.000  
G 8  21535731.645    -5356724.156        3901.000          42.000  
G 9  23170989.770      -99231.6541       3610.000          23.000  
G16  19831185.442      154613.820        -291.000          41.000  
G18  24354918.499    -1461975.8821        863.000          24.000  
G26  20884920.225       68733.0401      -1215.000          36.000  
G27  19602020.525    -3673918.008        2434.000          46.000  
G28  21970935.469     1174618.3811      -1103.000          38.000  
G31  20593525.740       22400.8261       -187.000          38.000  
G32  24170053.894      263472.5191      -3265.000          34.000  
> 2024 12 28  5 11 47.9960001  0 10                     
G 4  20958525.139      -73983.869        2701.000          39.000  
G 8  21534989.906    -5360623.220        3899.000          41.000  
G 9  23170280.453     -102835.1621       3603.000          24.000  
G16  19831241.457      154904.0871       -290.000          42.000  
G18  24354758.096    -1462841.4561        865.000          28.000  
G26  20885159.468       69946.5061      -1213.000          39.000  
G27  19601557.609    -3676350.657        2432.000          46.000  
G28  21971155.376     1175723.3501      -1104.000          37.000  
G31  20593563.712       22590.1521       -189.000          39.000  
G32  24170680.077      266741.4211      -3268.000          35.000  
> 2024 12 28  5 11 48.9960001  0 11                     
G 3  23610976.244     1634736.2741      -1337.000          22.000  
G 4  20958010.358      -76686.542        2702.000          40.000  
G 8  21534248.621    -5364519.6501       3896.000          40.000  
G 9  23169581.886     -106445.2241       3610.000          24.000  
G16  19831296.425      155193.039        -288.000          43.000  
G18  24354579.895    -1463706.2051        864.000          33.000  
G26  20885394.487       71159.9451      -1212.000          39.000  
G27  19601095.069    -3678781.337        2430.000          46.000  
G28  21971366.280     1176829.9501      -1107.000          40.000  
G31  20593605.488       22779.2351       -189.000          39.000  
G32  24171304.690      270013.8341      -3272.000          34.000  
> 2024 12 28  5 11 49.9960001  0 10                     
G 4  20957495.576      -79390.767        2704.000          39.000  
G 8  21533503.811    -5368412.1901       3892.000          29.000  
G 9  23168913.787     -110061.6611       3616.000          23.000  
G16  19831350.835      155480.666        -287.000          43.000  
G18  24354427.171    -1464570.0991        863.000          39.000  
G26  20885626.087       72370.2881      -1210.000          42.000  
G27  19600632.910    -3681210.015        2428.000          46.000  
G28  21971579.277     1177938.6871      -1108.000          41.000  
G31  20593638.015       22969.7881       -190.000          41.000  
G32  24171927.140      273289.3571      -3275.000          35.000  
> 2024 12 28  5 11 50.9960001  0 10                     
G 4  20956981.074      -82095.785        2705.000          39.000  
G 8  21532779.627    -5372295.5891       3883.000          21.000  
G 9  23168218.221     -113687.9251       3626.000          23.000  
G16  19831405.419      155767.667        -286.000          43.000  
G18  24354244.537    -1465433.2451        863.000          36.000  
G26  20885856.639       73580.0811      -1209.000          42.000  
G27  19600171.010    -3683637.305        2427.000          46.000  
G28  21971792.100     1179048.7521      -1110.000          41.000  
G31  20593671.205       23160.2221       -190.000          40.000  
G32  24172551.439      276567.3031      -3277.000          32.000  
> 2024 12 28  5 11 51.9960001  0 10                     
G 4  20956466.293      -84800.799        2705.000          41.000  
G 8  21532058.863    -5376180.6161       3885.000          21.000  
G 9  23167536.965     -117311.2791       3623.000          24.000  
G16  19831462.621      156054.2411       -286.000          40.000  
G18  24354065.113    -1466295.7231        862.000          34.000  
G26  20886089.774       74789.3961      -1209.000          41.000  
G27  19599709.349    -3686063.340        2426.000          46.000  
G28  21972002.654     1180159.8211      -1111.000          42.000  
G31  20593705.722       23351.5141       -191.000          40.000  
G32  24173171.445      279846.5401      -3279.000          34.000  
> 2024 12 28  5 11 52.9960001  0  9                     
G 4  20955951.895      -87506.111        2705.000          40.000  
G 9  23166826.636     -120930.9891       3619.000          24.000  
G16  19831516.752      156340.5181       -286.000          43.000  
G18  24353905.409    -1467157.6051        861.000          35.000  
G26  20886320.501       75998.3681      -1208.000          41.000  
G27  19599247.914    -3688488.189        2424.000          46.000  
G28  21972214.814     1181271.7531      -1111.000          41.000  
G31  20593739.261       23543.4871       -191.000          39.000  
G32  24173800.839      283127.1271      -3280.000          32.000  
> 2024 12 28  5 11 53.9960001  0  9                     
G 4  20955437.044      -90211.975        2705.000          40.000  
G 9  23166128.628     -124550.8961       3619.000          25.000  
G16  19831570.289      156626.4671       -285.000          42.000  
G18  24353756.245    -1468018.3711        860.000          35.000  
G26  20886549.866       77206.9651      -1208.000          41.000  
G27  19598786.823    -3690911.255        2423.000          46.000  
G28  21972423.763     1182385.5961      -1113.000          41.000  
G31  20593782.084       23735.2101       -191.000          38.000  
G32  24174424.301      286410.1351      -3283.000          35.000  
> 2024 12 28  5 11 54.9960001  0  9                     
G 4  20954921.983      -92919.011        2707.000          40.000  
G 9  23165443.951     -128180.6561       3629.000          24.000  
G16  19831624.385      156911.229        -284.000          42.000  
G18  24353599.228    -1468878.7701        859.000          37.000  
G26  20886781.291       78414.5351      -1207.000          41.000  
G27  19598326.085    -3693332.474        2421.000          46.000  
G28  21972633.829     1183501.0481      -1115.000          40.000  
G31  20593820.754       23928.4831       -192.000          40.000  
G32  24175049.472      289696.2331      -3286.000          33.000  
> 2024 12 28  5 11 56.9960001  0  9                     
G 4  20953890.606      -98333.901        2707.000          40.000  
G 8  21528354.426      -13966.3251       3902.000          18.000  
G 9  23164063.674     -135418.5591       3621.000          23.000  
G16  19831731.948      157479.4931       -284.000          43.000  
G18  24353314.161    -1470592.8341        855.000          19.000  
G26  20887239.848       80827.6881      -1206.000          43.000  
G27  19597405.712    -3698172.200        2419.000          46.000  
G28  21973061.568     1185733.9591      -1116.000          41.000  
G31  20593893.277       24314.9531       -193.000          40.000  
> 2024 12 28  5 11 59.9960001  0  9                     
G 4  20952343.993     -106453.008        2706.000          39.000  
G 9  23161984.829     -146306.6011       3623.000          24.000  
G16  19831894.514      158333.5391       -284.000          42.000  
G18  24352757.743    -1473144.6011        860.000          29.000  
G26  20887926.933       84447.9541      -1206.000          40.000  
G27  19596025.400    -3705428.606        2418.000          46.000  
G28  21973696.477     1189084.8171      -1117.000          42.000  
G31  20594005.063       24895.8971       -193.000          41.000  
G32  24178175.888       12457.6191      -3287.000          33.000  
> 2024 12 28  5 12  1.9960001  0 11                     
G 3  23614277.302        5075.3881      -1338.000          34.000  
G 4  20951314.744     -111863.418        2704.000          39.000  
G 8  21524666.253      -33465.9831       3897.000          26.000  
G 9  23160581.832     -153555.6151       3629.000          22.000  
G16  19832002.007      158904.266        -285.000          42.000  
G18  24352435.996    -1474862.0281        856.000          35.000  
G26  20888387.130       86862.1991      -1207.000          41.000  
G27  19595104.971    -3710262.709        2416.000          46.000  
G28  21974122.228     1191321.466       -1118.000          41.000  
G31  20594069.524       25284.7641       -194.000          40.000  
G32  24179426.650       19031.7911      -3287.000          35.000  
> 2024 12 28  5 12  2.9960001  0 11                     
G 3  23614535.879        6414.4671      -1339.000          32.000  
G 4  20950800.312     -114568.5561       2705.000          39.000  
G 8  21523896.000      -37352.6751       3886.000          31.000  
G 9  23159898.132     -157183.0071       3627.000          22.000  
G16  19832056.243      159189.158        -284.000          42.000  
G18  24352291.194    -1475718.7551        856.000          31.000  
G26  20888616.635       88068.2461      -1206.000          40.000  
G27  19594645.193    -3712678.7121       2416.000          45.000  
G28  21974335.818     1192439.8581      -1118.000          40.000  
G31  20594113.882       25479.2241       -194.000          39.000  
G32  24180041.421       22320.2571      -3288.000          35.000  
> 2024 12 28  5 12  3.9960001  0 11                     
G 3  23614788.140        7753.7311      -1339.000          34.000  
G 4  20950285.321     -117273.2331       2704.000          39.000  
G 8  21523154.785      -41235.4191       3882.000          42.000  
G 9  23159217.434     -160807.7381       3624.000          21.000  
G16  19832110.129      159474.355        -285.000          42.000  
G18  24352117.285    -1476574.4251        855.000          31.000  
G26  20888845.722       89274.5241      -1206.000          42.000  
G27  19594185.345    -3715093.5201       2414.000          45.000  
G28  21974548.885     1193559.2041      -1119.000          40.000  
G31  20594152.064       25674.3781       -195.000          41.000  
G32  24180679.715       25609.4901      -3289.000          30.000  
> 2024 12 28  5 12  4.9960001  0 11                     
G 3  23615043.122        9095.7691      -1342.000          29.000  
G 4  20949771.272     -119976.9871       2703.000          39.000  
G 8  21522415.140      -45118.0971       3882.000          41.000  
G 9  23158506.128     -164447.3451       3639.000          23.000  
G16  19832164.469      159760.245        -285.000          43.000  
G18  24351953.567    -1477430.3931        855.000          33.000  
G26  20889075.751       90481.2801      -1206.000          43.000  
G27  19593726.090    -3717507.7801       2414.000          46.000  
G28  21974761.289     1194678.9511      -1119.000          41.000  
G31  20594189.791       25870.0371       -195.000          42.000  
G32  24181304.572       28898.5681      -3289.000          34.000  
> 2024 12 28  5 12  5.9960001  0 11                     
G 3  23615294.336       10435.8801      -1340.000          34.000  
G 4  20949258.410     -122678.3681       2701.000          39.000  
G 8  21521675.251      -49001.4721       3883.000          41.000  
G 9  23157810.563     -168081.2711       3633.000          22.000  
