     2.11           OBSERVATION DATA    Mixed(MIXED)        RINEX VERSION / TYPE
cnvtToRINEX 3.08.0  convertToRINEX OPR  10-Mar-23 03:37 UTC PGM / RUN BY / DATE 
----------------------------------------------------------- COMMENT             
CK01                                                        MARKER NAME         
CK01                                                        MARKER NUMBER       
GNSS Observer       Trimble                                 OBSERVER / AGENCY   
5411458396          TRIMBLE R4-3        5.09                REC # / TYPE / VERS 
                    TRMR4-3         NONE                    ANT # / TYPE        
 -2956583.2298  5075884.7099  2476675.8756                  APPROX POSITION XYZ 
        1.7000        0.0000        0.0000                  ANTENNA: DELTA H/E/N
     1     1     0                                          WAVELENGTH FACT L1/2
     5    C1    C2    L1    L2    P2                        # / TYPES OF OBSERV 
  2023     3    10     2    52   35.0000000     GPS         TIME OF FIRST OBS   
  2023     3    10     3    28   23.0000000     GPS         TIME OF LAST OBS    
     0                                                      RCV CLOCK OFFS APPL 
    18                                                      LEAP SECONDS        
     9                                                      # OF SATELLITES     
   G04  2149  2149  2149  4298  2149                        PRN / # OF OBS      
   G08  2149  2149  2149  4298  2149                        PRN / # OF OBS      
   G09  2149  2149  2149  4298  2149                        PRN / # OF OBS      
   G16  2149     0  2149  2149  2149                        PRN / # OF OBS      
   G21    71     0    71    71    71                        PRN / # OF OBS      
   G26  2149  2149  2149  4298  2149                        PRN / # OF OBS      
   G27  2149  2149  2149  4298  2149                        PRN / # OF OBS      
   G28  1149  1149  1149  2298  1149                        PRN / # OF OBS      
   G31  2149  2149  2149  4298  2149                        PRN / # OF OBS      
CARRIER PHASE MEASUREMENTS: PHASE SHIFTS REMOVED            COMMENT             
                                                            END OF HEADER       
 23  3 10  2 52 35.0000000  0  8G04G08G09G16G26G27G28G31            
  21323385.695 5  21323395.563 9 112055148.072 5  87315736.107 9  21323394.78547
  21149570.508 6  21149584.480 9 111141741.662 6  86604008.747 9  21149583.35949
  23624345.141 5  23624359.625 9 124146784.868 5  96737772.821 9  23624358.87148
  21125797.453 6                 111016813.146 6  86506634.46647  21125804.38747
  22477382.836 5  22477396.992 9 118119438.588 5  92041176.885 9  22477396.78147
  19870505.227 7  19870514.910 9 104420201.628 7  81366414.148 9  19870514.43849
  23616865.063 5  23616886.613 8 124107462.153 5  96707132.754 8  23616885.09446
  23067772.570 5  23067792.457 8 121221956.852 5  94458747.497 8  23067791.41447
 23  3 10  2 52 36.0000000  0  8G04G08G09G16G26G27G28G31            
  21322966.563 5  21322975.711 9 112052944.135 5  87314018.739 9  21322975.12947
  21148861.289 6  21148875.488 9 111138015.652 6  86601105.364 9  21148874.28549
  23623628.781 4  23623643.359 9 124143019.459 4  96734838.732 9  23623642.43048
  21125741.641 6                 111016523.458 6  86506408.72047  21125749.27747
  22477475.781 5  22477490.078 9 118119926.332 5  92041556.938 9  22477489.74247
  19870186.156 7  19870196.246 9 104418525.479 7  81365108.054 9  19870195.64149
  23617061.922 5  23617083.453 8 124108498.461 5  96707940.238 8  23617082.08646
  23067892.828 5  23067913.590 9 121222588.768 5  94459239.872 9  23067912.27747
 23  3 10  2 52 37.0000000  0  8G04G08G09G16G26G27G28G31            
  21322547.219 6  21322556.715 9 112050741.351 6  87312302.278 9  21322556.25047
  21148152.469 6  21148166.348 9 111134290.657 6  86598202.765 9  21148165.21549
  23622912.430 5  23622927.266 9 124139255.003 5  96731905.390 9  23622926.21148
  21125687.102 6                 111016234.478 6  86506183.52348  21125694.09848
  22477568.219 5  22477582.816 9 118120414.579 5  92041937.379 9  22477582.46547
  19869867.922 7  19869877.348 9 104416850.544 7  81363802.900 9  19869876.75049
  23617259.984 5  23617281.383 8 124109535.535 5  96708748.350 8  23617279.85546
  23068012.945 5  23068033.473 9 121223221.460 5  94459732.862 9  23068032.41047
 23  3 10  2 52 38.0000000  0  8G04G08G09G16G26G27G28G31            
  21322127.789 5  21322137.977 9 112048539.411 5  87310586.475 9  21322136.92647
  21147443.930 6  21147458.281 9 111130566.385 6  86595300.731 9  21147457.24249
  23622196.180 4  23622210.238 9 124135491.202 4  96728972.545 9  23622209.30148
  21125632.109 6                 111015945.810 6  86505958.57348  21125639.05548
  22477661.500 5  22477676.387 9 118120903.022 5  92042317.980 9  22477676.02047
  19869549.313 7  19869558.473 9 104415176.460 7  81362498.416 9  19869557.75449
  23617457.633 5  23617478.695 8 124110573.146 5  96709556.893 8  23617477.20746
  23068133.586 5  23068154.727 9 121223854.617 5  94460226.217 9  23068153.17247
 23  3 10  2 52 39.0000000  0  8G04G08G09G16G26G27G28G31            
  21321709.500 5  21321718.996 9 112046338.258 5  87308871.279 9  21321718.16447
  21146735.367 6  21146749.434 9 111126842.774 6  86592399.227 9  21146748.21949
  23621480.023 5  23621495.012 9 124131727.979 5  96726040.159 9  23621493.53548
  21125577.359 6                 111015657.470 6  86505733.89948  21125584.02748
  22477754.258 5  22477769.281 9 118121391.575 5  92042698.659 9  22477768.67647
  19869230.977 7  19869240.410 9 104413503.217 7  81361194.595 9  19869239.71949
  23617654.516 5  23617676.621 8 124111611.178 5  96710365.764 8  23617674.76246
  23068254.445 5  23068275.254 9 121224488.197 5  94460719.907 9  23068273.59447
 23  3 10  2 52 40.0000000  0  8G04G08G09G16G26G27G28G31            
  21321290.688 5  21321299.859 9 112044138.202 5  87307156.942 9  21321299.28547
  21146026.789 6  21146041.066 9 111123120.171 6  86589498.504 9  21146039.91049
  23620763.906 4  23620778.543 9 124127965.699 4  96723108.529 9  23620777.52748
  21125522.898 6                 111015369.771 6  86505509.71648  21125529.48048
  22477847.648 5  22477862.094 9 118121880.645 5  92043079.739 9  22477861.50447
  19868912.578 7  19868922.199 9 104411831.188 7  81359891.720 9  19868921.82849
  23617851.984 5  23617874.344 8 124112650.011 5  96711175.261 8  23617872.39546
  23068375.414 5  23068396.117 9 121225122.604 5  94461214.244 9  23068394.85247
 23  3 10  2 52 41.0000000  0  8G04G08G09G16G26G27G28G31            
  21320872.047 6  21320881.398 9 112041939.131 6  87305443.373 9  21320880.94547
  21145318.688 6  21145332.668 9 111119398.387 6  86586598.408 9  21145331.86749
  23620048.508 4  23620062.688 8 124124204.197 4  96720177.492 8  23620061.71148
  21125467.875 6                 111015082.570 6  86505285.92248  21125474.94548
  22477940.234 5  22477955.402 9 118122370.015 5  92043461.062 9  22477954.79747
  19868594.641 7  19868604.227 9 104410160.150 7  81358589.612 9  19868603.52049
  23618049.852 5  23618072.125 8 124113689.454 5  96711985.219 8  23618070.51646
  23068496.172 5  23068516.859 9 121225757.572 5  94461709.025 9  23068515.59047
 23  3 10  2 52 42.0000000  0  8G04G08G09G16G26G27G28G31            
  21320454.031 6  21320463.699 9 112039741.102 6  87303730.615 9  21320463.05147
  21144610.180 6  21144623.875 9 111115677.504 6  86583699.020 9  21144623.03549
  23619332.633 4  23619347.273 8 124120443.563 4  96717247.133 8  23619345.92248
  21125413.359 6                 111014795.928 6  86505062.55848  21125419.96148
  22478033.875 5  22478048.855 9 118122859.790 5  92043842.701 9  22478048.14847
  19868276.953 7  19868286.543 9 104408490.209 7  81357288.362 9  19868285.85249
  23618247.344 5  23618269.938 8 124114729.603 5  96712795.722 8  23618268.30546
  23068617.352 6  23068637.320 9 121226393.259 6  94462204.351 9  23068636.27347
 23  3 10  2 52 43.0000000  0  8G04G08G09G16G26G27G28G31            
  21320035.523 6  21320044.867 9 112037543.981 6  87302018.574 9  21320044.32047
  21143902.586 6  21143916.234 9 111111957.434 6  86580800.264 9  21143915.37549
  23618617.117 4  23618631.414 8 124116683.631 4  96714317.317 8  23618630.51248
  21125358.578 6                 111014509.698 6  86504839.51748  21125365.58248
  22478126.914 6  22478142.148 9 118123349.833 6  92044224.548 9  22478141.59447
  19867959.453 7  19867969.395 9 104406821.234 7  81355987.863 9  19867968.34049
  23618445.703 5  23618468.332 8 124115770.294 5  96713606.656 8  23618466.53946
  23068737.781 6  23068758.461 9 121227029.437 6  94462700.063 9  23068757.50447
 23  3 10  2 52 44.0000000  0  8G04G08G09G16G26G27G28G31            
  21319618.266 6  21319626.902 9 112035347.732 6  87300307.203 9  21319626.60547
  21143195.016 6  21143209.254 9 111108238.056 6  86577902.046 9  21143208.04749
  23617901.922 5  23617915.883 8 124112924.420 5  96711388.061 8  23617915.02348
  21125304.594 6                 111014223.897 6  86504616.80948  21125311.39148
  22478220.422 6  22478234.492 9 118123840.069 6  92044606.535 9  22478234.15647
  19867642.094 7  19867651.781 9 104405153.179 7  81354688.074 9  19867651.21149
  23618643.953 5  23618666.207 8 124116811.563 5  96714418.053 8  23618664.23446
  23068859.102 5  23068879.508 8 121227666.200 5  94463196.234 8  23068878.33247
 23  3 10  2 52 45.0000000  0  8G04G08G09G16G26G27G28G31            
  21319200.094 5  21319208.949 9 112033152.466 5  87298596.604 9  21319209.01647
  21142487.266 6  21142501.305 9 111104519.587 6  86575004.543 9  21142500.12549
  23617186.234 4  23617200.742 8 124109165.999 4  96708459.418 8  23617200.06648
  21125250.375 6                 111013938.590 6  86504394.48048  21125257.04348
  22478313.781 5  22478328.328 9 118124330.706 5  92044988.828 9  22478327.91447
  19867324.344 7  19867334.250 9 104403486.171 7  81353389.104 9  19867333.73049
  23618842.156 5  23618863.484 8 124117853.414 5  96715229.890 8  23618862.01646
  23068980.117 5  23069000.516 8 121228303.567 5  94463692.871 8  23068999.26647
 23  3 10  2 52 46.0000000  0  8G04G08G09G16G26G27G28G31            
  21318782.570 5  21318791.734 9 112030958.407 5  87296886.946 9  21318791.60947
  21141780.086 6  21141794.355 9 111100802.184 6  86572107.866 9  21141793.07449
  23616471.852 4  23616485.750 8 124105408.599 4  96705531.559 8  23616485.03948
  21125196.633 6                 111013653.982 6  86504172.70548  21125202.86748
  22478407.109 5  22478421.668 9 118124821.859 5  92045371.536 9  22478421.03547
  19867007.766 7  19867017.203 9 104401820.401 7  81352091.102 9  19867016.52349
  23619040.625 5  23619062.547 8 124118896.158 5  96716042.426 8  23619060.95346
  23069102.023 5  23069122.414 8 121228941.771 5  94464190.165 8  23069121.32447
 23  3 10  2 52 47.0000000  0  8G04G08G09G16G26G27G28G31            
  21318365.461 5  21318374.289 9 112028765.318 5  87295178.041 9  21318374.34848
  21141072.703 6  21141086.734 9 111097085.645 6  86569211.867 9  21141085.40649
  23615756.766 4  23615771.273 9 124101651.974 4  96702604.306 9  23615770.41448
  21125142.859 6                 111013369.904 6  86503951.34648  21125148.60948
  22478500.273 6  22478515.566 9 118125313.354 6  92045754.507 9  22478514.98047
  19866690.969 7  19866700.844 9 104400155.695 7  81350793.917 9  19866700.28549
  23619239.148 5  23619261.262 8 124119939.517 5  96716855.432 8  23619259.60546
  23069223.234 5  23069243.953 8 121229580.589 5  94464687.922 8  23069242.83647
 23  3 10  2 52 48.0000000  0  8G04G08G09G16G26G27G28G31            
  21317948.133 5  21317957.109 9 112026573.152 5  87293469.851 9  21317957.27747
  21140365.453 6  21140379.949 9 111093369.865 6  86566316.457 9  21140378.62149
  23615041.773 4  23615056.293 9 124097896.104 4  96699677.639 9  23615055.38348
  21125088.500 6                 111013086.273 6  86503730.33048  21125094.82448
  22478594.273 6  22478609.109 9 118125805.122 6  92046137.696 9  22478608.67647
  19866374.367 7  19866383.926 9 104398491.946 7  81349497.488 9  19866383.18449
  23619437.531 5  23619459.953 8 124120983.506 5  96717668.922 8  23619457.98446
  23069344.859 5  23069365.570 8 121230219.987 5  94465186.146 8  23069364.18847
 23  3 10  2 52 49.0000000  0  8G04G08G09G16G26G27G28G31            
  21317531.555 5  21317540.164 9 112024381.911 5  87291762.384 9  21317540.07447
  21139658.148 6  21139672.359 9 111089654.898 6  86563421.673 9  21139670.97749
  23614327.180 4  23614341.516 8 124094140.984 4  96696751.567 8  23614340.44148
  21125034.508 6                 111012803.060 6  86503509.64248  21125040.97348
  22478688.125 6  22478702.406 9 118126297.169 6  92046521.102 9  22478702.23847
  19866057.883 7  19866067.727 9 104396829.171 7  81348201.817 9  19866067.17249
  23619636.289 5  23619658.723 8 124122028.042 5  96718482.855 8  23619656.87146
  23069466.836 5  23069487.691 8 121230859.953 5  94465684.815 8  23069486.22747
 23  3 10  2 52 50.0000000  0  8G04G08G09G16G26G27G28G31            
  21317113.773 5  21317123.473 9 112022191.570 5  87290055.624 9  21317123.48447
  21138951.891 6  21138965.387 9 111085940.692 6  86560527.485 9  21138964.17649
  23613613.273 5  23613627.379 8 124090386.526 5  96693826.021 8  23613626.52748
  21124980.578 6                 111012520.293 6  86503289.29748  21124986.96148
  22478781.031 6  22478796.773 9 118126789.486 6  92046904.716 9  22478796.28547
  19865741.820 7  19865751.453 9 104395167.327 7  81346906.870 9  19865750.81649
  23619835.289 5  23619857.520 8 124123073.151 5  96719297.229 8  23619855.75446
  23069588.656 5  23069609.234 8 121231500.446 5  94466183.896 8  23069607.72347
 23  3 10  2 52 51.0000000  0  8G04G08G09G16G26G27G28G31            
  21316697.648 5  21316706.773 9 112020002.199 5  87288349.618 9  21316706.69947
  21138245.164 6  21138259.031 9 111082227.365 6  86557633.990 9  21138257.85949
  23612898.875 4  23612913.621 9 124086632.911 4  96690901.138 9  23612912.74648
  21124926.461 6                 111012237.996 6  86503069.30948  21124933.20748
  22478875.594 6  22478889.965 9 118127282.115 6  92047288.576 9  22478889.65647
  19865425.586 7  19865434.926 9 104393506.549 7  81345612.764 9  19865434.34449
  23620034.570 5  23620056.777 8 124124118.888 5  96720112.082 8  23620054.62146
  23069710.953 5  23069730.805 8 121232141.571 5  94466683.461 8  23069729.68847
 23  3 10  2 52 52.0000000  0  8G04G08G09G16G26G27G28G31            
  21316281.125 5  21316290.148 9 112017813.862 5  87286644.429 9  21316290.10947
  21137538.617 6  21137552.809 9 111078514.945 6  86554741.195 9  21137551.43049
  23612184.250 5  23612198.574 8 124082880.127 5  96687976.891 8  23612197.97348
  21124873.281 6                 111011956.277 6  86502849.78148  21124879.80548
  22478969.531 6  22478983.590 9 118127775.142 6  92047672.742 9  22478983.55147
  19865109.703 7  19865119.203 9 104391846.845 7  81344319.486 9  19865118.68849
  23620232.883 5  23620255.680 8 124125165.282 5  96720927.465 8  23620253.94146
  23069833.078 5  23069853.371 9 121232783.379 5  94467183.555 9  23069852.11747
 23  3 10  2 52 53.0000000  0  8G04G08G09G16G26G27G28G31            
  21315865.305 6  21315873.973 9 112015626.570 6  87284940.047 9  21315874.02048
  21136832.578 6  21136846.766 9 111074803.406 6  86551849.086 9  21136845.53549
  23611471.125 5  23611484.719 8 124079128.203 5  96685053.319 8  23611484.10248
  21124819.555 6                 111011675.099 6  86502630.68248  21124826.69948
  22479063.328 5  22479077.957 9 118128268.554 5  92048057.210 9  22479077.37947
  19864794.180 7  19864804.027 9 104390188.226 7  81343027.049 9  19864803.34849
  23620432.227 5  23620455.047 8 124126212.400 5  96721743.418 8  23620453.43446
  23069955.797 5  23069976.000 9 121233425.868 5  94467684.177 9  23069974.46147
 23  3 10  2 52 54.0000000  0  8G04G08G09G16G26G27G28G31            
  21315448.594 6  21315458.000 9 112013440.045 6  87283236.253 9  21315458.11347
  21136126.078 6  21136140.695 9 111071092.553 6  86548957.514 9  21136139.07449
  23610756.836 5  23610770.707 8 124075376.842 5  96682130.194 8  23610770.30948
  21124766.555 6                 111011394.225 6  86502411.82648  21124773.08248
  22479156.711 6  22479171.816 9 118128762.108 6  92048441.785 9  22479171.09047
  19864478.367 7  19864488.441 9 104388530.443 7  81341735.275 9  19864487.73849
  23620632.000 5  23620654.348 8 124127259.965 5  96722559.713 8  23620652.64846
  23070077.711 5  23070098.578 8 121234068.756 5  94468185.112 8  23070097.02347
 23  3 10  2 52 55.0000000  0  8G04G08G09G16G26G27G28G31            
  21315033.125 5  21315042.082 9 112011254.375 5  87281533.136 9  21315042.02747
  21135419.875 6  21135434.387 9 111067382.398 6  86546066.478 9  21135432.98849
  23610043.172 5  23610056.633 8 124071626.184 5  96679207.617 8  23610056.31648
  21124713.297 6                 111011113.707 6  86502193.23148  21124719.93448
  22479250.773 6  22479265.406 9 118129255.874 6  92048826.526 9  22479264.92647
  19864162.992 7  19864173.086 9 104386873.539 7  81340444.173 9  19864172.47349
  23620831.047 5  23620853.949 8 124128308.015 5  96723376.374 8  23620852.23046
  23070199.867 5  23070220.855 8 121234712.179 5  94468686.473 8  23070219.01647
 23  3 10  2 52 56.0000000  0  8G04G08G09G16G26G27G28G31            
  21314617.438 5  21314626.219 9 112009069.615 5  87279830.728 9  21314626.35247
  21134714.391 6  21134728.195 9 111063673.027 6  86543176.060 9  21134726.99249
  23609328.797 5  23609343.598 8 124067876.220 5  96676285.576 8  23609342.86748
  21124659.469 6                 111010833.616 6  86501974.98048  21124666.70348
  22479344.844 6  22479359.703 9 118129749.873 6  92049211.452 9  22479359.27047
  19863848.148 7  19863857.727 9 104385217.617 7  81339153.844 9  19863857.30149
  23621031.031 5  23621053.637 8 124129356.614 5  96724193.470 8  23621052.23446
  23070323.203 5  23070343.445 8 121235356.114 5  94469188.231 8  23070342.12547
 23  3 10  2 52 57.0000000  0  8G04G08G09G16G26G27G28G31            
  21314201.313 6  21314210.930 9 112006885.661 6  87278128.945 9  21314210.58647
  21134008.602 6  21134023.238 9 111059964.355 6  86540286.186 9  21134021.82849
  23608615.773 5  23608629.871 8 124064126.899 5  96673364.020 8  23608629.49248
  21124605.945 6                 111010553.882 6  86501757.00447  21124613.04747
  22479438.414 6  22479453.629 9 118130244.036 6  92049596.504 9  22479453.16447
  19863533.063 7  19863542.691 9 104383562.555 7  81337864.187 9  19863542.17649
  23621230.047 5  23621253.008 8 124130405.692 5  96725010.942 8  23621251.59046
  23070445.633 5  23070465.586 8 121236000.492 5  94469690.345 8  23070464.35547
 23  3 10  2 52 58.0000000  0  8G04G08G09G16G26G27G28G31            
  21313786.078 5  21313796.098 9 112004702.845 5  87276428.056 9  21313795.62547
  21133302.695 6  21133316.887 9 111056256.691 6  86537397.094 9  21133315.78549
  23607902.031 5  23607916.309 8 124060378.533 5  96670443.216 8  23607915.99648
  21124553.172 6                 111010274.825 6  86501539.54948  21124559.69148
  22479533.047 6  22479547.586 9 118130738.746 6  92049981.986 9  22479547.28147
  19863218.289 7  19863228.203 9 104381908.698 7  81336575.468 9  19863227.44949
  23621430.063 5  23621452.887 8 124131455.597 5  96725829.067 8  23621451.51246
  23070567.859 6  23070588.477 8 121236645.713 6  94470193.109 8  23070587.14547
 23  3 10  2 52 59.0000000  0  8G04G08G09G16G26G27G28G31            
  21313370.922 6  21313380.680 9 112002520.984 6  87274727.904 9  21313380.22748
  21132597.531 6  21132612.070 9 111052549.809 6  86534508.613 9  21132610.95749
  23607189.516 5  23607203.277 8 124056630.900 5  96667523.000 8  23607203.08648
  21124500.359 6                 111009996.208 6  86501322.43748  21124507.14148
  22479627.188 6  22479642.086 9 118131233.736 6  92050367.684 9  22479641.59847
  19862904.195 7  19862913.309 9 104380255.832 7  81335287.516 9  19862912.59849
  23621629.805 5  23621652.688 8 124132506.115 5  96726647.665 8  23621651.30546
  23070691.148 6  23070711.527 8 121237291.469 6  94470696.289 8  23070710.39847
 23  3 10  2 53  0.0000000  0  8G04G08G09G16G26G27G28G31            
  21312955.953 6  21312965.977 9 112000340.119 6  87273028.528 9  21312965.30948
  21131892.398 6  21131906.945 9 111048843.850 6  86531620.862 9  21131905.99649
  23606476.414 5  23606490.656 8 124052884.125 5  96664603.451 8  23606490.25848
  21124447.008 6                 111009718.105 6  86501105.72848  21124454.06648
  22479721.148 6  22479736.723 9 118131729.057 6  92050753.641 9  22479736.24247
  19862589.695 7  19862599.160 9 104378604.003 7  81334000.377 9  19862598.66449
  23621830.172 5  23621852.145 8 124133557.212 5  96727466.702 8  23621851.17646
  23070814.023 5  23070834.051 9 121237937.872 5  94471199.981 9  23070832.89547
 23  3 10  2 53  1.0000000  0  8G04G08G09G16G26G27G28G31            
  21312541.305 6  21312550.980 9 111998160.092 6  87271329.802 9  21312549.82448
  21131187.094 6  21131201.465 9 111045138.606 6  86528733.664 9  21131200.34849
  23605763.352 5  23605778.023 8 124049138.005 5  96661684.413 8  23605777.29348
  21124394.422 6                 111009440.346 6  86500889.28648  21124400.79348
  22479815.391 5  22479831.027 9 118132224.605 5  92051139.768 9  22479830.44947
  19862276.094 7  19862285.180 9 104376953.080 7  81332713.943 9  19862284.51249
  23622030.203 5  23622052.254 8 124134608.871 5  96728286.193 8  23622050.98446
  23070936.961 5  23070957.699 8 121238584.792 5  94471704.065 8  23070956.22347
 23  3 10  2 53  2.0000000  0  8G04G08G09G16G26G27G28G31            
  21312126.297 6  21312136.316 9 111995980.608 6  87269631.506 9  21312135.36748
  21130482.813 6  21130496.906 9 111041433.817 6  86525846.808 9  21130495.72749
  23605050.617 4  23605065.270 8 124045392.224 4  96658765.617 8  23605064.53548
  21124341.641 6                 111009162.696 6  86500672.94048  21124348.48048
  22479909.852 5  22479924.918 9 118132720.045 5  92051525.811 9  22479924.68447
  19861961.891 7  19861971.313 9 104375302.777 7  81331427.997 9  19861970.81349
  23622230.563 5  23622252.895 8 124135660.716 5  96729105.823 8  23622251.34446
  23071060.523 5  23071080.926 9 121239231.923 5  94472208.318 9  23071079.37547
 23  3 10  2 53  3.0000000  0  8G04G08G09G16G26G27G28G31            
  21311711.898 6  21311721.820 9 111993802.262 6  87267934.088 9  21311720.91848
  21129777.656 6  21129791.613 9 111037729.987 6  86522960.702 9  21129790.34049
  23604337.938 5  23604352.461 9 124041647.400 5  96655847.559 9  23604351.53148
  21124288.859 6                 111008885.659 6  86500457.05948  21124295.64548
  22480004.102 5  22480019.363 9 118133215.929 5  92051912.201 9  22480019.10247
  19861647.930 7  19861656.996 9 104373653.630 7  81330142.944 9  19861656.48049
  23622430.953 5  23622453.598 8 124136713.352 5  96729926.067 8  23622451.80946
  23071183.695 5  23071203.684 8 121239879.761 5  94472713.113 8  23071202.31647
 23  3 10  2 53  4.0000000  0  8G04G08G09G16G26G27G28G31            
  21311297.734 6  21311307.445 9 111991624.862 6  87266237.401 9  21311306.66848
  21129073.023 6  21129087.281 9 111034027.002 6  86520075.263 9  21129086.02749
  23603625.922 4  23603640.480 9 124037903.337 4  96652930.100 9  23603639.61748
  21124236.695 6                 111008609.105 6  86500241.56348  21124243.07848
  22480099.211 5  22480113.793 9 118133712.191 5  92052298.890 9  22480113.30547
  19861334.477 7  19861343.203 9 104372005.496 7  81328858.688 9  19861342.68449
  23622631.617 5  23622653.805 8 124137766.571 5  96730746.762 8  23622652.10246
  23071307.008 5  23071327.246 8 121240528.230 5  94473218.398 8  23071326.02747
 23  3 10  2 53  5.0000000  0  8G04G08G09G16G26G27G28G31            
  21310883.945 6  21310892.684 9 111989448.300 6  87264541.372 9  21310892.21947
  21128368.539 6  21128382.570 9 111030324.737 6  86517190.387 9  21128381.57849
  23602912.391 4  23602928.102 9 124034159.937 4  96650013.163 9  23602927.18848
  21124183.539 6                 111008332.927 6  86500026.35948  21124190.25848
  22480193.281 5  22480207.922 9 118134208.611 5  92052685.700 9  22480207.51647
  19861020.898 7  19861030.234 9 104370358.247 7  81327575.118 9  19861029.54749
  23622831.383 5  23622853.625 8 124138820.290 5  96731567.837 8  23622852.15646
  23071430.523 5  23071451.297 8 121241177.198 5  94473724.080 8  23071449.76247
 23  3 10  2 53  6.0000000  0  8G04G08G09G16G26G27G28G31            
  21310469.992 6  21310479.289 9 111987272.547 6  87262845.981 9  21310478.56347
  21127664.172 6  21127678.582 9 111026623.102 6  86514305.997 9  21127677.53149
  23602200.109 4  23602215.844 9 124030417.121 4  96647096.695 9  23602214.85248
  21124131.500 6                 111008057.029 6  86499811.37148  21124137.60948
  22480287.844 5  22480302.734 9 118134705.159 5  92053072.618 9  22480302.09047
  19860707.586 7  19860716.336 9 104368711.842 7  81326292.196 9  19860715.70749
  23623033.008 5  23623054.426 8 124139874.505 5  96732389.307 8  23623053.26246
  23071553.773 5  23071574.488 8 121241826.597 5  94474230.085 8  23071573.21947
 23  3 10  2 53  7.0000000  0  8G04G08G09G16G26G27G28G31            
  21310055.914 6  21310065.133 9 111985097.727 6  87261151.308 9  21310064.55547
  21126960.156 6  21126974.031 9 111022922.328 6  86511422.292 9  21126972.88349
  23601488.289 4  23601503.480 9 124026675.105 4  96644180.850 9  23601502.43048
  21124078.898 6                 111007781.646 6  86499596.77748  21124085.40648
  22480382.719 5  22480397.465 9 118135202.042 5  92053459.793 9  22480396.82047
  19860394.727 7  19860403.695 9 104367066.457 7  81325010.077 9  19860403.14549
  23623233.102 5  23623255.398 8 124140929.297 5  96733211.231 8  23623254.51646
  23071677.719 5  23071697.973 8 121242476.585 5  94474736.561 8  23071696.60247
 23  3 10  2 53  8.0000000  0  8G04G08G09G16G26G27G28G31            
  21309642.258 6  21309650.906 9 111982923.964 6  87259457.459 9  21309650.41047
  21126255.711 6  21126269.941 9 111019222.491 6  86508539.309 9  21126269.22749
  23600776.398 4  23600791.742 8 124022933.955 4  96641265.675 8  23600790.64548
  21124026.266 6                 111007506.799 6  86499382.60847  21124033.30947
  22480477.148 5  22480491.684 9 118135699.309 5  92053847.262 9  22480491.05947
  19860081.891 7  19860090.855 9 104365422.173 7  81323728.810 9  19860090.30949
  23623434.008 5  23623456.016 8 124141984.812 5  96734033.711 8  23623454.90246
  23071801.742 5  23071822.047 8 121243127.239 5  94475243.556 8  23071820.41047
 23  3 10  2 53  9.0000000  0  8G04G08G09G16G26G27G28G31            
  21309228.430 6  21309238.285 9 111980751.215 6  87257764.395 9  21309237.81647
  21125552.289 6  21125565.770 9 111015523.538 6  86505657.006 9  21125564.88349
  23600065.648 4  23600079.887 8 124019193.595 4  96638351.110 8  23600079.19548
  21123974.305 6                 111007232.504 6  86499168.86448  21123980.82448
  22480572.258 5  22480586.719 8 118136196.964 5  92054235.036 8  22480586.18447
  19859768.734 7  19859778.012 9 104363778.926 7  81322448.354 9  19859777.42249
  23623635.008 5  23623656.898 8 124143040.978 5  96734856.704 8  23623655.96946
  23071925.813 5  23071945.961 8 121243778.573 5  94475751.074 8  23071944.51247
 23  3 10  2 53 10.0000000  0  8G04G08G09G16G26G27G28G31            
  21308815.477 6  21308824.617 9 111978579.345 6  87256072.021 9  21308824.03947
  21124848.102 6  21124862.168 9 111011825.327 6  86502775.290 9  21124861.32049
  23599353.313 5  23599368.297 8 124015454.009 5  96635437.149 8  23599367.65648
  21123922.453 6                 111006958.617 6  86498955.43948  21123928.96548
  22480666.805 5  22480681.652 9 118136694.840 5  92054622.986 9  22480681.10947
  19859456.234 7  19859465.602 9 104362136.654 7  81321168.663 9  19859464.97349
  23623836.375 5  23623857.957 8 124144097.685 5  96735680.126 8  23623857.02046
  23072049.445 5  23072070.074 8 121244430.445 5  94476259.021 8  23072068.90647
 23  3 10  2 53 11.0000000  0  8G04G08G09G16G26G27G28G31            
  21308402.273 6  21308411.363 9 111976408.243 6  87254380.253 9  21308411.00847
  21124144.234 6  21124158.555 9 111008127.765 6  86499894.073 9  21124157.66849
  23598641.852 5  23598657.172 9 124011714.937 5  96632523.584 9  23598656.34448
  21123870.031 6                 111006685.007 6  86498742.23248  21123876.94548
  22480761.445 5  22480776.297 9 118137192.850 5  92055011.041 9  22480775.53147
  19859144.047 7  19859153.469 9 104360495.181 7  81319889.594 9  19859152.53149
  23624037.977 5  23624059.375 8 124145154.838 5  96736503.887 8  23624058.15246
  23072173.680 5  23072193.656 8 121245082.691 5  94476767.258 8  23072192.39847
 23  3 10  2 53 12.0000000  0  8G04G08G09G16G26G27G28G31            
  21307989.094 6  21307998.309 9 111974238.122 6  87252689.243 9  21307998.08647
  21123441.141 6  21123455.324 9 111004431.067 6  86497013.528 9  21123454.37149
  23597930.898 5  23597945.461 9 124007976.692 5  96629610.662 9  23597944.54748
  21123818.586 6                 111006411.874 6  86498529.39748  21123824.95348
  22480856.023 5  22480871.207 9 118137691.198 5  92055399.354 9  22480870.81647
  19858831.820 7  19858841.133 9 104358854.758 7  81318611.343 9  19858840.36749
  23624239.063 5  23624260.586 8 124146212.610 5  96737328.136 8  23624259.52347
  23072297.828 5  23072318.348 8 121245735.578 5  94477275.994 8  23072316.64547
 23  3 10  2 53 13.0000000  0  8G04G08G09G16G26G27G28G31            
  21307576.570 6  21307585.320 9 111972068.904 6  87250998.942 9  21307585.23447
  21122737.734 6  21122752.301 9 111000735.173 6  86494133.614 9  21122751.19549
  23597219.195 4  23597234.313 9 124004239.163 4  96626698.293 9  23597233.35548
  21123766.508 6                 111006139.217 6  86498316.93548  21123772.97748
  22480951.039 5  22480965.824 9 118138189.816 5  92055787.876 9  22480965.23447
  19858519.930 7  19858529.164 9 104357215.297 7  81317333.831 9  19858528.43049
  23624439.805 5  23624462.141 8 124147270.945 5  96738152.813 8  23624461.19146
  23072422.344 5  23072442.410 8 121246389.033 5  94477785.177 8  23072440.89147
 23  3 10  2 53 14.0000000  0  8G04G08G09G16G26G27G28G31            
  21307163.813 6  21307172.406 9 111969900.668 6  87249309.414 9  21307172.34448
  21122034.250 6  21122048.609 9 110997040.077 6  86491254.320 9  21122047.66849
  23596507.852 5  23596523.086 9 124000502.449 5  96623786.563 9  23596522.13348
  21123714.336 6                 111005866.993 6  86498104.80848  21123721.16848
  22481046.750 5  22481060.848 9 118138688.723 5  92056176.623 9  22481060.47747
  19858207.758 7  19858217.742 9 104355576.809 7  81316057.084 9  19858216.75449
  23624642.461 5  23624662.895 8 124148329.897 5  96738977.979 8  23624662.13346
  23072547.180 5  23072567.270 8 121247043.083 5  94478294.816 8  23072565.68447
 23  3 10  2 53 15.0000000  0  8G04G08G09G16G26G27G28G31            
  21306751.539 6  21306760.141 9 111967733.246 6  87247620.506 9  21306759.93048
  21121331.016 6  21121345.891 9 110993345.712 6  86488375.601 9  21121344.75049
  23595797.203 5  23595812.461 9 123996766.365 5  96620875.326 9  23595811.49648
  21123662.828 6                 111005595.155 6  86497892.98448  21123669.87148
  22481141.531 6  22481155.973 9 118139187.852 6  92056565.540 9  22481155.67647
  19857896.555 7  19857905.949 9 104353939.256 7  81314781.069 9  19857905.25049
  23624843.109 5  23624864.996 8 124149389.380 5  96739803.550 8  23624864.23046
  23072671.023 5  23072691.703 8 121247697.601 5  94478804.818 8  23072690.28947
 23  3 10  2 53 16.0000000  0  8G04G08G09G16G26G27G28G31            
  21306338.648 6  21306348.289 9 111965566.875 6  87245932.433 9  21306348.03147
  21120628.484 6  21120643.184 9 110989652.263 6  86485497.588 9  21120642.24649
  23595086.672 5  23595101.590 9 123993031.146 5  96617964.759 9  23595100.69948
  21123611.352 6                 111005323.878 6  86497681.59648  21123618.24648
  22481236.352 5  22481250.629 9 118139687.376 5  92056954.771 9  22481250.19147
  19857584.766 7  19857594.285 9 104352302.773 7  81313505.887 9  19857593.43449
  23625045.078 5  23625066.707 9 124150449.521 5  96740629.624 9  23625065.87947
  23072795.711 5  23072816.445 8 121248352.850 5  94479315.393 8  23072814.56347
 23  3 10  2 53 17.0000000  0  8G04G08G09G16G26G27G28G31            
  21305927.281 6  21305935.727 9 111963401.487 6  87244245.120 9  21305935.63348
  21119926.023 6  21119940.512 9 110985959.662 6  86482620.246 9  21119939.72749
  23594376.211 5  23594390.652 9 123989296.697 5  96615054.803 9  23594389.63748
  21123559.539 6                 111005053.084 6  86497470.58548  21123566.55548
  22481331.234 5  22481346.016 9 118140187.226 5  92057344.257 9  22481345.45347
  19857273.773 7  19857283.121 9 104350667.320 7  81312231.504 9  19857282.32449
  23625246.828 5  23625268.707 8 124151510.341 5  96741456.224 8  23625267.64147
  23072920.992 5  23072941.203 9 121249008.670 5  94479826.419 9  23072939.37947
 23  3 10  2 53 18.0000000  0  8G04G08G09G16G26G27G28G31            
  21305515.406 6  21305524.273 9 111961237.075 6  87242558.566 9  21305523.74247
  21119223.188 6  21119237.324 9 110982267.940 6  86479743.589 9  21119236.75849
  23593665.664 5  23593680.383 9 123985563.053 5  96612145.477 9  23593679.41848
  21123508.508 6                 111004782.805 6  86497259.98448  21123515.18448
  22481426.141 5  22481440.926 9 118140687.385 5  92057733.978 9  22481440.20747
  19856962.430 7  19856972.027 9 104349032.903 7  81310957.934 9  19856971.16849
  23625448.672 5  23625470.609 8 124152571.775 5  96742283.322 8  23625469.62146
  23073045.953 5  23073066.063 8 121249665.136 5  94480337.937 8  23073064.49247
 23  3 10  2 53 19.0000000  0  8G04G08G09G16G26G27G28G31            
  21305103.430 6  21305112.469 9 111959073.489 6  87240872.653 9  21305112.15647
  21118521.234 6  21118535.457 9 110978576.921 6  86476867.469 9  21118534.42249
  23592955.375 5  23592970.012 9 123981830.068 5  96609236.664 9  23592969.25048
  21123456.516 6                 111004512.882 6  86497049.65248  21123463.78948
  22481521.547 6  22481536.461 9 118141187.760 6  92058123.868 9  22481535.52747
  19856651.703 7  19856661.246 9 104347399.378 7  81309685.061 9  19856660.52049
  23625650.703 5  23625672.852 8 124153633.667 5  96743110.782 8  23625671.72346
  23073170.789 5  23073191.555 8 121250322.076 5  94480849.824 8  23073189.80947
 23  3 10  2 53 20.0000000  0  8G04G08G09G16G26G27G28G31            
  21304692.000 6  21304700.945 9 111956910.769 6  87239187.419 9  21304700.49647
  21117819.023 6  21117833.328 9 110974886.623 6  86473991.915 9  21117832.34049
  23592245.328 5  23592259.711 8 123978097.729 5  96606328.352 8  23592259.11748
  21123405.672 6                 111004243.295 6  86496839.58248  21123412.59848
  22481616.563 5  22481631.852 9 118141688.317 5  92058513.912 9  22481631.02347
  19856340.891 7  19856350.730 9 104345766.747 7  81308412.880 9  19856350.16849
  23625853.063 5  23625875.074 8 124154696.093 5  96743938.637 8  23625873.75046
  23073296.063 5  23073316.309 8 121250979.497 5  94481362.094 8  23073314.24247
 23  3 10  2 53 21.0000000  0  8G04G08G09G16G26G27G28G31            
  21304280.656 6  21304289.586 9 111954749.016 6  87237502.943 9  21304289.10947
  21117117.016 6  21117130.871 9 110971197.195 6  86471117.045 9  21117130.22749
  23591534.438 5  23591549.430 8 123974366.208 5  96603420.672 8  23591548.97348
  21123354.859 6                 111003974.229 6  86496629.91348  21123360.90648
  22481712.234 5  22481727.117 8 118142189.230 5  92058904.222 8  22481726.44547
  19856030.633 7  19856040.184 9 104344135.147 7  81307141.508 9  19856039.46949
  23626054.969 5  23626077.781 8 124155759.129 5  96744766.973 8  23626076.52046
  23073421.531 5  23073441.742 8 121251637.569 5  94481874.865 8  23073439.71147
 23  3 10  2 53 22.0000000  0  8G04G08G09G16G26G27G28G31            
  21303869.719 6  21303879.035 9 111952588.396 6  87235819.341 9  21303878.14147
  21116414.828 6  21116428.617 9 110967508.799 6  86468242.968 9  21116428.07449
  23590824.672 5  23590839.438 8 123970635.630 5  96600513.729 8  23590839.09448
  21123303.320 6                 111003705.828 6  86496420.75948  21123309.90648
  22481807.063 5  22481822.477 9 118142690.661 5  92059294.943 9  22481821.55947
  19855720.094 7  19855729.816 9 104342504.752 7  81305871.073 9  19855729.20749
  23626257.406 5  23626280.199 8 124156822.999 5  96745595.956 8  23626278.94546
  23073546.711 5  23073566.824 8 121252296.419 5  94482388.245 8  23073564.73447
 23  3 10  2 53 23.0000000  0  8G04G08G09G16G26G27G28G31            
  21303458.852 6  21303467.828 9 111950428.365 6  87234136.199 9  21303467.17647
  21115713.367 6  21115726.934 9 110963820.840 6  86465369.238 9  21115726.34449
  23590115.289 5  23590129.754 9 123966905.454 5  96597607.104 9  23590129.39548
  21123252.477 6                 111003437.501 6  86496211.67148  21123259.07848
  22481903.234 5  22481918.148 9 118143191.966 5  92059685.563 9  22481917.14847
  19855410.000 7  19855419.859 9 104340874.967 7  81304601.106 9  19855419.21149
  23626459.719 5  23626482.457 8 124157887.097 5  96746425.119 8  23626481.40646
  23073672.461 5  23073692.359 8 121252955.459 5  94482901.775 8  23073690.57847
 23  3 10  2 53 24.0000000  0  8G04G08G09G16G26G27G28G31            
  21303047.352 6  21303056.918 9 111948268.931 6  87232453.514 9  21303056.22347
  21115011.344 6  21115025.379 9 110960133.323 6  86462495.847 9  21115024.51649
  23589405.711 5  23589419.441 9 123963175.699 5  96594700.810 9  23589419.51648
  21123201.508 6                 111003169.271 6  86496002.65148  21123207.89548
  22481998.492 5  22482013.277 9 118143693.260 5  92060076.171 9  22482012.75847
  19855100.203 7  19855109.223 9 104339245.831 7  81303331.648 9  19855108.85949
  23626662.602 5  23626685.035 8 124158951.396 5  96747254.449 8  23626683.81646
  23073798.016 5  23073817.566 8 121253614.751 5  94483415.491 8  23073815.57447
 23  3 10  2 53 25.0000000  0  8G04G08G09G16G26G27G28G31            
  21302636.695 6  21302646.066 9 111946110.457 6  87230771.571 9  21302645.26648
  21114309.938 6  21114323.906 9 110956446.683 6  86459623.139 9  21114322.87549
  23588696.102 5  23588709.766 9 123959446.727 5  96591795.115 9  23588709.85248
  21123150.742 6                 111002901.568 6  86495794.04748  21123156.71948
  22482093.625 5  22482108.723 9 118144194.836 5  92060467.005 9  22482108.01647
  19854790.602 7  19854800.262 9 104337617.738 7  81302063.008 9  19854799.47349
  23626864.828 5  23626887.566 8 124160016.384 5  96748084.319 8  23626886.43046
  23073923.086 6  23073943.668 8 121254274.653 6  94483929.690 8  23073941.93447
 23  3 10  2 53 26.0000000  0  8G04G08G09G16G26G27G28G31            
  21302226.094 6  21302235.680 9 111943952.914 6  87229090.367 9  21302234.92648
  21113608.625 6  21113622.258 9 110952760.804 6  86456751.027 9  21113621.23449
  23587986.703 5  23588000.480 9 123955718.488 5  96588890.002 9  23588000.61348
  21123100.000 6                 111002634.276 6  86495585.76548  21123106.02748
  22482189.188 5  22482204.602 9 118144696.723 5  92060858.077 9  22482203.74247
  19854480.789 7  19854490.234 9 104335990.590 7  81300795.097 9  19854489.76249
  23627067.195 5  23627090.133 9 124161081.923 5  96748914.610 9  23627089.09046
  23074048.828 6  23074069.145 8 121254935.094 6  94484444.315 8  23074067.35947
 23  3 10  2 53 27.0000000  0  8G04G08G09G16G26G27G28G31            
  21301815.938 6  21301824.930 9 111941796.153 6  87227409.774 9  21301824.48848
  21112907.313 6  21112921.199 9 110949075.616 6  86453879.452 9  21112920.11749
  23587277.195 5  23587290.914 9 123951990.846 5  96585985.355 9  23587290.96548
  21123048.992 6                 111002367.335 6  86495377.75048  21123055.33648
  22482284.523 5  22482299.285 9 118145198.778 5  92061249.271 9  22482298.92247
  19854171.211 7  19854180.762 9 104334364.309 7  81299527.858 9  19854180.30149
  23627270.625 5  23627293.121 9 124162147.932 5  96749745.264 9  23627291.99246
  23074174.969 6  23074194.953 8 121255596.023 6  94484959.314 8  23074193.26247
 23  3 10  2 53 28.0000000  0  8G04G08G09G16G26G27G28G31            
  21301405.391 6  21301414.688 9 111939640.243 6  87225729.837 9  21301414.26248
  21112206.031 6  21112220.031 9 110945391.130 6  86451008.435 9  21112218.92649
  23586567.852 5  23586581.758 9 123948263.840 5  96583081.199 9  23586581.82448
  21122998.156 6                 111002100.706 6  86495169.98848  21123004.89848
  22482380.234 5  22482395.520 9 118145700.976 5  92061640.589 9  22482394.96947
  19853862.148 7  19853871.586 9 104332738.885 7  81298261.291 9  19853870.93449
  23627473.758 5  23627495.961 9 124163214.388 5  96750576.273 9  23627494.95346
  23074300.430 5  23074320.805 8 121256257.402 5  94485474.670 8  23074318.95347
 23  3 10  2 53 29.0000000  0  8G04G08G09G16G26G27G28G31            
  21300995.891 6  21301004.887 9 111937485.166 6  87224050.555 9  21301004.08648
  21111504.953 6  21111518.809 9 110941707.365 6  86448137.969 9  21111517.68049
  23585858.648 5  23585872.691 9 123944537.583 5  96580177.625 9  23585872.78548
  21122947.617 6                 111001834.479 6  86494962.54048  21122954.17648
  22482475.945 5  22482490.578 9 118146203.396 5  92062032.076 9  22482490.12547
  19853553.367 7  19853562.539 9 104331114.391 7  81296995.451 9  19853562.09049
  23627676.336 5  23627699.012 9 124164281.395 5  96751407.716 9  23627698.07447
  23074426.484 6  23074446.699 9 121256919.305 6  94485990.424 9  23074444.99247
 23  3 10  2 53 30.0000000  0  8G04G08G09G16G26G27G28G31            
  21300585.859 6  21300594.957 9 111935331.169 6  87222372.113 9  21300594.27048
  21110804.094 6  21110818.160 9 110938024.571 6  86445268.265 9  21110816.99649
  23585149.695 5  23585164.336 9 123940812.161 5  96577274.694 9  23585164.24648
  21122896.734 6                 111001568.819 6  86494755.52348  21122903.21148
  22482571.727 5  22482586.836 9 118146706.227 5  92062423.878 9  22482586.18447
  19853244.055 7  19853253.645 9 104329491.021 7  81295730.485 9  19853253.21149
  23627879.852 5  23627902.480 8 124165349.095 5  96752239.698 8  23627901.55946
  23074552.297 6  23074572.695 9 121257581.880 6  94486506.705 9  23074571.13347
 23  3 10  2 53 31.0000000  0  8G04G08G09G16G26G27G28G31            
  21300176.336 6  21300185.527 9 111933178.283 6  87220694.531 9  21300184.56348
  21110103.656 6  21110117.828 9 110934342.767 6  86442399.312 9  21110116.71149
  23584440.867 5  23584454.992 8 123937087.647 5  96574372.469 8  23584455.24248
  21122846.109 6                 111001303.800 6  86494549.00748  21122852.83648
  22482668.117 5  22482682.668 9 118147209.560 5  92062816.073 9  22482681.93047
  19852935.391 7  19852944.117 9 104327868.815 7  81294466.429 9  19852943.71949
  23628083.016 5  23628105.543 8 124166417.577 5  96753072.288 8  23628104.73846
  23074678.367 6  23074699.004 9 121258245.231 6  94487023.589 9  23074697.23847
 23  3 10  2 53 32.0000000  0  8G04G08G09G16G26G27G28G31            
  21299766.836 6  21299776.020 9 111931026.306 6  87219017.663 9  21299775.05547
  21109403.344 6  21109417.289 9 110930661.744 6  86439530.977 9  21109415.93449
  23583732.820 5  23583746.504 8 123933363.884 5  96571470.835 8  23583746.59448
  21122796.063 6                 111001039.196 6  86494342.81748  21122802.96948
  22482763.445 5  22482778.641 9 118147713.133 5  92063208.469 9  22482777.80547
  19852626.961 7  19852636.027 9 104326247.556 7  81293203.102 9  19852635.51649
  23628286.508 5  23628308.906 8 124167486.626 5  96753905.314 8  23628308.07046
  23074805.219 6  23074825.164 8 121258909.130 6  94487540.900 8  23074823.52347
 23  3 10  2 53 33.0000000  0  8G04G08G09G16G26G27G28G31            
  21299357.250 6  21299366.250 9 111928875.058 6  87217341.354 9  21299365.54347
  21108702.875 6  21108716.855 9 110926981.326 6  86436663.112 9  21108715.41849
  23583023.695 5  23583038.262 8 123929640.686 5  96568569.645 8  23583038.18448
  21122745.539 6                 111000774.841 6  86494136.82947  21122752.42647
  22482859.602 5  22482873.883 9 118148216.803 5  92063600.941 9  22482873.30547
  19852318.477 7  19852328.141 9 104324627.091 7  81291940.398 9  19852327.37949
  23628490.406 5  23628511.941 8 124168556.058 5  96754738.652 8  23628511.37946
  23074931.484 6  23074952.090 8 121259573.399 6  94488058.510 8  23074950.36347
 23  3 10  2 53 34.0000000  0  8G04G08G09G16G26G27G28G31            
  21298947.984 6  21298957.289 9 111926724.690 6  87215665.730 9  21298956.75448
  21108002.438 6  21108017.109 9 110923301.683 6  86433795.858 9  21108015.58649
  23582315.813 5  23582329.910 8 123925918.165 5  96565668.991 8  23582330.01248
  21122695.250 6                 111000510.909 6  86493931.16847  21122702.13747
  22482955.305 5  22482970.047 9 118148720.699 5  92063993.578 9  22482969.43047
  19852010.477 7  19852020.070 9 104323007.566 7  81290678.428 9  19852019.41449
  23628694.000 5  23628716.453 8 124169626.057 5  96755572.423 8  23628715.46947
  23075057.789 5  23075078.328 8 121260238.218 5  94488576.548 8  23075076.67247
 23  3 10  2 53 35.0000000  0  8G04G08G09G16G26G27G28G31            
  21298539.086 6  21298548.023 9 111924575.002 6  87213990.651 9  21298547.60947
  21107302.250 6  21107316.594 9 110919622.576 6  86430929.021 9  21107315.10949
  23581607.641 5  23581621.215 8 123922196.158 5  96562768.731 8  23581621.36348
  21122645.047 6                 111000247.134 6  86493725.62748  21122651.92648
  22483051.289 5  22483065.621 9 118149224.635 5  92064386.255 9  22483064.96947
  19851702.195 7  19851711.730 9 104321388.736 7  81289417.001 9  19851710.86349
  23628897.031 5  23628919.906 8 124170696.313 5  96756406.388 8  23628919.06346
  23075184.664 6  23075204.582 8 121260903.338 6  94489094.828 8  23075203.09447
 23  3 10  2 53 36.0000000  0  8G04G08G09G16G26G27G28G31            
  21298129.969 6  21298139.020 9 111922426.354 6  87212316.376 9  21298138.55148
  21106602.398 6  21106616.766 9 110915944.415 6  86428062.930 9  21106615.29349
  23580899.703 5  23580913.371 9 123918474.965 5  96559869.095 9  23580913.27748
  21122595.289 6                 110999983.932 6  86493520.53348  21122601.91848
  22483146.922 5  22483161.590 9 118149728.911 5  92064779.183 9  22483161.22347
  19851394.516 7  19851404.195 9 104319771.008 7  81288156.438 9  19851403.63749
  23629101.219 5  23629123.527 8 124171767.302 5  96757240.963 8  23629122.86346
  23075310.930 5  23075331.699 8 121261569.137 5  94489613.627 8  23075330.07047
 23  3 10  2 53 37.0000000  0  8G04G08G09G16G26G27G28G31            
  21297721.227 6  21297730.492 9 111920278.608 6  87210642.802 9  21297730.13347
  21105902.820 6  21105916.969 9 110912267.051 6  86425197.449 9  21105915.68449
  23580191.266 5  23580205.297 9 123914754.549 5  96556970.072 9  23580205.13748
  21122544.992 6                 110999721.147 6  86493315.75948  21122551.50848
  22483243.750 5  22483257.840 9 118150233.521 5  92065172.378 9  22483257.34447
  19851086.922 7  19851096.469 9 104318154.246 7  81286896.626 9  19851095.65249
  23629304.445 5  23629327.016 8 124172838.868 5  96758075.981 8  23629326.37546
  23075438.031 5  23075458.449 8 121262235.522 5  94490132.863 8  23075456.87547
 23  3 10  2 53 38.0000000  0  8G04G08G09G16G26G27G28G31            
  21297312.836 6  21297321.949 9 111918131.811 6  87208969.965 9  21297321.91448
  21105203.109 6  21105217.297 9 110908590.501 6  86422332.609 9  21105215.96549
  23579483.492 5  23579497.871 9 123911034.879 5  96554071.636 9  23579497.64548
  21122494.953 6                 110999458.826 6  86493111.33748  21122501.66448
  22483339.500 5  22483353.898 9 118150738.379 5  92065565.752 9  22483353.56647
  19850779.375 7  19850789.051 9 104316538.491 7  81285637.591 9  19850788.17249
  23629509.211 5  23629531.164 8 124173911.054 5  96758911.462 8  23629530.61346
  23075565.438 5  23075585.414 8 121262902.441 5  94490652.529 8  23075583.71547
 23  3 10  2 53 39.0000000  0  8G04G08G09G16G26G27G28G31            
  21296904.297 6  21296913.027 9 111915985.667 6  87207297.642 9  21296913.09448
  21104503.711 6  21104518.102 9 110904914.486 6  86419468.180 9  21104516.44549
  23578775.719 5  23578790.184 9 123907315.663 5  96551173.548 9  23578790.03148
  21122445.195 6                 110999196.683 6  86492907.06348  21122452.19148
  22483435.570 5  22483450.445 9 118151243.269 5  92065959.154 9  22483449.72747
  19850472.023 7  19850481.516 9 104314923.422 7  81284379.098 9  19850480.63749
  23629713.797 5  23629735.512 8 124174983.507 5  96759747.141 8  23629734.62146
  23075691.891 5  23075711.898 8 121263569.658 5  94491172.435 8  23075710.71547
 23  3 10  2 53 40.0000000  0  8G04G08G09G16G26G27G28G31            
  21296496.242 6  21296505.266 9 111913840.411 6  87205626.012 9  21296505.30548
  21103804.047 6  21103818.477 9 110901239.261 6  86416604.368 9  21103817.10949
  23578068.109 5  23578082.410 9 123903597.166 5  96548276.017 9  23578082.22748
  21122395.477 6                 110998934.941 6  86492703.10748  21122402.34848
  22483531.953 5  22483546.285 9 118151748.396 5  92066352.747 9  22483545.64547
  19850164.703 7  19850174.313 9 104313309.314 7  81283121.352 9  19850173.50449
  23629917.000 5  23629939.566 8 124176056.526 5  96760583.254 8  23629938.44146
  23075818.727 5  23075838.656 8 121264237.446 5  94491692.778 8  23075837.62547
 23  3 10  2 53 41.0000000  0  8G04G08G09G16G26G27G28G31            
  21296088.055 6  21296096.910 9 111911696.233 6  87203955.223 9  21296096.96947
  21103104.984 6  21103119.297 9 110897564.899 6  86413741.227 9  21103117.75049
  23577360.641 5  23577375.008 9 123899879.586 5  96545379.203 9  23577374.64548
  21122345.867 6                 110998673.817 6  86492499.63048  21122352.08248
  22483627.688 5  22483642.504 9 118152253.964 5  92066746.690 9  22483641.64847
  19849857.742 7  19849867.484 9 104311696.311 7  81281864.470 9  19849866.73049
  23630121.828 5  23630144.043 8 124177130.247 5  96761419.923 8  23630142.76646
  23075946.180 5  23075966.328 9 121264905.938 5  94492213.671 9  23075965.00447
 23  3 10  2 53 42.0000000  0  8G04G08G09G16G26G27G28G31            
  21295679.531 6  21295689.047 9 111909552.900 6  87202285.092 9  21295689.24648
  21102405.805 6  21102420.285 9 110893891.269 6  86410878.658 9  21102418.87549
  23576653.453 5  23576667.848 9 123896162.639 5  96542482.882 9  23576667.32448
  21122296.422 6                 110998413.008 6  86492296.40648  21122302.74648
  22483723.906 5  22483738.738 9 118152759.710 5  92067140.767 9  22483737.84047
  19849550.820 7  19849560.559 9 104310084.221 7  81280608.295 9  19849559.64549
  23630326.758 5  23630348.363 8 124178204.515 5  96762257.017 8  23630347.06646
  23076073.336 5  23076093.820 8 121265574.899 5  94492734.928 8  23076092.64547
 23  3 10  2 53 43.0000000  0  8G04G08G09G16G26G27G28G31            
  21295272.227 6  21295281.273 9 111907410.422 6  87200615.637 9  21295281.66048
  21101706.758 6  21101720.715 9 110890218.376 6  86408016.665 9  21101719.48049
  23575946.055 5  23575961.391 9 123892446.354 5  96539587.074 9  23575960.60548
  21122246.609 6                 110998152.586 6  86492093.48047  21122253.43047
  22483820.008 5  22483835.039 9 118153265.643 5  92067534.986 9  22483834.27047
  19849244.352 7  19849253.734 9 104308473.004 7  81279352.805 9  19849253.00049
  23630530.555 5  23630553.020 8 124179279.244 5  96763094.469 8  23630551.62546
  23076200.703 5  23076221.320 8 121266244.352 5  94493256.576 8  23076219.84447
 23  3 10  2 53 44.0000000  0  8G04G08G09G16G26G27G28G31            
  21294864.961 6  21294874.051 9 111905268.637 6  87198946.711 9  21294874.35547
  21101008.195 6  21101022.309 9 110886546.101 6  86405155.155 9  21101020.79749
  23575239.211 5  23575254.063 8 123888730.633 5  96536691.710 8  23575253.14848
  21122197.242 6                 110997892.424 6  86491890.74847  21122203.63347
  22483916.258 5  22483931.270 9 118153771.685 5  92067929.307 9  22483930.50047
  19848938.164 7  19848947.465 9 104306862.577 7  81278097.927 9  19848946.83249
  23630735.828 5  23630757.398 8 124180354.361 5  96763932.236 8  23630756.04746
  23076328.914 5  23076348.813 8 121266914.184 5  94493778.518 8  23076347.96947
 23  3 10  2 53 45.0000000  0  8G04G08G09G16G26G27G28G31            
  21294457.484 6  21294466.078 9 111903127.464 6  87197278.255 9  21294466.38747
  21100309.180 6  21100323.711 9 110882874.273 6  86402293.996 9  21100322.25049
  23574532.180 4  23574546.508 8 123885015.298 4  96533796.637 8  23574546.04348
  21122147.383 6                 110997632.359 6  86491688.09948  21122154.63748
  22484012.813 5  22484027.539 9 118154277.646 5  92068323.555 9  22484026.45747
  19848631.914 7  19848641.117 9 104305252.804 7  81276843.562 9  19848640.43449
  23630940.867 5  23630962.141 8 124181429.750 5  96764770.194 8  23630961.01246
  23076455.523 5  23076475.980 8 121267584.255 5  94494300.643 8  23076475.25847
 23  3 10  2 53 46.0000000  0  8G04G08G09G16G26G27G28G31            
  21294050.516 6  21294059.195 9 111900987.065 6  87195610.403 9  21294059.16447
  21099610.844 6  21099624.914 9 110879203.108 6  86399433.358 9  21099623.54749
  23573825.367 4  23573839.547 9 123881300.546 4  96530902.029 9  23573838.94148
  21122098.586 6                 110997372.541 6  86491485.63548  21122104.61748
  22484109.008 5  22484123.965 9 118154783.768 5  92068717.926 9  22484122.91447
  19848325.508 7  19848334.949 9 104303643.813 7  81275589.808 9  19848334.02749
  23631145.289 5  23631166.781 8 124182505.542 5  96765608.477 8  23631165.75846
  23076582.930 5  23076603.977 8 121268254.717 5  94494823.065 8  23076603.10547
 23  3 10  2 53 47.0000000  0  8G04G08G09G16G26G27G28G31            
  21293642.781 6  21293651.719 9 111898847.694 6  87193943.362 9  21293651.74248
  21098912.727 6  21098926.457 9 110875532.860 6  86396573.421 9  21098925.03949
  23573118.094 5  23573133.535 9 123877586.646 5  96528008.081 9  23573132.53148
  21122048.703 6                 110997113.287 6  86491283.61748  21122055.50848
  22484205.188 5  22484220.645 9 118155290.229 5  92069112.562 9  22484219.63347
  19848019.438 7  19848028.789 9 104302035.929 7  81274336.905 9  19848027.68049
  23631349.875 5  23631371.414 8 124183582.008 5  96766447.299 8  23631370.53946
  23076711.125 5  23076731.699 8 121268925.856 5  94495346.013 8  23076730.96947
 23  3 10  2 53 48.0000000  0  8G04G08G09G16G26G27G28G31            
  21293236.313 6  21293245.391 9 111896708.965 6  87192276.820 9  21293245.27748
  21098213.977 6  21098227.762 9 110871863.171 6  86393713.931 9  21098226.47349
  23572411.867 5  23572426.512 9 123873873.233 5  96525114.523 9  23572425.64148
  21121999.656 6                 110996854.221 6  86491081.74948  21122006.08648
  22484302.000 5  22484317.008 9 118155796.713 5  92069507.220 9  22484315.80147
  19847713.781 7  19847722.945 9 104300428.757 7  81273084.566 9  19847722.32449
  23631554.984 5  23631576.156 8 124184658.805 5  96767286.374 8  23631575.39846
  23076839.258 5  23076859.547 8 121269597.309 5  94495869.218 8  23076858.59447
 23  3 10  2 53 49.0000000  0  8G04G08G09G16G26G27G28G31            
  21292829.211 6  21292838.242 9 111894571.070 6  87190610.929 9  21292838.13748
  21097515.789 6  21097529.996 9 110868194.160 6  86390854.962 9  21097528.66449
  23571705.328 5  23571720.508 9 123870160.484 5  96522221.480 9  23571719.71148
  21121950.305 6                 110996595.520 6  86490880.15748  21121957.07848
  22484398.008 5  22484413.766 9 118156303.378 5  92069902.015 9  22484412.93047
  19847408.094 7  19847417.320 9 104298822.486 7  81271832.922 9  19847416.69149
  23631759.484 5  23631781.223 8 124185736.067 5  96768125.804 8  23631780.33246
  23076967.375 5  23076987.473 8 121270269.246 5  94496392.795 8  23076986.44547
 23  3 10  2 53 50.0000000  0  8G04G08G09G16G26G27G28G31            
  21292422.523 6  21292432.000 9 111892434.090 6  87188945.750 9  21292431.72748
  21096817.781 6  21096831.395 9 110864525.945 6  86387996.619 9  21096830.24249
  23570999.016 5  23571013.660 9 123866448.459 5  96519328.992 9  23571013.05148
  21121901.633 6                 110996337.213 6  86490678.87848  21121907.88748
  22484494.344 5  22484509.512 9 118156810.329 5  92070297.035 9  22484509.03147
  19847102.430 7  19847111.770 9 104297217.127 7  81270581.986 9  19847111.11749
  23631964.945 5  23631986.500 8 124186813.896 5  96768965.680 8  23631985.51246
  23077094.555 5  23077115.578 9 121270941.717 5  94496916.792 9  23077114.60247
 23  3 10  2 53 51.0000000  0  8G04G08G09G16G26G27G28G31            
  21292016.109 6  21292025.680 9 111890298.027 6  87187281.287 9  21292025.38348
  21096120.359 6  21096134.668 9 110860858.483 6  86385138.856 9  21096133.39849
  23570292.398 5  23570307.125 9 123862737.145 5  96516437.060 9  23570306.45348
  21121852.625 6                 110996079.331 6  86490477.91948  21121858.81648
  22484591.344 5  22484606.426 9 118157317.528 5  92070692.246 9  22484605.71147
  19846797.383 7  19846806.305 9 104295612.757 7  81269331.830 9  19846805.73849
  23632169.750 5  23632191.492 8 124187892.352 5  96769806.037 8  23632190.61746
  23077223.102 5  23077243.180 9 121271614.758 5  94497441.233 9  23077241.82447
 23  3 10  2 53 52.0000000  0  8G04G08G09G16G26G27G28G31            
  21291609.953 6  21291619.422 9 111888162.801 6  87185617.468 9  21291619.13748
  21095422.375 6  21095436.465 9 110857191.789 6  86382281.698 9  21095435.33249
  23569586.141 5  23569601.238 9 123859026.547 5  96513545.684 9  23569600.64548
  21121802.836 6                 110995821.853 6  86490277.28848  21121810.15248
  22484687.461 5  22484702.750 9 118157824.950 5  92071087.629 9  22484702.12947
  19846492.102 7  19846501.398 9 104294009.302 7  81268082.382 9  19846501.04749
  23632374.945 5  23632397.066 8 124188971.257 5  96770646.710 8  23632395.81346
  23077350.984 5  23077371.746 9 121272288.301 5  94497966.063 9  23077370.46547
 23  3 10  2 53 53.0000000  0  8G04G08G09G16G26G27G28G31            
  21291203.469 6  21291213.191 9 111886028.473 6  87183954.353 9  21291213.12148
  21094724.859 6  21094738.125 9 110853525.825 6  86379425.106 9  21094737.02349
  23568880.438 5  23568895.051 9 123855316.602 5  96510654.818 9  23568894.37548
  21121754.141 6                 110995564.759 6  86490076.94648  21121760.86348
  22484784.039 5  22484799.121 9 118158332.595 5  92071483.180 9  22484798.82847
  19846187.266 7  19846196.637 9 104292406.773 7  81266833.652 9  19846195.86349
  23632580.258 5  23632602.492 8 124190050.695 5  96771487.842 8  23632601.27346
  23077479.656 5  23077500.008 9 121272962.339 5  94498491.279 9  23077498.92247
 23  3 10  2 53 54.0000000  0  8G04G08G09G16G26G27G28G31            
  21290797.484 6  21290806.840 9 111883895.033 6  87182291.924 9  21290806.60948
  21094027.375 6  21094041.508 9 110849860.614 6  86376569.096 9  21094040.30949
  23568174.672 5  23568189.465 9 123851607.399 5  96507764.535 9  23568188.57848
  21121705.539 6                 110995308.077 6  86489876.93548  21121712.46148
  22484881.086 5  22484895.973 9 118158840.488 5  92071878.935 9  22484895.55547
  19845882.445 7  19845891.797 9 104290805.188 7  81265585.664 9  19845891.14549
  23632786.344 5  23632807.926 8 124191130.678 5  96772329.414 8  23632806.89846
  23077608.328 5  23077628.289 8 121273636.945 5  94499016.942 8  23077627.30147
 23  3 10  2 53 55.0000000  0  8G04G08G09G16G26G27G28G31            
  21290391.703 6  21290401.387 9 111881762.465 6  87180630.174 9  21290400.92247
  21093330.297 6  21093343.516 9 110846196.191 6  86373713.703 9  21093342.34849
  23567468.227 5  23567483.887 9 123847898.834 5  96504874.729 9  23567482.70348
