     2.11           OBSERVATION DATA    Mixed(MIXED)        RINEX VERSION / TYPE
cnvtToRINEX 3.08.0  convertToRINEX OPR  10-Mar-23 03:42 UTC PGM / RUN BY / DATE 
----------------------------------------------------------- COMMENT             
GF01                                                        MARKER NAME         
GF01                                                        MARKER NUMBER       
GNSS Observer       Trimble                                 OBSERVER / AGENCY   
5950R01396          R8s LT              5.46                REC # / TYPE / VERS 
                    TRMR8S          NONE                    ANT # / TYPE        
 -2956299.3332  5076001.1421  2476774.5968                  APPROX POSITION XYZ 
        1.7760        0.0000        0.0000                  ANTENNA: DELTA H/E/N
     1     1     0                                          WAVELENGTH FACT L1/2
     5    C1    C2    L1    L2    P2                        # / TYPES OF OBSERV 
  2023     3    10     2    57   40.0000000     GPS         TIME OF FIRST OBS   
  2023     3    10     3    28   26.0000000     GPS         TIME OF LAST OBS    
     0                                                      RCV CLOCK OFFS APPL 
    18                                                      LEAP SECONDS        
     9                                                      # OF SATELLITES     
   G04  1847  1847  1847  3694  1847                        PRN / # OF OBS      
   G08  1847  1847  1847  3694  1847                        PRN / # OF OBS      
   G09  1847  1847  1847  3694  1847                        PRN / # OF OBS      
   G16  1847     0  1847  1847  1847                        PRN / # OF OBS      
   G21    68     0    68    68    68                        PRN / # OF OBS      
   G26  1847  1847  1847  3694  1847                        PRN / # OF OBS      
   G27  1847  1847  1847  3694  1847                        PRN / # OF OBS      
   G28   850   850   850  1700   850                        PRN / # OF OBS      
   G31  1847  1847  1847  3694  1847                        PRN / # OF OBS      
CARRIER PHASE MEASUREMENTS: PHASE SHIFTS REMOVED            COMMENT             
                                                            END OF HEADER       
 23  3 10  2 57 40.0000000  0  8G04G08G09G16G26G27G28G31            
  21265426.016 6  21265435.934 9 111750566.982 6  87078401.894 9  21265435.64147
  21002346.781 6  21002360.238 9 110368075.091 6  86001281.953 9  21002359.51249
  23474096.836 3  23474110.730 8 123357202.145 3  96122560.547 8  23474110.26647
  21174796.914 6                 111274305.990 6  86707280.49748  21174804.28948
  22570267.359 4  22570283.539 9 118607569.100 4  92421311.359 9  22570283.37147
  19843833.398 7  19843843.570 9 104280046.158 7  81257189.111 9  19843843.32449
  23744419.047 2  23744440.879 8 124777760.441 2  97229228.274 8  23744441.03146
  23171733.719 5  23171754.195 8 121768275.684 5  94884200.532 8  23171753.88747
 23  3 10  2 57 41.0000000  0  8G04G08G09G16G26G27G28G31            
  21265356.297 6  21265366.125 9 111750198.510 6  87078114.769 9  21265365.51248
  21001979.844 6  21001993.547 9 110366148.048 6  85999780.361 9  21001992.87149
  23473719.344 3  23473733.246 8 123355218.136 3  96121014.563 8  23473732.73447
  21175062.945 6                 111275702.591 6  86708368.74848  21175070.18448
  22570672.023 4  22570687.926 9 118609694.344 4  92422967.384 9  22570687.80547
  19843866.430 7  19843876.566 9 104280220.001 7  81257324.569 9  19843876.48449
  23744945.484 3  23744967.109 8 124780525.949 3  97231383.223 8  23744967.09445
  23172183.000 5  23172202.727 8 121770633.466 5  94886037.765 8  23172202.43047
 23  3 10  2 57 42.0000000  0  8G04G08G09G16G26G27G28G31            
  21265285.961 6  21265296.176 9 111749831.007 6  87077828.402 9  21265295.56348
  21001613.492 6  21001626.945 9 110364221.832 6  85998279.425 9  21001626.25449
  23473341.195 3  23473355.820 8 123353234.909 3  96119469.172 8  23473355.35247
  21175328.844 6                 111277099.647 6  86709457.35948  21175336.02048
  22571076.586 4  22571092.613 9 118611819.931 4  92424623.686 9  22571092.31347
  19843899.781 7  19843909.918 9 104280394.814 7  81257460.788 9  19843909.65249
  23745471.672 2  23745493.559 8 124783292.080 2  97233538.655 8  23745493.50846
  23172631.602 5  23172651.504 8 121772991.790 5  94887875.421 8  23172651.25847
 23  3 10  2 57 43.0000000  0  8G04G08G09G16G26G27G28G31            
  21265216.406 6  21265226.660 9 111749464.359 6  87077542.706 9  21265225.91847
  21001246.867 6  21001260.621 9 110362296.368 6  85996779.062 9  21001259.85249
  23472964.922 3  23472978.691 8 123351252.384 3  96117924.368 8  23472978.03147
  21175594.625 6                 111278497.090 6  86710546.27348  21175601.98048
  22571480.859 4  22571496.777 9 118613945.714 4  92426280.130 9  22571496.85547
  19843933.367 7  19843943.125 9 104280570.547 7  81257597.725 9  19843943.10549
  23745997.930 2  23746020.129 8 124786058.735 2  97235694.494 8  23746019.84446
  23173080.203 5  23173100.602 8 121775350.668 5  94889713.502 8  23173100.03947
 23  3 10  2 57 44.0000000  0  8G04G08G09G16G26G27G28G31            
  21265146.742 6  21265156.922 9 111749098.873 6  87077257.903 9  21265156.50447
  21000880.297 6  21000894.422 9 110360371.991 6  85995279.548 9  21000893.73849
  23472587.734 4  23472601.625 8 123349270.789 4  96116380.269 8  23472600.99247
  21175860.906 6                 111279895.165 6  86711635.67348  21175867.98448
  22571886.172 4  22571901.473 9 118616072.014 4  92427936.986 9  22571901.50447
  19843966.961 7  19843976.992 9 104280747.491 7  81257735.600 9  19843976.78149
  23746524.922 3  23746546.652 8 124788826.207 3  97237850.974 8  23746546.55545
  23173528.672 5  23173549.543 8 121777710.320 5  94891552.188 8  23173549.06647
 23  3 10  2 57 45.0000000  0  8G04G08G09G16G26G27G28G31            
  21265078.023 6  21265087.496 9 111748734.382 6  87076973.879 9  21265087.21948
  21000514.648 6  21000528.488 9 110358448.495 6  85993780.720 9  21000527.65249
  23472210.547 3  23472224.773 8 123347290.077 3  96114836.857 8  23472224.20347
  21176126.930 6                 111281293.771 6  86712725.48948  21176134.10548
  22572290.578 4  22572306.105 9 118618198.641 4  92429594.086 9  22572306.12547
  19844000.758 7  19844010.863 9 104280925.472 7  81257874.284 9  19844010.64849
  23747051.758 3  23747073.418 8 124791594.290 3  97240007.915 8  23747073.17245
  23173978.172 5  23173998.469 8 121780070.630 5  94893391.382 8  23173998.08247
 23  3 10  2 57 46.0000000  0  8G04G08G09G16G26G27G28G31            
  21265008.633 6  21265018.578 9 111748370.871 6  87076690.618 9  21265018.16848
  21000148.703 6  21000162.367 9 110356525.841 6  85992282.556 9  21000161.63749
  23471833.875 3  23471847.871 8 123345310.136 3  96113294.042 8  23471847.55147
  21176393.039 6                 111282692.809 6  86713815.64848  21176400.40248
  22572695.102 5  22572711.098 9 118620325.586 5  92431251.437 9  22572710.88747
  19844034.641 7  19844045.070 9 104281104.458 7  81258013.759 9  19844044.80949
  23747578.250 3  23747600.586 8 124794363.002 3  97242165.363 8  23747600.18445
  23174427.758 5  23174447.961 8 121782431.566 5  94895231.068 8  23174447.25847
 23  3 10  2 57 47.0000000  0  8G04G08G09G16G26G27G28G31            
  21264939.672 6  21264949.441 9 111748008.204 6  87076408.009 9  21264949.05548
  20999782.961 6  20999796.867 9 110354603.931 6  85990784.957 9  20999796.30549
  23471458.102 3  23471471.465 8 123343330.925 3  96111751.808 8  23471470.86747
  21176659.563 6                 111284092.213 6  86714906.09248  21176666.62548
  22573100.188 4  22573115.871 9 118622452.745 4  92432908.940 9  22573115.78947
  19844068.867 7  19844079.094 9 104281284.339 7  81258153.921 9  19844079.00849
  23748105.367 3  23748127.973 8 124797132.165 3  97244323.146 8  23748127.01646
  23174877.141 5  23174897.109 8 121784792.963 5  94897071.114 8  23174896.55147
 23  3 10  2 57 48.0000000  0  8G04G08G09G16G26G27G28G31            
  21264870.563 6  21264880.262 9 111747646.393 6  87076126.083 9  21264880.33648
  20999417.609 6  20999431.430 9 110352682.751 6  85989287.932 9  20999430.79749
  23471081.281 3  23471094.715 8 123341352.366 3  96110210.065 8  23471094.46547
  21176926.023 6                 111285491.942 6  86715996.78848  21176932.90248
  22573504.867 4  22573520.871 9 118624580.072 4  92434566.584 9  22573520.60947
  19844103.367 7  19844113.398 9 104281465.129 7  81258294.797 9  19844113.46949
  23748632.266 3  23748654.637 8 124799901.924 3  97246481.399 8  23748654.16046
  23175326.164 5  23175346.574 8 121787154.860 5  94898911.534 8  23175345.99247
 23  3 10  2 57 49.0000000  0  8G04G08G09G16G26G27G28G31            
  21264801.703 6  21264811.727 9 111747285.521 6  87075844.888 9  21264811.80148
  20999052.461 6  20999065.934 9 110350762.406 6  85987791.555 9  20999065.32849
  23470704.672 4  23470718.465 8 123339374.578 4  96108668.941 8  23470718.10947
  21177192.602 6                 111286892.157 6  86717087.86448  21177199.48848
  22573908.992 5  22573925.586 9 118626707.721 5  92436224.496 9  22573925.55947
  19844138.281 7  19844148.277 9 104281646.886 7  81258436.426 9  19844148.09049
  23749160.375 3  23749181.637 8 124802672.182 3  97248640.040 8  23749181.24646
  23175775.938 5  23175796.016 8 121789517.318 5  94900752.404 8  23175795.59047
 23  3 10  2 57 50.0000000  0  8G04G08G09G16G26G27G28G31            
  21264733.289 6  21264743.277 9 111746925.713 6  87075564.512 9  21264743.22348
  20998686.656 6  20998700.699 9 110348843.022 6  85986295.931 9  20998700.00049
  23470328.648 3  23470342.438 8 123337397.733 3  96107128.522 8  23470341.84847
  21177458.828 6                 111288292.917 6  86718179.37148  21177466.07048
  22574314.320 5  22574330.684 9 118628835.770 5  92437882.698 9  22574330.59447
  19844172.672 7  19844183.203 9 104281829.776 7  81258578.935 9  19844182.80149
  23749687.250 3  23749709.008 8 124805443.181 3  97250799.272 8  23749708.54346
  23176225.875 5  23176245.695 8 121791880.501 5  94902593.848 8  23176245.27047
 23  3 10  2 57 51.0000000  0  8G04G08G09G16G26G27G28G31            
  21264665.305 6  21264675.055 9 111746566.972 6  87075284.964 9  21264675.07448
  20998322.063 6  20998335.793 9 110346924.593 6  85984801.059 9  20998335.02349
  23469952.617 3  23469966.406 8 123335421.704 3  96105588.766 8  23469965.89147
  21177725.633 6                 111289694.220 6  86719271.28248  21177732.57448
  22574719.578 4  22574735.664 9 118630964.229 4  92439541.233 9  22574735.49247
  19844207.891 7  19844218.004 9 104282013.739 7  81258722.276 9  19844217.68849
  23750214.547 3  23750236.445 8 124808214.899 3  97252959.060 8  23750235.96946
  23176675.305 5  23176695.723 8 121794244.364 5  94904435.810 8  23176695.11747
 23  3 10  2 57 52.0000000  0  8G04G08G09G16G26G27G28G31            
  21264597.852 6  21264606.969 9 111746209.189 6  87075006.167 9  21264606.90248
  20997957.055 6  20997970.824 9 110345007.032 6  85983306.864 9  20997970.22749
  23469577.195 4  23469590.336 8 123333446.506 4  96104049.653 8  23469590.12947
  21177992.273 6                 111291095.982 6  86720363.56348  21177999.20748
  22575124.914 4  22575140.586 9 118633092.988 4  92441199.989 9  22575140.57847
  19844243.211 7  19844253.211 9 104282198.716 7  81258866.409 9  19844252.98049
  23750741.313 3  23750763.914 8 124810987.195 3  97255119.295 8  23750763.36346
  23177124.883 5  23177145.504 8 121796608.821 5  94906278.234 8  23177144.94547
 23  3 10  2 57 53.0000000  0  8G04G08G09G16G26G27G28G31            
  21264529.883 6  21264539.086 9 111745852.342 6  87074728.102 9  21264539.02348
  20997592.195 6  20997606.008 9 110343090.279 6  85981813.282 9  20997605.46149
  23469201.047 3  23469214.285 8 123331472.037 3  96102511.122 8  23469214.30147
  21178259.656 6                 111292498.188 6  86721456.18348  21178266.11748
  22575529.023 4  22575545.988 9 118635222.034 4  92442858.986 9  22575545.78547
  19844278.500 7  19844288.535 9 104282384.668 7  81259011.300 9  19844288.22349
  23751269.555 3  23751291.441 8 124813760.062 3  97257279.980 8  23751291.12146
  23177575.039 5  23177595.461 8 121798973.860 5  94908121.119 8  23177594.96947
 23  3 10  2 57 54.0000000  0  8G04G08G09G16G26G27G28G31            
  21264461.531 6  21264471.395 9 111745496.439 6  87074450.773 9  21264471.25848
  20997227.727 6  20997241.328 9 110341174.375 6  85980320.370 9  20997240.81349
  23468825.391 4  23468839.012 8 123329498.410 4  96100973.246 8  23468838.58247
  21178526.219 6                 111293900.861 6  86722549.16648  21178533.11348
  22575934.641 4  22575951.090 9 118637351.342 4  92444518.175 9  22575951.00847
  19844314.141 7  19844324.180 9 104282571.612 7  81259156.968 9  19844323.99649
  23751796.852 3  23751819.184 8 124816533.604 3  97259441.157 8  23751818.94146
  23178025.266 5  23178045.578 8 121801339.513 5  94909964.481 8  23178045.11747
 23  3 10  2 57 55.0000000  0  8G04G08G09G16G26G27G28G31            
  21264394.063 6  21264404.094 9 111745141.563 6  87074174.249 9  21264403.71947
  20996863.023 6  20996876.914 9 110339259.349 6  85978828.144 9  20996876.12949
  23468450.227 3  23468463.723 8 123327525.610 3  96099435.989 8  23468463.37147
  21178793.211 6                 111295304.012 6  86723642.52948  21178800.13348
  22576340.219 4  22576356.254 9 118639481.054 4  92446177.679 9  22576356.44147
  19844350.172 7  19844359.734 9 104282759.621 7  81259303.469 9  19844359.60949
  23752324.977 3  23752347.340 8 124819307.733 3  97261602.804 8  23752346.82446
  23178475.859 5  23178496.219 8 121803705.764 5  94911808.313 8  23178495.48447
 23  3 10  2 57 56.0000000  0  8G04G08G09G16G26G27G28G31            
  21264326.836 6  21264336.547 9 111744787.427 6  87073898.299 9  21264336.27747
  20996498.875 6  20996512.848 9 110337345.002 6  85977336.438 9  20996512.07049
  23468074.422 3  23468088.922 8 123325553.386 3  96097899.198 8  23468088.23447
  21179060.594 6                 111296707.438 6  86724736.12348  21179067.18448
  22576745.289 4  22576761.648 9 118641610.850 4  92447837.259 9  22576761.66847
  19844386.250 7  19844395.750 9 104282948.428 7  81259450.596 9  19844395.61749
  23752852.586 3  23752875.086 8 124822082.257 3  97263764.774 8  23752874.83646
  23178926.586 5  23178946.465 8 121806072.452 5  94913652.476 8  23178945.81347
 23  3 10  2 57 57.0000000  0  8G04G08G09G16G26G27G28G31            
  21264259.719 6  21264269.340 9 111744434.258 6  87073623.101 9  21264269.13748
  20996134.422 6  20996148.727 9 110335431.481 6  85975845.388 9  20996147.99649
  23467699.273 3  23467713.523 8 123323581.960 3  96096363.033 8  23467713.43847
  21179327.336 6                 111298111.326 6  86725830.05348  21179334.41048
  22577150.508 5  22577166.984 9 118643740.930 5  92449497.046 9  22577167.05547
  19844421.961 7  19844431.730 9 104283138.217 7  81259598.476 9  19844431.69149
  23753380.469 3  23753403.551 8 124824857.414 3  97265927.233 8  23753402.98046
  23179376.391 5  23179397.051 8 121808439.711 5  94915497.093 8  23179396.25447
 23  3 10  2 57 58.0000000  0  8G04G08G09G16G26G27G28G31            
  21264192.781 6  21264202.270 9 111744081.931 6  87073348.552 9  21264202.11748
  20995770.266 6  20995784.613 9 110333518.661 6  85974354.875 9  20995784.01249
  23467324.727 4  23467338.559 8 123321611.206 4  96094827.381 8  23467338.41447
  21179594.539 6                 111299515.505 6  86726924.21448  21179601.43848
  22577556.328 4  22577572.246 9 118645871.200 4  92451156.986 9  22577572.51647
  19844458.477 7  19844468.168 9 104283328.886 7  81259747.056 9  19844467.96949
  23753908.984 3  23753931.805 8 124827633.069 3  97268090.087 8  23753931.14146
  23179827.352 5  23179847.531 8 121810807.442 5  94917342.077 8  23179846.57847
 23  3 10  2 57 59.0000000  0  8G04G08G09G16G26G27G28G31            
  21264125.281 6  21264135.277 9 111743730.700 6  87073074.866 9  21264135.35548
  20995406.609 6  20995420.684 9 110331606.848 6  85972865.159 9  20995420.15249
  23466949.688 3  23466963.793 8 123319641.395 3  96093292.476 8  23466963.53147
  21179862.242 6                 111300920.340 6  86728018.88948  21179868.71148
  22577961.008 4  22577977.820 9 118648001.936 4  92452817.305 9  22577978.03147
  19844494.781 7  19844504.699 9 104283520.724 7  81259896.530 9  19844504.62149
  23754437.227 2  23754459.867 8 124830409.452 2  97270253.499 8  23754459.57845
  23180277.813 5  23180298.148 8 121813175.944 5  94919187.651 8  23180297.30547
 23  3 10  2 58  0.0000000  0  8G04G08G09G16G26G27G28G31            
  21264059.039 6  21264068.941 9 111743380.475 6  87072801.965 9  21264068.77348
  20995043.125 6  20995057.344 9 110329695.920 6  85971376.121 9  20995056.40249
  23466575.195 3  23466589.145 8 123317672.384 3  96091758.195 8  23466588.89847
  21180129.320 6                 111302325.649 6  86729113.92848  21180136.23848
  22578367.367 4  22578383.176 9 118650133.014 4  92454477.882 9  22578383.45347
  19844531.453 7  19844541.461 9 104283713.577 7  81260046.816 9  19844541.18049
  23754965.828 2  23754988.246 8 124833186.486 2  97272417.422 8  23754987.88746
  23180728.852 5  23180749.145 8 121815545.025 5  94921033.681 8  23180748.03547
 23  3 10  2 58  1.0000000  0  8G04G08G09G16G26G27G28G31            
  21263992.531 6  21264002.430 9 111743031.150 6  87072529.753 9  21264002.30148
  20994679.586 6  20994693.918 9 110327785.797 6  85969887.709 9  20994693.09049
  23466201.055 3  23466214.594 8 123315704.144 3  96090224.477 8  23466214.34047
  21180396.797 6                 111303731.363 6  86730209.29448  21180403.74248
  22578772.758 4  22578788.879 9 118652264.325 4  92456138.619 9  22578788.96947
  19844568.344 7  19844578.164 9 104283907.396 7  81260197.841 9  19844578.14149
  23755494.344 2  23755516.871 8 124835964.061 2  97274581.783 8  23755516.35245
  23181179.906 5  23181200.082 8 121817914.706 5  94922880.185 8  23181198.84847
 23  3 10  2 58  2.0000000  0  8G04G08G09G16G26G27G28G31            
  21263926.211 6  21263935.949 9 111742682.795 6  87072258.297 9  21263935.93848
  20994316.484 6  20994330.547 9 110325876.530 6  85968399.968 9  20994329.52049
  23465826.188 4  23465840.273 8 123313736.690 4  96088691.393 8  23465839.97747
  21180664.352 6                 111305137.554 6  86731305.02048  21180671.47748
  22579178.227 4  22579194.328 9 118654395.991 4  92457799.663 9  22579194.60547
  19844605.320 7  19844615.367 9 104284102.230 7  81260349.655 9  19844615.02349
  23756023.047 2  23756045.816 8 124838742.276 2  97276746.642 8  23756045.02345
  23181631.313 5  23181651.070 8 121820284.974 5  94924727.146 8  23181649.78547
 23  3 10  2 58  3.0000000  0  8G04G08G09G16G26G27G28G31            
  21263860.531 6  21263870.117 9 111742335.348 6  87071987.570 9  21263869.86348
  20993952.945 6  20993967.402 9 110323968.069 6  85966912.859 9  20993966.67249
  23465451.727 3  23465466.152 8 123311770.033 3  96087158.933 8  23465465.86747
  21180932.117 6                 111306544.146 6  86732401.05848  21180938.99248
  22579584.641 4  22579599.941 9 118656527.896 4  92459460.873 9  22579600.41047
  19844642.672 7  19844652.582 9 104284298.011 7  81260502.214 9  19844652.41049
  23756551.766 2  23756574.223 8 124841521.002 2  97278911.897 8  23756573.77345
  23182082.594 5  23182102.234 8 121822655.799 5  94926574.533 8  23182101.10247
 23  3 10  2 58  4.0000000  0  8G04G08G09G16G26G27G28G31            
  21263794.156 6  21263804.113 9 111741988.735 6  87071717.482 9  21263804.07448
  20993590.281 6  20993604.145 9 110322060.293 6  85965426.280 9  20993603.62949
  23465077.859 3  23465092.137 8 123309803.966 3  96085626.939 8  23465091.73047
  21181199.836 6                 111307951.060 6  86733497.34948  21181206.73848
  22579990.727 4  22580005.715 9 118658659.958 4  92461122.212 9  22580006.14547
  19844680.203 7  19844690.211 9 104284494.641 7  81260655.429 9  19844689.90649
  23757080.391 2  23757103.172 8 124844300.216 2  97281077.516 8  23757102.65645
  23182533.359 5  23182553.563 8 121825027.049 5  94928422.258 8  23182552.25847
 23  3 10  2 58  5.0000000  0  8G04G08G09G16G26G27G28G31            
  21263728.797 6  21263738.164 9 111741642.996 6  87071448.067 9  21263738.29348
  20993227.367 6  20993241.355 9 110320153.300 6  85963940.312 9  20993240.78149
  23464704.234 4  23464717.859 8 123307838.605 4  96084095.479 8  23464717.48447
  21181467.797 6                 111309358.346 6  86734593.93248  21181474.50048
  22580395.820 5  22580411.543 9 118660792.240 5  92462783.725 9  22580411.87947
  19844717.484 7  19844727.617 9 104284692.214 7  81260809.379 9  19844727.42249
  23757609.305 2  23757631.996 8 124847079.933 2  97283243.539 8  23757631.63345
  23182984.531 5  23183005.195 8 121827398.853 5  94930270.419 8  23183003.73447
 23  3 10  2 58  6.0000000  0  8G04G08G09G16G26G27G28G31            
  21263663.250 6  21263672.848 9 111741298.210 6  87071179.404 9  21263672.82448
  20992864.578 6  20992878.566 9 110318247.134 6  85962454.992 9  20992877.82449
  23464330.289 4  23464344.078 8 123305874.069 4  96082564.679 8  23464343.67247
  21181735.477 6                 111310766.107 6  86735690.89348  21181742.55148
  22580801.789 5  22580817.215 9 118662924.841 5  92464445.479 9  22580817.65247
  19844755.117 7  19844765.496 9 104284890.772 7  81260964.105 9  19844765.10549
  23758138.938 2  23758161.176 8 124849860.289 2  97285410.055 8  23758160.60545
  23183436.563 5  23183456.551 8 121829771.226 5  94932119.019 8  23183455.30947
 23  3 10  2 58  7.0000000  0  8G04G08G09G16G26G27G28G31            
  21263597.906 6  21263607.445 9 111740954.385 6  87070911.485 9  21263607.39848
  20992502.031 6  20992516.012 9 110316341.794 6  85960970.305 9  20992515.27749
  23463956.320 3  23463970.156 8 123303910.313 3  96081034.492 8  23463970.02047
  21182003.609 6                 111312174.310 6  86736788.18348  21182010.52348
  22581207.664 5  22581223.387 9 118665057.739 5  92466107.455 9  22581223.59447
  19844793.719 7  19844803.324 9 104285090.321 7  81261119.592 9  19844803.15649
  23758668.063 2  23758690.195 8 124852641.205 2  97287577.014 8  23758689.73445
  23183887.750 5  23183908.242 8 121832144.220 5  94933968.099 8  23183906.82047
 23  3 10  2 58  8.0000000  0  8G04G08G09G16G26G27G28G31            
  21263532.203 6  21263542.230 9 111740611.601 6  87070644.379 9  21263542.13348
  20992139.516 6  20992153.398 9 110314437.393 6  85959486.355 9  20992152.93449
  23463583.492 3  23463596.473 8 123301947.462 3  96079504.995 8  23463596.59447
  21182271.773 6                 111313583.046 6  86737885.89648  21182278.67648
  22581613.445 5  22581629.566 9 118667191.008 5  92467769.738 9  22581629.46547
  19844831.867 7  19844841.648 9 104285290.963 7  81261275.931 9  19844841.21149
  23759197.945 2  23759219.508 8 124855422.859 2  97289744.542 8  23759218.93045
  23184339.305 5  23184359.832 8 121834517.884 5  94935817.699 8  23184358.44947
 23  3 10  2 58  9.0000000  0  8G04G08G09G16G26G27G28G31            
  21263467.172 6  21263477.074 9 111740269.928 6  87070378.144 9  21263477.18848
  20991777.727 6  20991791.480 9 110312534.020 6  85958003.211 9  20991790.66849
  23463210.070 4  23463223.344 8 123299985.544 4  96077976.206 8  23463223.07847
  21182539.688 6                 111314992.396 6  86738984.08848  21182546.93448
  22582019.563 5  22582035.461 9 118669324.718 5  92469432.354 9  22582035.46947
  19844869.922 7  19844879.793 9 104285492.733 7  81261433.160 9  19844879.71149
  23759726.953 2  23759748.793 8 124858205.221 2  97291912.614 8  23759748.46545
  23184791.438 5  23184811.488 8 121836892.271 5  94937667.860 8  23184810.26647
 23  3 10  2 58 10.0000000  0  8G04G08G09G16G26G27G28G31            
  21263402.664 6  21263412.289 9 111739929.128 6  87070112.573 9  21263412.36348
  20991415.227 6  20991429.305 9 110310631.423 6  85956520.678 9  20991428.78549
  23462836.375 3  23462850.023 8 123298024.293 3  96076447.945 8  23462849.81347
  21182807.930 6                 111316402.118 6  86740082.56948  21182815.22348
  22582425.023 5  22582441.586 9 118671458.682 5  92471095.165 9  22582441.50047
  19844908.656 7  19844918.574 9 104285695.447 7  81261591.112 9  19844918.29349
  23760256.289 2  23760278.391 8 124860988.126 2  97294081.127 8  23760277.93445
  23185243.641 5  23185263.758 8 121839267.192 5  94939518.451 8  23185262.27347
 23  3 10  2 58 11.0000000  0  8G04G08G09G16G26G27G28G31            
  21263337.695 6  21263347.637 9 111739589.200 6  87069847.695 9  21263347.90648
  20991053.438 6  20991067.340 9 110308729.547 6  85955038.695 9  20991066.78949
  23462463.648 3  23462477.266 8 123296063.787 3  96074920.288 8  23462476.75847
  21183076.039 6                 111317812.214 6  86741181.34248  21183083.47348
  22582831.773 4  22582847.832 9 118673592.858 4  92472758.153 9  22582847.69947
  19844947.594 7  19844957.336 9 104285899.064 7  81261749.780 9  19844957.02049
  23760786.016 2  23760807.988 8 124863771.542 2  97296250.012 8  23760807.51645
  23185695.188 5  23185715.688 8 121841642.610 5  94941369.429 8  23185714.30547
 23  3 10  2 58 12.0000000  0  8G04G08G09G16G26G27G28G31            
  21263273.508 6  21263283.164 9 111739250.119 6  87069583.465 9  21263283.32448
  20990691.391 6  20990705.723 9 110306828.417 6  85953557.309 9  20990705.03549
  23462090.719 4  23462104.227 8 123294103.914 4  96073393.104 8  23462103.75047
  21183344.617 6                 111319222.642 6  86742280.36748  21183351.87148
  22583238.078 4  22583254.047 9 118675727.230 4  92474421.296 9  22583253.90647
  19844986.180 7  19844996.168 9 104286103.563 7  81261909.128 9  19844995.89849
  23761316.031 2  23761337.434 8 124866555.494 2  97298419.307 8  23761337.35245
  23186147.109 5  23186168.016 8 121844018.535 5  94943220.794 8  23186166.50447
 23  3 10  2 58 13.0000000  0  8G04G08G09G16G26G27G28G31            
  21263208.820 6  21263218.852 9 111738911.979 6  87069319.972 9  21263218.87948
  20990329.883 6  20990344.141 9 110304928.137 6  85952076.563 9  20990343.43849
  23461717.867 4  23461731.199 8 123292144.856 4  96071866.572 8  23461730.93847
  21183613.156 6                 111320633.520 6  86743379.74348  21183620.31648
  22583644.336 5  22583660.055 9 118677861.896 5  92476084.681 9  22583659.93847
  19845025.633 7  19845035.422 9 104286309.065 7  81262069.263 9  19845034.91849
  23761845.539 2  23761867.531 8 124869339.986 2  97300589.037 8  23761867.13345
  23186599.227 5  23186620.355 8 121846395.028 5  94945072.605 8  23186619.01247
 23  3 10  2 58 14.0000000  0  8G04G08G09G16G26G27G28G31            
  21263144.609 6  21263154.758 9 111738574.576 6  87069057.068 9  21263154.71548
  20989968.367 6  20989982.512 9 110303028.460 6  85950596.296 9  20989981.95349
  23461344.984 4  23461358.535 8 123290186.369 4  96070340.480 8  23461358.35247
  21183881.555 6                 111322044.627 6  86744479.31348  21183888.89548
  22584050.289 5  22584066.332 9 118679996.620 5  92477748.089 9  22584066.16847
  19845064.750 7  19845074.773 9 104286515.327 7  81262229.979 9  19845074.31649
  23762375.055 2  23762397.355 8 124872124.848 2  97302759.058 8  23762397.10545
  23187051.961 5  23187072.430 8 121848771.881 5  94946924.691 8  23187071.17247
 23  3 10  2 58 15.0000000  0  8G04G08G09G16G26G27G28G31            
  21263081.188 6  21263090.977 9 111738238.180 6  87068794.939 9  21263090.80148
  20989607.094 6  20989621.211 9 110301129.691 6  85949116.734 9  20989620.51249
  23460971.891 4  23460985.836 8 123288228.714 4  96068815.014 8  23460985.84447
  21184150.500 6                 111323456.234 6  86745579.27148  21184157.49248
  22584456.656 5  22584472.734 9 118682131.727 5  92479411.807 9  22584472.34047
  19845104.141 7  19845114.055 9 104286722.647 7  81262391.523 9  19845113.75449
  23762904.984 3  23762927.508 8 124874910.424 3  97304929.638 8  23762927.11345
  23187503.859 5  23187524.848 8 121851149.412 5  94948777.299 8  23187523.62547
 23  3 10  2 58 16.0000000  0  8G04G08G09G16G26G27G28G31            
  21263017.125 6  21263026.746 9 111737902.765 6  87068533.576 9  21263026.82448
  20989246.000 6  20989259.664 9 110299231.750 6  85947637.821 9  20989259.35249
  23460600.078 4  23460613.598 8 123286271.862 4  96067290.185 8  23460613.37547
  21184419.375 6                 111324868.333 6  86746679.60748  21184426.16448
  22584862.734 5  22584878.992 9 118684267.123 5  92481075.738 9  22584878.60247
  19845144.156 7  19845153.746 9 104286930.989 7  81262553.865 9  19845153.35549
  23763436.320 2  23763457.789 8 124877696.559 2  97307100.649 8  23763457.18445
  23187956.156 5  23187977.449 8 121853527.493 5  94950630.336 8  23187976.22347
 23  3 10  2 58 17.0000000  0  8G04G08G09G16G26G27G28G31            
  21262953.781 6  21262963.574 9 111737568.268 6  87068272.924 9  21262963.32448
  20988885.078 6  20988898.758 9 110297334.606 6  85946159.521 9  20988898.40249
  23460227.797 4  23460241.754 8 123284315.737 4  96065765.947 8  23460241.20348
  21184687.977 6                 111326280.833 6  86747780.24948  21184694.79348
  22585269.328 4  22585285.418 9 118686402.796 4  92482739.901 9  22585284.96947
  19845184.102 7  19845193.535 9 104287140.270 7  81262716.943 9  19845193.02049
  23763965.531 3  23763988.148 8 124880483.238 3  97309272.090 8  23763987.52345
  23188409.219 5  23188430.246 8 121855906.179 5  94952483.858 8  23188428.91847
 23  3 10  2 58 18.0000000  0  8G04G08G09G16G26G27G28G31            
  21262889.656 6  21262899.969 9 111737234.642 6  87068012.947 9  21262899.78548
  20988524.008 6  20988537.961 9 110295438.229 6  85944681.829 9  20988537.65649
  23459855.531 4  23459869.625 8 123282360.354 4  96064242.284 8  23459869.27048
  21184956.234 6                 111327693.714 6  86748881.19048  21184963.56648
  22585676.055 4  22585691.898 9 118688538.709 4  92484404.232 9  22585691.27747
  19845223.836 7  19845233.301 9 104287350.480 7  81262880.744 9  19845232.95349
  23764495.953 3  23764518.609 8 124883270.543 3  97311444.011 8  23764517.99246
  23188861.469 5  23188883.031 8 121858285.389 5  94954337.780 8  23188881.84047
 23  3 10  2 58 19.0000000  0  8G04G08G09G16G26G27G28G31            
  21262827.055 6  21262836.449 9 111736901.992 6  87067753.738 9  21262836.39848
  20988163.289 6  20988177.281 9 110293542.717 6  85943204.816 9  20988176.88349
  23459482.875 4  23459497.570 8 123280405.774 4  96062719.235 8  23459497.40647
  21185226.125 6                 111329107.035 6  86749982.48848  21185232.61348
  22586082.555 5  22586098.414 9 118690674.896 5  92486068.773 9  22586097.89847
  19845264.398 7  19845273.570 9 104287561.692 7  81263045.323 9  19845273.25049
  23765026.844 2  23765049.039 8 124886058.366 2  97313616.338 8  23765048.53946
  23189314.648 5  23189335.816 8 121860665.180 5  94956192.167 8  23189334.73447
 23  3 10  2 58 20.0000000  0  8G04G08G09G16G26G27G28G31            
  21262763.602 6  21262773.438 9 111736570.341 6  87067495.297 9  21262773.39848
  20987802.867 6  20987816.613 9 110291648.069 6  85941728.468 9  20987816.47349
  23459111.984 4  23459126.113 8 123278452.022 4  96061196.831 8  23459125.56647
  21185494.711 6                 111330520.869 6  86751084.17348  21185501.50448
  22586489.086 4  22586505.059 9 118692811.450 4  92487733.619 9  22586504.45747
  19845304.242 7  19845313.746 9 104287773.945 7  81263210.704 9  19845313.62549
  23765558.445 3  23765579.855 8 124888846.867 3  97315789.197 8  23765579.11346
  23189767.922 5  23189788.590 8 121863045.592 5  94958047.022 8  23189787.69947
 23  3 10  2 58 21.0000000  0  8G04G08G09G16G26G27G28G31            
  21262700.867 6  21262710.426 9 111736239.740 6  87067237.697 9  21262710.48048
  20987442.391 6  20987456.531 9 110289754.427 6  85940252.907 9  20987455.92649
  23458740.383 4  23458754.453 8 123276499.153 4  96059675.116 8  23458753.96548
  21185763.852 6                 111331935.285 6  86752186.31348  21185770.71548
  22586894.945 5  22586911.816 9 118694948.421 5  92489398.787 9  22586911.23047
  19845345.023 7  19845354.582 9 104287987.315 7  81263376.971 9  19845354.12549
  23766088.680 3  23766110.570 8 124891636.064 3  97317962.601 8  23766109.93445
  23190220.711 5  23190242.004 8 121865426.731 5  94959902.457 8  23190240.89847
 23  3 10  2 58 22.0000000  0  8G04G08G09G16G26G27G28G31            
  21262637.688 6  21262647.496 9 111735909.988 6  87066980.738 9  21262647.84048
  20987082.344 6  20987096.625 9 110287861.470 6  85938777.876 9  20987095.71549
  23458369.609 4  23458383.004 8 123274546.950 4  96058153.922 8  23458382.38748
  21186033.219 6                 111333349.998 6  86753288.68448  21186040.17648
  22587302.258 5  22587318.266 9 118697085.524 5  92491064.063 9  22587317.91047
  19845385.633 7  19845395.363 9 104288201.551 7  81263543.902 9  19845394.84849
  23766619.828 2  23766641.461 8 124894425.709 2  97320136.344 8  23766640.79346
  23190673.727 5  23190694.934 8 121867808.336 5  94961758.255 8  23190694.09847
 23  3 10  2 58 23.0000000  0  8G04G08G09G16G26G27G28G31            
  21262575.250 6  21262585.145 9 111735581.302 6  87066724.614 9  21262585.10548
  20986722.117 6  20986736.344 9 110285969.489 6  85937303.598 9  20986735.82049
  23457998.297 4  23458011.426 8 123272595.694 4  96056633.447 8  23458011.03147
  21186302.594 6                 111334765.285 6  86754391.50248  21186309.58648
  22587708.859 5  22587725.285 9 118699223.080 5  92492729.691 9  22587724.84447
  19845426.617 7  19845436.250 9 104288416.897 7  81263711.706 9  19845435.82449
  23767151.203 3  23767172.520 8 124897216.091 3  97322310.663 8  23767171.82445
  23191126.813 5  23191148.563 8 121870190.650 5  94963614.597 8  23191147.39147
 23  3 10  2 58 24.0000000  0  8G04G08G09G16G26G27G28G31            
  21262512.820 6  21262522.652 9 111735253.525 6  87066469.198 9  21262522.71148
  20986362.250 6  20986376.496 9 110284078.328 6  85935829.968 9  20986375.73049
  23457626.281 4  23457640.375 8 123270645.143 4  96055113.524 8  23457639.98047
  21186571.813 6                 111336180.983 6  86755494.63448  21186579.03148
  22588116.195 5  22588131.762 9 118701360.883 5  92494395.493 9  22588131.52047
  19845467.625 7  19845477.621 9 104288633.181 7  81263880.231 9  19845477.02749
  23767681.273 2  23767703.332 8 124900007.051 2  97324485.479 8  23767702.84845
  23191580.352 5  23191602.059 8 121872573.480 5  94965471.352 8  23191600.95347
 23  3 10  2 58 25.0000000  0  8G04G08G09G16G26G27G28G31            
  21262450.820 6  21262460.770 9 111734926.777 6  87066214.581 9  21262460.42248
  20986002.523 6  20986016.852 9 110282188.099 6  85934357.068 9  20986015.90249
  23457255.688 4  23457269.234 8 123268695.454 4  96053594.286 8  23457268.97748
  21186841.219 6                 111337597.218 6  86756598.18948  21186848.41048
  22588522.836 5  22588538.875 9 118703499.038 5  92496061.577 9  22588538.26247
  19845509.133 7  19845519.008 9 104288850.558 7  81264049.620 9  19845518.36349
  23768212.414 3  23768234.520 8 124902798.640 3  97326660.749 8  23768233.98045
  23192033.945 5  23192055.770 8 121874957.013 5  94967328.643 8  23192054.63747
 23  3 10  2 58 26.0000000  0  8G04G08G09G16G26G27G28G31            
  21262388.883 6  21262398.551 9 111734600.893 6  87065960.653 9  21262398.64848
  20985643.109 6  20985657.125 9 110280298.606 6  85932884.734 9  20985656.44149
  23456884.625 4  23456898.254 8 123266746.496 4  96052075.610 8  23456898.11347
  21187111.109 6                 111339013.809 6  86757702.02048  21187118.05548
  22588929.820 5  22588945.867 9 118705637.466 5  92497727.881 9  22588945.16047
  19845550.500 7  19845560.402 9 104289068.839 7  81264219.702 9  19845560.02349
  23768744.094 2  23768765.844 8 124905590.813 2  97328836.458 8  23768765.12545
  23192488.211 5  23192509.309 8 121877341.037 5  94969186.313 8  23192508.23847
 23  3 10  2 58 27.0000000  0  8G04G08G09G16G26G27G28G31            
  21262326.953 6  21262336.801 9 111734275.792 6  87065707.325 9  21262336.79748
  20985283.422 6  20985297.621 9 110278409.764 6  85931412.908 9  20985297.05949
  23456513.375 4  23456527.785 8 123264798.146 4  96050557.424 8  23456527.46947
  21187381.023 6                 111340430.684 6  86758806.07648  21187387.59448
  22589336.625 5  22589352.473 9 118707775.974 5  92499394.249 9  22589352.23447
  19845592.328 7  19845602.195 9 104289287.938 7  81264390.438 9  19845601.60949
  23769274.820 3  23769297.301 8 124908383.314 3  97331012.428 8  23769296.53945
  23192941.438 5  23192962.652 8 121879725.451 5  94971044.304 8  23192962.14147
 23  3 10  2 58 28.0000000  0  8G04G08G09G16G26G27G28G31            
  21262264.984 6  21262275.270 9 111733951.678 6  87065454.760 9  21262275.16448
  20984923.898 6  20984938.242 9 110276521.798 6  85929941.772 9  20984937.68049
  23456142.992 4  23456157.023 8 123262850.590 4  96049039.848 8  23456156.87947
  21187650.625 6                 111341848.049 6  86759910.51748  21187657.27748
  22589743.703 5  22589759.445 9 118709914.808 5  92501060.855 9  22589759.24247
  19845634.531 7  19845644.246 9 104289508.061 7  81264561.954 9  19845643.51249
  23769806.680 3  23769828.734 8 124911176.535 3  97333188.979 8  23769828.05146
  23193395.547 4  23193416.887 8 121882110.562 4  94972902.825 8  23193415.85947
 23  3 10  2 58 29.0000000  0  8G04G08G09G16G26G27G28G31            
  21262203.672 6  21262213.574 9 111733628.714 6  87065203.100 9  21262213.64548
  20984565.242 6  20984579.297 9 110274634.875 6  85928471.450 9  20984578.55149
  23455772.250 4  23455786.805 8 123260904.023 4  96047523.035 8  23455786.35547
  21187920.547 6                 111343266.025 6  86761015.42148  21187927.14148
  22590150.938 5  22590166.660 9 118712054.139 5  92502727.859 9  22590166.60247
  19845676.734 7  19845686.094 9 104289729.367 7  81264734.405 9  19845685.61749
  23770338.516 3  23770360.434 8 124913970.493 3  97335366.104 8  23770359.71546
  23193849.727 5  23193871.070 8 121884496.383 5  94974761.894 8  23193869.91447
 23  3 10  2 58 30.0000000  0  8G04G08G09G16G26G27G28G31            
  21262142.445 6  21262152.500 9 111733306.638 6  87064952.131 9  21262152.41448
  20984206.328 6  20984220.277 9 110272748.736 6  85927001.740 9  20984219.55949
  23455401.914 4  23455416.582 8 123258958.188 4  96046006.793 8  23455415.83647
  21188190.625 6                 111344684.413 6  86762120.66048  21188197.19948
  22590558.570 5  22590573.875 9 118714193.726 5  92504395.063 9  22590573.54347
  19845718.742 7  19845728.480 9 104289951.604 7  81264907.579 9  19845728.01249
  23770871.031 4  23770892.063 8 124916764.988 4  97337543.650 8  23770891.52346
  23194303.555 5  23194325.285 8 121886882.769 5  94976621.416 8  23194324.16447
 23  3 10  2 58 31.0000000  0  8G04G08G09G16G26G27G28G31            
  21262081.656 6  21262091.605 9 111732985.351 6  87064701.768 9  21262091.14148
  20983847.500 6  20983861.520 9 110270863.274 6  85925532.558 9  20983860.55149
  23455031.703 4  23455046.105 8 123257012.967 4  96044491.046 8  23455045.71147
  21188460.180 6                 111346103.082 6  86763226.11548  21188467.14848
  22590964.961 5  22590981.168 9 118716333.471 5  92506062.382 9  22590980.71147
  19845761.625 7  19845771.098 9 104290174.683 7  81265081.402 9  19845770.48049
  23771403.047 3  23771424.203 8 124919559.919 3  97339721.532 8  23771423.44946
  23194757.445 4  23194779.363 8 121889269.554 4  94978481.237 8  23194778.53947
 23  3 10  2 58 32.0000000  0  8G04G08G09G16G26G27G28G31            
  21262020.570 6  21262030.406 9 111732665.053 6  87064452.184 9  21262030.20348
  20983488.953 6  20983502.848 9 110268978.691 6  85924064.046 9  20983501.85549
  23454661.984 4  23454675.918 8 123255068.592 4  96042975.951 8  23454675.72747
  21188730.648 6                 111347522.236 6  86764331.94248  21188737.18048
  22591372.406 5  22591388.164 9 118718473.487 5  92507729.920 9  22591387.95747
  19845803.766 7  19845813.566 9 104290398.782 7  81265256.023 9  19845813.14549
  23771934.711 3  23771956.035 8 124922355.483 3  97341899.886 8  23771955.34845
  23195211.883 4  23195233.574 8 121891656.957 4  94980341.556 8  23195232.88747
 23  3 10  2 58 33.0000000  0  8G04G08G09G16G26G27G28G31            
  21261960.008 6  21261969.449 9 111732345.620 6  87064203.266 9  21261969.52748
  20983130.289 6  20983144.203 9 110267094.855 6  85922596.123 9  20983143.43049
  23454291.977 3  23454306.281 8 123253124.883 3  96041461.381 8  23454305.90247
  21189000.328 6                 111348941.741 6  86765438.04748  21189007.35548
  22591779.445 5  22591795.301 9 118720613.741 5  92509397.651 9  22591795.29747
  19845846.828 7  19845856.566 9 104290623.760 7  81265431.328 9  19845856.01649
  23772467.031 4  23772488.020 8 124925151.546 4  97344078.640 8  23772487.54346
  23195666.375 5  23195688.238 8 121894044.877 5  94982202.273 8  23195687.48447
 23  3 10  2 58 34.0000000  0  8G04G08G09G16G26G27G28G31            
  21261898.992 6  21261908.910 9 111732026.973 6  87063954.965 9  21261908.89548
  20982772.188 6  20982785.945 9 110265211.727 6  85921128.752 9  20982785.08249
  23453921.898 3  23453936.453 8 123251181.812 3  96039947.299 8  23453936.28547
  21189270.445 6                 111350361.537 6  86766544.36848  21189277.70748
  22592187.289 5  22592202.762 9 118722754.138 5  92511065.472 9  22592202.69147
  19845889.625 7  19845899.586 9 104290849.594 7  81265607.309 9  19845899.01249
  23772999.500 4  23773020.141 8 124927948.064 4  97346257.758 8  23773019.69146
  23196120.750 4  23196142.848 8 121896433.192 4  94984063.284 8  23196142.07047
 23  3 10  2 58 35.0000000  0  8G04G08G09G16G26G27G28G31            
  21261838.703 6  21261848.340 9 111731709.215 6  87063707.356 9  21261848.31348
  20982414.125 6  20982427.914 9 110263329.372 6  85919661.983 9  20982426.75849
  23453551.633 3  23453566.770 8 123249239.477 3  96038433.786 8  23453566.65247
  21189540.477 6                 111351781.727 6  86767651.00848  21189547.95748
  22592594.039 5  22592610.063 9 118724894.755 5  92512733.472 9  22592610.03547
  19845932.898 7  19845942.504 9 104291076.361 7  81265784.009 9  19845942.09049
  23773531.164 4  23773552.477 8 124930745.137 4  97348437.297 8  23773551.89146
  23196575.570 5  23196597.617 8 121898822.037 5  94985924.726 8  23196596.61747
 23  3 10  2 58 36.0000000  0  8G04G08G09G16G26G27G28G31            
  21261778.172 6  21261788.242 9 111731392.465 6  87063460.530 9  21261788.05548
  20982056.008 6  20982069.770 9 110261447.874 6  85918195.886 9  20982068.66449
  23453182.242 3  23453197.547 8 123247297.967 3  96036920.923 8  23453197.29747
  21189811.117 6                 111353202.379 6  86768758.01348  21189818.35548
  22593002.133 5  22593017.852 9 118727035.685 5  92514401.729 9  22593017.50847
  19845976.375 7  19845985.797 9 104291304.150 7  81265961.506 9  19845985.52049
  23774063.688 4  23774084.906 8 124933542.809 4  97350617.309 8  23774084.27046
  23197029.375 4  23197052.230 8 121901211.533 4  94987786.676 8  23197051.32447
 23  3 10  2 58 37.0000000  0  8G04G08G09G16G26G27G28G31            
  21261718.289 6  21261727.938 9 111731076.624 6  87063214.420 9  21261727.80148
  20981698.211 6  20981711.727 9 110259567.204 6  85916730.437 9  20981710.58649
  23452812.984 3  23452828.648 8 123245357.215 3  96035408.654 8  23452827.95347
  21190081.258 6                 111354623.509 6  86769865.38448  21190088.84848
  22593409.297 5  22593424.988 9 118729176.935 5  92516070.227 9  22593424.96947
  19846020.195 7  19846029.430 9 104291532.913 7  81266139.769 9  19846029.12149
  23774597.055 4  23774617.480 8 124936341.073 4  97352797.779 8  23774616.69146
  23197484.992 4  23197507.113 8 121903601.621 4  94989649.066 8  23197506.02747
 23  3 10  2 58 38.0000000  0  8G04G08G09G16G26G27G28G31            
  21261658.617 6  21261668.031 9 111730761.685 6  87062969.010 9  21261668.06348
  20981340.477 6  20981354.094 9 110257687.314 6  85915265.583 9  20981352.87549
  23452444.398 3  23452459.309 8 123243417.202 3  96033896.957 8  23452458.63747
  21190352.047 6                 111356044.993 6  86770973.02948  21190359.45748
  22593816.352 5  22593832.355 9 118731318.377 5  92517738.869 9  22593832.53947
  19846063.578 7  19846073.230 9 104291762.615 7  81266318.747 9  19846072.84049
  23775129.523 4  23775150.129 8 124939139.867 4  97354978.659 8  23775149.47746
  23197939.313 4  23197962.008 9 121905992.197 4  94991511.850 9  23197960.99247
 23  3 10  2 58 39.0000000  0  8G04G08G09G16G26G27G28G31            
  21261598.883 6  21261607.926 9 111730447.587 6  87062724.256 9  21261608.29748
  20980982.938 6  20980996.133 9 110255808.142 6  85913801.296 9  20980995.23049
  23452074.766 3  23452090.242 8 123241477.826 3  96032385.751 8  23452089.61347
  21190622.523 6                 111357466.829 6  86772080.94348  21190629.76248
  22594223.961 5  22594240.035 9 118733460.042 5  92519407.699 9  22594240.07447
  19846107.453 7  19846116.875 9 104291993.189 7  81266498.412 9  19846116.64549
  23775661.688 4  23775682.832 8 124941939.142 4  97357159.912 8  23775682.19546
  23198394.641 4  23198416.801 9 121908383.304 4  94993375.042 9  23198416.04347
 23  3 10  2 58 40.0000000  0  8G04G08G09G16G26G27G28G31            
  21261538.875 6  21261548.676 9 111730134.518 6  87062480.306 9  21261548.47348
  20980625.453 6  20980638.840 9 110253929.923 6  85912337.755 9  20980637.65649
  23451706.867 3  23451721.414 8 123239539.370 3  96030875.268 8  23451720.66047
  21190893.305 6                 111358889.195 6  86773189.28248  21190900.54748
  22594631.703 5  22594647.719 9 118735602.103 5  92521076.821 9  22594647.63747
  19846151.453 7  19846161.117 9 104292224.859 7  81266678.933 9  19846160.87949
  23776194.758 4  23776215.859 8 124944739.102 4  97359341.705 8  23776215.09046
  23198849.859 4  23198871.898 8 121910775.040 4  94995238.737 8  23198871.26247
 23  3 10  2 58 41.0000000  0  8G04G08G09G16G26G27G28G31            
  21261479.727 6  21261489.246 9 111729822.327 6  87062237.034 9  21261488.91048
  20980268.195 6  20980281.910 9 110252052.447 6  85910874.786 9  20980280.53549
  23451337.852 3  23451352.625 8 123237601.611 3  96029365.321 8  23451351.96947
  21191164.109 6                 111360311.912 6  86774297.88348  21191171.47348
  22595039.734 5  22595055.094 9 118737744.321 5  92522746.070 9  22595055.24647
  19846195.695 7  19846205.359 9 104292457.407 7  81266860.138 9  19846205.17249
  23776726.977 3  23776748.680 8 124947539.583 3  97361523.893 8  23776747.97746
  23199304.914 5  23199326.887 8 121913167.277 5  94997102.807 8  23199326.39147
 23  3 10  2 58 42.0000000  0  8G04G08G09G16G26G27G28G31            
  21261420.609 6  21261430.090 9 111729511.104 6  87061994.521 9  21261429.71148
  20979911.203 6  20979924.566 9 110250175.853 6  85909412.510 9  20979923.38349
  23450969.313 3  23450983.996 8 123235664.642 3  96027855.988 8  23450983.32447
  21191434.773 6                 111361735.110 6  86775406.86848  21191442.19548
  22595447.477 5  22595463.070 9 118739886.873 5  92524415.582 9  22595462.97347
  19846240.047 7  19846249.910 9 104292690.991 7  81267042.156 9  19846249.61349
  23777259.734 4  23777281.793 8 124950340.627 4  97363706.542 8  23777281.03146
  23199760.945 5  23199782.188 8 121915560.162 5  94998967.378 8  23199781.71147
 23  3 10  2 58 43.0000000  0  8G04G08G09G16G26G27G28G31            
  21261361.078 6  21261370.988 9 111729200.822 6  87061752.732 9  21261370.81648
  20979554.297 6  20979567.699 9 110248300.076 6  85907950.861 9  20979566.21949
  23450601.039 3  23450615.566 8 123233728.473 3  96026347.290 8  23450614.92647
  21191705.992 6                 111363158.735 6  86776516.18348  21191713.18448
  22595855.328 5  22595870.793 9 118742029.713 5  92526085.309 9  22595870.70747
  19846284.750 7  19846294.242 9 104292925.537 7  81267224.913 9  19846294.09849
  23777792.750 4  23777814.820 8 124953142.289 4  97365889.669 8  23777814.22746
  23200216.008 4  23200237.820 8 121917953.552 4  95000832.351 8  23200236.99247
 23  3 10  2 58 44.0000000  0  8G04G08G09G16G26G27G28G31            
  21261302.445 6  21261312.098 9 111728891.418 6  87061511.644 9  21261311.80548
  20979197.563 6  20979210.699 9 110246425.046 6  85906489.808 9  20979209.53149
  23450232.422 3  23450247.055 8 123231792.926 3  96024839.067 8  23450246.75847
  21191976.992 6                 111364582.719 6  86777625.77448  21191984.06648
  22596262.969 5  22596278.508 9 118744172.789 5  92527755.232 9  22596278.38347
  19846329.750 7  19846339.086 9 104293161.006 7  81267408.391 9  19846339.04349
  23778325.820 3  23778347.961 8 124955944.521 3  97368073.220 8  23778347.53146
  23200671.539 5  23200693.363 8 121920347.479 5  95002697.748 8  23200692.36347
 23  3 10  2 58 45.0000000  0  8G04G08G09G16G26G27G28G31            
  21261243.531 6  21261253.145 9 111728582.870 6  87061271.211 9  21261252.82848
  20978840.594 6  20978854.031 9 110244550.761 6  85905029.328 9  20978852.85549
  23449864.250 3  23449878.961 8 123229858.162 3  96023331.465 8  23449878.68047
  21192247.469 6                 111366007.073 6  86778735.65648  21192255.00848
  22596670.305 5  22596686.398 9 118746316.038 5  92529425.296 9  22596686.36347
  19846374.609 7  19846384.324 9 104293397.383 7  81267592.584 9  19846383.92249
  23778859.227 3  23778881.441 8 124958747.189 3  97370257.114 8  23778881.01646
  23201127.023 5  23201149.230 8 121922741.912 5  95004563.525 8  23201147.96947
 23  3 10  2 58 46.0000000  0  8G04G08G09G16G26G27G28G31            
  21261185.484 6  21261194.695 9 111728275.188 6  87061031.456 9  21261194.35548
  20978484.281 6  20978497.641 9 110242677.287 6  85903569.481 9  20978496.15649
  23449495.961 3  23449510.934 8 123227924.071 3  96021824.400 8  23449510.68447
  21192518.852 6                 111367431.786 6  86779845.82048  21192526.33248
  22597078.242 5  22597094.332 9 118748459.557 5  92531095.562 9  22597094.32047
  19846419.820 7  19846429.746 9 104293634.671 7  81267777.479 9  19846429.16849
  23779393.234 3  23779414.797 8 124961550.383 3  97372441.429 8  23779414.44146
  23201582.422 5  23201604.883 8 121925136.880 5  95006429.730 8  23201603.75047
 23  3 10  2 58 47.0000000  0  8G04G08G09G16G26G27G28G31            
  21261126.828 6  21261136.266 9 111727968.438 6  87060792.425 9  21261135.92648
  20978127.648 6  20978141.266 9 110240804.604 6  85902110.246 9  20978139.60249
  23449128.492 3  23449142.762 8 123225990.760 3  96020317.922 8  23449142.74647
  21192790.211 6                 111368856.916 6  86780956.31348  21192797.54748
  22597486.320 5  22597502.289 9 118750603.313 5  92532766.005 9  22597502.21147
  19846465.320 7  19846475.043 9 104293872.904 7  81267963.117 9  19846474.64849
  23779925.461 3  23779948.395 8 124964354.160 3  97374626.198 8  23779948.05146
  23202038.328 4  23202060.168 8 121927532.375 4  95008296.342 8  23202059.59447
 23  3 10  2 58 48.0000000  0  8G04G08G09G16G26G27G28G31            
  21261068.617 6  21261078.234 9 111727662.528 6  87060554.049 9  21261077.75848
  20977771.375 6  20977785.188 9 110238932.650 6  85900651.577 9  20977783.55949
  23448760.578 3  23448775.105 8 123224058.093 3  96018811.942 8  23448774.73847
  21193061.430 6                 111370282.359 6  86782067.03648  21193068.74248
  22597893.711 5  22597910.168 9 118752747.228 5  92534436.577 9  22597910.21547
  19846510.508 7  19846520.520 9 104294112.015 7  81268149.434 9  19846519.93449
  23780459.930 3  23780482.121 8 124967158.378 3  97376811.311 8  23780481.73046
  23202493.828 4  23202516.176 8 121929928.317 4  95010163.304 8  23202515.50447
 23  3 10  2 58 49.0000000  0  8G04G08G09G16G26G27G28G31            
  21261010.641 6  21261020.141 9 111727357.543 6  87060316.400 9  21261019.77748
  20977415.273 6  20977429.254 9 110237061.517 6  85899193.555 9  20977427.52749
  23448393.594 4  23448407.477 8 123222126.250 4  96017306.601 8  23448407.07047
  21193332.727 6                 111371708.254 6  86783178.12348  21193340.14148
  22598303.000 5  22598318.402 9 118754891.437 5  92536107.379 9  22598318.17247
  19846556.227 7  19846565.969 9 104294352.127 7  81268336.534 9  19846565.70749
  23780993.672 3  23781016.016 8 124969963.240 3  97378996.926 8  23781015.65246
  23202950.773 4  23202972.113 8 121932324.863 4  95012030.732 8  23202971.55547
 23  3 10  2 58 50.0000000  0  8G04G08G09G16G26G27G28G31            
  21260952.391 6  21260962.109 9 111727053.406 6  87060079.410 9  21260962.05948
  20977059.688 6  20977073.352 9 110235191.120 6  85897736.108 9  20977071.53549
  23448025.836 3  23448040.051 8 123220195.036 3  96015801.765 8  23448039.52747
  21193604.023 6                 111373134.474 6  86784289.45848  21193611.35548
  22598710.391 5  22598726.402 9 118757035.841 5  92537778.329 9  22598726.39147
  19846602.156 7  19846612.141 9 104294593.101 7  81268524.305 9  19846611.69549
  23781527.688 4  23781549.578 8 124972768.568 4  97381182.887 8  23781549.29346
  23203406.344 4  23203428.488 9 121934721.914 4  95013898.568 9  23203427.66046
 23  3 10  2 58 51.0000000  0  8G04G08G09G16G26G27G28G31            
  21260895.016 6  21260904.504 9 111726750.166 6  87059843.112 9  21260904.19548
  20976703.844 6  20976717.445 9 110233321.536 6  85896279.286 9  20976715.78149
  23447658.523 3  23447672.313 8 123218264.574 3  96014297.506 8  23447672.01247
  21193875.734 6                 111374561.093 6  86785401.10448  21193882.86348
  22599118.633 5  22599134.559 9 118759180.486 5  92539449.478 9  22599134.53147
  19846648.219 7  19846658.078 9 104294835.028 7  81268712.818 9  19846657.66049
  23782061.844 3  23782083.270 8 124975574.422 3  97383369.280 8  23782083.23446
  23203862.914 4  23203884.773 9 121937119.457 4  95015766.775 9  23203883.91047
 23  3 10  2 58 52.0000000  0  8G04G08G09G16G26G27G28G31            
  21260837.906 6  21260847.164 9 111726447.794 6  87059607.492 9  21260846.55148
  20976348.414 6  20976362.000 9 110231452.675 6  85894823.031 9  20976359.98849
  23447291.531 3  23447305.281 8 123216334.791 3  96012793.780 8  23447304.81347
  21194146.961 6                 111375988.063 6  86786513.03548  21194154.47348
  22599527.305 5  22599542.836 9 118761325.328 5  92541120.766 9  22599542.70347
  19846694.578 7  19846704.230 9 104295077.830 7  81268902.012 9  19846703.85549
  23782596.242 3  23782617.500 8 124978380.826 3  97385556.087 8  23782617.34446
  23204319.297 4  23204341.082 8 121939517.464 4  95017635.357 8  23204340.34047
 23  3 10  2 58 53.0000000  0  8G04G08G09G16G26G27G28G31            
  21260779.867 6  21260789.746 9 111726146.406 6  87059372.646 9  21260789.09448
  20975992.484 6  20976006.320 9 110229584.699 6  85893367.469 9  20976004.66449
  23446924.523 3  23446938.098 8 123214405.827 3  96011290.699 8  23446937.91847
  21194418.461 6                 111377415.516 6  86787625.33048  21194426.00448
  22599935.383 5  22599950.848 9 118763470.515 5  92542792.337 9  22599950.85247
  19846740.820 7  19846750.602 9 104295321.668 7  81269092.019 9  19846750.26249
  23783130.063 3  23783151.906 8 124981187.830 3  97387743.379 8  23783151.63346
  23204775.891 4  23204797.387 8 121941916.134 4  95019504.447 8  23204796.65247
 23  3 10  2 58 54.0000000  0  8G04G08G09G16G26G27G28G31            
  21260722.656 6  21260732.566 9 111725846.085 6  87059138.628 9  21260732.19948
  20975637.711 6  20975651.016 9 110227717.686 6  85891912.650 9  20975649.48049
  23446557.148 3  23446571.055 8 123212477.791 3  96009788.333 8  23446571.14547
  21194691.008 6                 111378843.536 6  86788738.07148  21194697.85548
  22600342.906 5  22600359.168 9 118765616.102 5  92544464.213 9  22600358.89147
  19846787.047 7  19846797.230 9 104295566.629 7  81269282.896 9  19846796.92249
  23783664.055 3  23783686.371 8 124983995.531 3  97389931.203 8  23783685.93445
  23205231.539 4  23205254.102 8 121944315.528 4  95021374.104 8  23205253.12946
 23  3 10  2 58 55.0000000  0  8G04G08G09G16G26G27G28G31            
  21260666.055 6  21260675.742 9 111725546.844 6  87058905.451 9  21260675.19548
  20975282.688 6  20975295.777 9 110225851.633 6  85890458.586 9  20975294.25449
  23446190.406 3  23446204.313 8 123210550.644 3  96008286.667 8  23446204.29747
  21194962.406 6                 111380272.160 6  86789851.27548  21194969.62148
  22600752.078 5  22600767.645 9 118767762.093 5  92546136.407 9  22600767.40247
  19846833.953 7  19846844.098 9 104295812.707 7  81269474.638 9  19846843.81649
  23784198.594 3  23784220.672 8 124986803.966 3  97392119.590 8  23784220.46945
  23205689.172 4  23205710.648 8 121946715.613 4  95023244.295 8  23205709.74246
 23  3 10  2 58 56.0000000  0  8G04G08G09G16G26G27G28G31            
  21260609.094 6  21260619.012 9 111725248.438 6  87058672.924 9  21260618.50447
  20974927.219 6  20974940.902 9 110223986.318 6  85889005.096 9  20974939.30949
  23445822.953 3  23445837.781 8 123208624.184 3  96006785.534 8  23445837.76647
  21195234.602 6                 111381701.076 6  86790964.71948  21195241.66448
  22601160.016 5  22601176.043 9 118769908.322 5  92547808.791 9  22601175.80947
  19846881.039 7  19846890.801 9 104296059.649 7  81269667.063 9  19846890.85549
  23784733.352 3  23784755.137 8 124989612.893 3  97394308.367 8  23784754.88346
  23206145.781 4  23206167.508 8 121949116.152 4  95025114.852 8  23206166.50447
 23  3 10  2 58 57.0000000  0  8G04G08G09G16G26G27G28G31            
  21260553.070 6  21260562.219 9 111724950.739 6  87058440.940 9  21260561.91448
  20974572.453 6  20974586.246 9 110222121.592 6  85887552.066 9  20974584.53949
  23445456.625 3  23445471.313 8 123206698.237 3  96005284.801 8  23445471.24247
  21195506.461 6                 111383130.206 6  86792078.32548  21195513.62548
  22601568.664 5  22601584.293 9 118772054.580 5  92549481.191 9  22601584.17647
  19846928.117 7  19846938.141 9 104296307.336 7  81269860.063 9  19846938.04749
  23785267.703 3  23785289.906 8 124992422.144 3  97396497.395 8  23785289.34846
  23206602.391 4  23206624.406 8 121951517.086 4  95026985.706 8  23206623.50447
 23  3 10  2 58 58.0000000  0  8G04G08G09G16G26G27G28G31            
  21260496.180 6  21260505.422 9 111724653.875 6  87058209.619 9  21260505.18848
  20974217.742 6  20974231.438 9 110220257.581 6  85886099.596 9  20974229.89149
  23445089.539 3  23445104.883 8 123204772.988 3  96003784.610 8  23445104.75847
  21195778.477 6                 111384559.666 6  86793192.19248  21195785.48848
  22601977.047 5  22601992.883 9 118774200.961 5  92551153.682 9  22601992.55947
  19846975.664 7  19846985.555 9 104296555.896 7  81270053.749 9  19846985.42649
  23785801.313 3  23785824.371 8 124995231.919 3  97398686.840 8  23785824.10246
  23207059.602 4  23207081.309 8 121953918.455 4  95028856.899 8  23207080.43446
 23  3 10  2 58 59.0000000  0  8G04G08G09G16G26G27G28G31            
  21260440.141 6  21260449.129 9 111724357.791 6  87057978.894 9  21260448.89848
  20973863.445 6  20973876.789 9 110218394.233 6  85884647.640 9  20973875.36349
  23444724.492 2  23444738.766 8 123202848.396 2  96002284.927 8  23444738.57447
  21196050.555 6                 111385989.398 6  86794306.26148  21196057.67248
  22602385.977 5  22602401.297 9 118776347.507 5  92552826.308 9  22602401.02347
  19847023.008 7  19847033.164 9 104296805.290 7  81270248.075 9  19847032.90649
  23786336.664 3  23786358.746 8 124998042.061 3  97400876.567 8  23786358.88745
  23207517.867 4  23207537.926 8 121956320.215 4  95030728.392 8  23207537.38747
 23  3 10  2 59  0.0000000  0  8G04G08G09G16G26G27G28G31            
  21260383.461 6  21260393.273 9 111724062.627 6  87057748.893 9  21260392.73448
  20973508.609 6  20973522.465 9 110216531.689 6  85883196.309 9  20973520.96549
  23444357.891 2  23444372.809 8 123200924.510 2  96000785.790 8  23444372.44547
