     2.11           OBSERVATION DATA    Mixed(MIXED)        RINEX VERSION / TYPE
cnvtToRINEX 3.08.0  convertToRINEX OPR  10-Mar-23 03:43 UTC PGM / RUN BY / DATE 
----------------------------------------------------------- COMMENT             
CC02                                                        MARKER NAME         
CC02                                                        MARKER NUMBER       
GNSS Observer       Trimble                                 OBSERVER / AGENCY   
5313431884          R4-3                4.93                REC # / TYPE / VERS 
                    TRMR4-3         NONE                    ANT # / TYPE        
 -2956817.7205  5075778.9404  2476612.6469                  APPROX POSITION XYZ 
        1.8250        0.0000        0.0000                  ANTENNA: DELTA H/E/N
     1     1     0                                          WAVELENGTH FACT L1/2
     5    C1    C2    L1    L2    P2                        # / TYPES OF OBSERV 
  2023     3    10     2    55   25.0000000     GPS         TIME OF FIRST OBS   
  2023     3    10     3    28   25.0000000     GPS         TIME OF LAST OBS    
     0                                                      RCV CLOCK OFFS APPL 
    18                                                      LEAP SECONDS        
     8                                                      # OF SATELLITES     
   G04   397   397   397   794   397                        PRN / # OF OBS      
   G08   397   397   397   794   397                        PRN / # OF OBS      
   G09   299   247   267   493   246                        PRN / # OF OBS      
   G16   397     0   397   397   397                        PRN / # OF OBS      
   G26   208   164   184   203    39                        PRN / # OF OBS      
   G27   397   397   397   794   397                        PRN / # OF OBS      
   G28   185   169   175   315   146                        PRN / # OF OBS      
   G31   397   396   396   792   396                        PRN / # OF OBS      
CARRIER PHASE MEASUREMENTS: PHASE SHIFTS REMOVED            COMMENT             
                                                            END OF HEADER       
 23  3 10  2 55 25.0000000  0  7G04G08G16G26G27G28G31               
  21180844.961 6  21180855.020 9 111306087.739 6  86732049.979 9  21180854.37947
  20957342.695 6  20957355.977 9 110131578.690 6  85816834.451 9  20957354.77349
  21043741.367 6                 110585602.110 6  86170623.84747  21043747.77347
  22419868.484 1  22419883.707 8 117817195.86911  91805622.98318  22419881.46545
  19745001.391 6  19745011.117 9 103760680.659 6  80852515.728 9  19745010.55549
  23577790.359 4  23577813.676 9 123902132.460 4  96547144.979 9  23577812.87946
  23015597.180 3  23015619.270 8 120947759.731 3  94245084.737 8  23015617.66846
 23  3 10  2 55 30.0000000  0  7G04G08G16G26G27G28G31               
  21179451.563 6  21179461.102 9 111298763.146 6  86726342.479 9  21179460.40647
  20954480.852 6  20954494.844 9 110116539.428 6  85805115.541 9  20954493.03149
  21044089.711 6                 110587431.588 6  86172049.39447  21044096.16847
  22420927.719 1                                                
  19744118.313 6  19744127.809 9 103756038.642 6  80848898.571 9  19744127.24249
  23579423.586 5  23579446.449 9 123910712.094 5  96553830.452 9  23579445.78547
  23016843.984 3  23016864.570 8 120954306.701 3  94250186.210 8  23016863.29746
 23  3 10  2 55 35.0000000  0  7G04G08G16G26G27G28G31               
  21178062.320 6  21178071.727 9 111291461.455 6  86720652.851 9  21178071.31647
  20951622.625 6  20951636.949 9 110101519.931 6  85793412.055 9  20951635.14149
  21044439.680 6                 110589271.608 6  86173483.15147  21044446.39547
  22421990.211 1                                                
  19743239.555 7  19743249.340 9 103751420.719 7  80845300.178 9  19743248.68849
  23581058.555 5  23581081.543 9 123919305.925 5  96560526.938 9  23581081.04746
  23018092.047 3  23018111.762 8 120960867.462 3  94255298.405 8  23018110.84445
 23  3 10  2 55 40.0000000  0  6G04G08G16G27G28G31                  
  21176677.234 6  21176686.293 9 111284182.952 6  86714981.277 9  21176685.87947
  20948769.031 6  20948782.445 9 110086520.581 6  85781724.273 9  20948780.93449
  21044791.781 6                 110591122.598 6  86174925.45547  21044798.70347
  19742365.547 7  19742375.145 9 103746827.173 7  80841720.787 9  19742374.52049
  23582696.789 4  23582719.953 9 123927914.206 4  96567234.723 9  23582719.18846
  23019343.352 4  23019362.949 8 120967442.465 4  94260421.790 8  23019361.75446
 23  3 10  2 55 45.0000000  0  7G04G08G09G16G27G28G31               
  21175296.133 6  21175305.988 9 111276927.046 6  86709327.323 9  21175305.53147
  20945918.063 6  20945931.449 9 110071540.983 6  85770051.864 9  20945930.12949
  23419228.563 1                 123068835.11411                
  21045146.359 6                 110592983.876 6  86176375.79147  21045152.57047
  19741495.891 7  19741505.949 9 103742257.380 7  80838159.891 9  19741505.05949
  23584337.641 5  23584360.859 9 123936536.308 5  96573953.270 9  23584360.31347
  23020596.289 4  23020616.762 8 120974031.098 4  94265555.689 8  23020615.54746
 23  3 10  2 55 50.0000000  0  7G04G08G09G16G27G28G31               
  21173921.094 6  21173929.887 9 111269694.872 6  86703691.849 9  21173929.53547
  20943071.336 6  20943084.797 9 110056582.357 6  85758395.785 9  20943083.17249
  23416333.281 1                 123053622.753 1  95885987.32355  23416337.94545
  21045502.203 6                 110594856.619 6  86177835.03748  21045508.83648
  19740631.195 7  19740640.906 9 103737712.517 7  80834618.439 9  19740640.12549
  23585981.219 5  23586004.023 9 123945173.472 5  96580683.532 9  23586003.57847
  23021852.695 3  23021873.418 8 120980634.406 3  94270701.113 8  23021871.93046
 23  3 10  2 55 55.0000000  0  7G04G08G09G16G27G28G31               
  21172548.086 6  21172557.594 9 111262484.190 6  86698073.129 9  21172557.13347
  20940228.648 6  20940242.469 9 110041642.151 6  85746754.072 9  20940240.86349
  23413440.648 1                 123038427.599 1  95874147.06545  23413447.65245
  21045860.602 6                 110596738.498 6  86179301.42248  21045866.79748
  19739770.141 7  19739780.102 9 103733190.267 7  80831094.596 9  19739779.35949
  23587627.266 5  23587650.105 9 123953823.382 5  96587423.724 9  23587649.27047
  23023112.484 4  23023131.957 7 120987250.201 4  94275856.221 7  23023130.58646
 23  3 10  2 56  0.0000000  0  7G04G08G09G16G27G28G31               
  21171180.125 6  21171189.227 9 111255294.514 6  86692470.757 9  21171189.27748
  20937388.836 6  20937402.453 9 110026719.930 6  85735126.373 9  20937400.85549
  23410552.547 1  23410575.004 7 123023249.015 1  95862398.60417  23410561.82046
  21046220.586 6                 110598629.021 6  86180774.53347  21046227.02047
  19738914.180 7  19738923.914 9 103728690.157 7  80827588.006 9  19738923.22349
  23589275.227 5  23589298.059 9 123962485.493 5  96594173.433 9  23589297.52046
  23024373.539 5  23024393.613 7 120993877.943 5  94281020.666 7  23024391.68845
 23  3 10  2 56  5.0000000  0  7G04G08G09G16G27G28G31               
  21169815.688 6  21169825.055 9 111248125.690 6  86686884.641 9  21169824.69547
  20934552.656 6  20934566.523 9 110011815.620 6  85723512.630 9  20934565.26649
  23407668.633 1  23407688.789 7 123008087.059 1  95850584.043 7  23407678.84845
  21046581.930 6                 110600528.073 6  86182254.28548  21046587.95348
  19738061.539 7  19738071.324 9 103724212.059 7  80824098.574 9  19738070.35949
  23590926.125 5  23590948.777 9 123971159.679 5  96600932.559 9  23590947.74647
  23025635.977 4  23025656.723 8 121000517.620 4  94286194.421 8  23025654.98846
 23  3 10  2 56 10.0000000  0  7G04G08G09G16G27G28G31               
  21168455.898 6  21168465.230 9 111240978.646 6  86681315.506 9  21168464.49647
  20931719.945 6  20931733.777 9 109996930.347 6  85711913.720 9  20931732.46949
  23404783.234 1  23404806.258 7 122992942.504 1  95838783.000 7  23404799.20346
  21046944.977 6                 110602436.551 6  86183741.39648  21046951.13348
  19737214.016 7  19737223.629 9 103719756.906 7  80820627.017 9  19737222.57849
  23592579.680 5  23592602.066 9 123979846.928 5  96607701.866 9  23592601.18847
  23026902.602 3  23026923.586 8 121007170.045 3  94291378.097 8  23026921.52046
 23  3 10  2 56 15.0000000  0  7G04G08G09G16G27G28G31               
  21167099.961 6  21167109.461 9 111233853.312 6  86675763.275 9  21167108.84448
  20928891.320 6  20928905.137 9 109982063.841 6  85700329.457 9  20928903.88749
  23401904.289 1  23401925.625 7 122977815.240 1  95826995.479 7  23401920.13345
  21047309.664 6                 110604354.340 6  86185235.75748  21047316.09848
  19736370.633 7  19736380.227 9 103715324.593 7  80817173.261 9  19736379.21149
  23594236.195 5  23594257.176 9 123988547.097 5  96614481.229 9  23594256.50847
  23028170.258 3  23028191.559 8 121013835.114 3  94296571.624 8  23028189.80146
 23  3 10  2 56 20.0000000  0  7G04G08G09G16G27G28G31               
  21165748.594 6  21165757.660 9 111226750.881 6  86670228.904 9  21165756.91447
  20926065.828 6  20926079.766 9 109967217.332 6  85688760.752 9  20926078.21149
  23399028.813 1  23399052.598 7 122962706.579 1  95815222.401 7  23399043.67645
  21047676.680 6                 110606282.702 6  86186738.35848  21047683.41848
  19735531.484 7  19735541.156 9 103710916.329 7  80813738.242 9  19735540.31649
  23595894.172 5  23595915.508 9 123997261.418 5  96621271.625 9  23595914.69947
  23029442.031 4  23029461.762 8 121020514.085 4  94301775.980 8  23029461.02346
 23  3 10  2 56 25.0000000  0  7G04G08G09G16G27G28G31               
  21164401.258 6  21164410.230 9 111219670.161 6  86664711.445 9  21164409.77348
  20923244.195 6  20923258.027 9 109952389.600 6  85677206.680 9  20923256.39149
  23396158.891 1  23396189.250 6 122947615.303 1  95803462.754 6  23396169.24245
  21048045.477 6                 110608220.401 6  86188248.23948  21048051.55148
  19734697.266 7  19734706.840 9 103706530.907 7  80810321.021 9  19734706.11349
  23597554.977 6  23597576.434 9 124005988.659 6  96628072.083 9  23597575.65647
  23030715.906 4  23030735.996 8 121027205.766 4  94306990.252 8  23030734.60946
 23  3 10  2 56 30.0000000  0  7G04G08G09G16G27G28G31               
  21163057.922 6  21163067.066 9 111212610.676 6  86659210.527 9  21163066.69947
  20920426.164 6  20920440.371 9 109937580.054 6  85665666.787 9  20920438.77049
  23393289.664 1  23393327.285 6 122932540.937 1  95791716.270 6  23393299.13745
  21048415.781 6                 110610166.938 6  86189764.98348  21048422.18848
  19733866.828 7  19733876.906 9 103702167.814 7  80806921.198 9  19733875.81349
  23599218.250 6  23599238.910 9 124014728.350 6  96634882.242 9  23599238.33247
  23031990.961 4  23032011.832 7 121033909.596 4  94312213.983 7  23032010.57846
 23  3 10  2 56 35.0000000  0  7G04G08G09G16G27G28G31               
  21161718.664 6  21161728.008 9 111205572.446 6  86653726.173 9  21161727.79347
  20917611.750 6  20917625.461 9 109922788.940 6  85654141.250 9  20917623.87149
  23390426.992 1  23390461.348 7 122917483.564 1  95779983.070 7  23390434.07445
  21048788.242 6                 110612122.368 6  86191288.67748  21048794.78548
  19733040.836 7  19733050.609 9 103697827.142 7  80803538.847 9  19733049.68049
  23600883.844 6  23600904.211 9 124023480.542 6  96641702.165 9  23600903.61347
  23033269.758 4  23033289.305 7 121040625.675 4  94317447.268 7  23033288.31346
 23  3 10  2 56 40.0000000  0  7G04G08G09G16G27G28G31               
  21160383.664 6  21160391.711 9 111198555.659 6  86648258.543 9  21160391.61747
  20914801.039 6  20914813.926 9 109908016.528 6  85642630.279 9  20914812.32049
  23387562.914 1  23387596.184 7 122902443.261 1  95768263.287 7  23387573.19145
  21049162.000 6                 110614086.807 6  86192819.39648  21049168.74648
  19732219.195 7  19732229.230 9 103693508.984 7  80800174.042 9  19732228.15649
  23602551.609 6  23602572.395 9 124032245.355 6  96648531.912 9  23602571.59047
  23034549.484 4  23034570.285 7 121047354.182 4  94322690.207 7  23034568.96146
 23  3 10  2 56 45.0000000  0  7G04G08G09G16G27G28G31               
  21159051.203 6  21159061.070 9 111191560.322 6  86642807.625 9  21159061.02347
  20911993.297 6  20912006.492 9 109893262.646 6  85631133.756 9  20912005.08649
  23384705.758 1  23384732.641 6 122887420.039 1  95756556.838 6  23384715.97745
  21049537.711 6                 110616060.335 6  86194357.17348  21049544.54348
  19731401.445 7  19731411.820 9 103689213.410 7  80796826.828 9  19731410.81649
  23604222.273 6  23604242.680 9 124041022.776 6  96655371.467 9  23604242.20747
  23035832.875 4  23035853.059 7 121054095.021 4  94327942.803 7  23035851.51646
 23  3 10  2 56 50.0000000  0  7G04G08G09G16G27G28G31               
  21157724.453 6  21157733.754 9 111184585.970 6  86637373.042 9  21157733.22748
  20909189.172 6  20909202.691 9 109878526.824 6  85619651.299 9  20909201.33249
  23381849.242 1  23381875.824 7 122872413.602 1  95744863.494 7  23381861.73845
  21049914.531 6                 110618042.470 6  86195901.68548  21049921.55948
  19730588.375 7  19730598.570 9 103684939.977 7  80793496.874 9  19730597.28549
  23605894.633 6  23605915.492 9 124049812.471 6  96662220.604 9  23605914.70347
  23037117.383 4  23037138.703 8 121060847.946 4  94333204.792 8  23037137.08246
 23  3 10  2 56 55.0000000  0  7G04G08G09G16G27G28G31               
  21156401.570 6  21156410.738 9 111177633.160 6  86631955.264 9  21156410.42647
  20906388.578 6  20906401.570 9 109863809.621 6  85608183.341 9  20906400.27349
  23378995.711 1  23379022.059 7 122857424.413 1  95733183.579 7  23379011.53945
  21050293.703 6                 110620033.678 6  86197453.24347  21050301.19547
  19729779.766 7  19729789.773 9 103680689.122 7  80790184.522 9  19729788.91049
  23607570.086 6  23607590.246 8 124058614.828 6  96669079.590 8  23607589.55547
  23038405.828 4  23038425.965 8 121067613.236 4  94338476.422 8  23038424.80146
 23  3 10  2 57  0.0000000  0  6G04G08G16G27G28G31                  
  21155082.250 6  21155091.500 9 111170700.960 6  86626553.527 9  21155091.12147
  20903591.148 6  20903604.367 9 109849110.083 6  85596729.182 9  20903603.14849
  21050673.992 6                 110622033.038 6  86199011.18847  21050681.41047
  19728974.992 7  19728984.910 9 103676459.970 7  80786889.061 9  19728984.09849
  23609247.266 6  23609267.598 9 124067429.010 6  96675947.812 9  23609266.84847
  23039695.492 4  23039716.152 8 121074390.115 4  94343757.062 8  23039715.22346
 23  3 10  2 57  5.0000000  0  6G04G08G16G27G28G31                  
  21153767.375 6  21153777.035 9 111163790.711 6  86621168.914 9  21153776.08248
  20900797.750 6  20900810.930 9 109834429.769 6  85585289.982 9  20900809.75449
  21051056.664 6                 110624041.927 6  86200576.53048  21051064.06648
  19728174.945 7  19728184.551 9 103672253.905 7  80783611.612 9  19728183.66849
  23610926.750 6  23610947.031 9 124076256.311 6  96682826.232 9  23610946.73847
  23040987.313 5  23041008.477 8 121081179.958 5  94349047.840 8  23041007.55946
 23  3 10  2 57 10.0000000  0  6G04G08G16G27G28G31                  
  21152456.352 6  21152466.293 9 111156901.322 6  86615800.534 9  21152465.60247
  20898007.977 6  20898020.918 9 109819767.356 6  85573864.724 9  20898019.47349
  21051440.328 6                 110626059.168 6  86202148.40048  21051447.70748
  19727378.359 7  19727388.609 9 103668069.731 7  80780351.213 9  19727388.00449
  23612608.078 6  23612628.727 8 124085095.635 6  96689714.061 8  23612628.33247
  23042281.422 5  23042303.203 8 121087981.537 5  94354347.747 8  23042302.28946
 23  3 10  2 57 15.0000000  0  7G04G08G09G16G27G28G31               
  21151149.016 6  21151158.508 9 111150031.186 6  86610447.168 9  21151157.52047
  20895220.969 6  20895234.102 9 109805121.419 6  85562452.325 9  20895232.46949
  23367620.625 1                 122797626.21411                
  21051825.219 6                 110628083.249 6  86203725.58348  21051832.93448
  19726585.844 7  19726595.895 9 103663905.934 7  80777106.681 9  19726595.41849
  23614292.617 6  23614313.191 8 124093945.418 6  96696610.005 8  23614312.96547
  23043578.180 5  23043598.863 8 121094793.336 5  94359655.650 8  23043598.14846
 23  3 10  2 57 20.0000000  0  7G04G08G09G16G27G28G31               
  21149845.391 6  21149855.414 9 111143181.674 6  86605109.851 9  21149854.39147
  20892437.070 6  20892450.188 9 109790493.198 6  85551053.702 9  20892448.93849
  23364782.070 2                 122782718.927 2                
  21052212.156 6                 110630115.437 6  86205309.09947  21052219.67647
  19725797.898 7  19725807.672 9 103659763.817 7  80773879.062 9  19725807.16449
  23615978.359 6  23615999.590 8 124102806.985 6  96703515.141 8  23615999.25847
  23044876.516 5  23044897.820 8 121101616.743 5  94364972.552 8  23044896.98846
 23  3 10  2 57 25.0000000  0  7G04G08G09G16G27G28G31               
  21148546.531 6  21148556.309 9 111136353.648 6  86599789.312 9  21148555.49247
  20889656.727 6  20889670.051 9 109775883.604 6  85539669.601 9  20889668.95749
  23361948.469 2  23361983.004 7 122767828.842 2  95663412.32017  23361976.35546
  21052600.875 6                 110632156.624 6  86206899.61748  21052608.18048
  19725013.844 7  19725023.926 9 103655644.255 7  80770669.006 9  19725023.17649
  23617666.484 6  23617687.695 8 124111681.146 6  96710430.103 8  23617687.97347
  23046178.023 5  23046198.867 8 121108452.512 5  94370299.131 8  23046198.26646
 23  3 10  2 57 30.0000000  0  7G04G08G09G16G27G28G31               
  21147250.938 6  21147260.324 9 111129546.015 6  86594484.643 9  21147259.32847
  20886879.266 6  20886893.289 9 109761291.556 6  85528299.171 9  20886891.85249
  23359118.180 1  23359152.207 7 122752954.982 1  95651822.171 7  23359145.44545
  21052990.531 6                 110634205.753 6  86208496.31848  21052998.06348
  19724234.211 7  19724244.160 9 103651546.189 7  80767475.685 9  19724243.62149
  23619357.742 6  23619378.547 8 124120566.913 6  96717354.117 8  23619378.62146
  23047480.578 5  23047501.879 8 121115299.716 5  94375634.585 8  23047501.41047
 23  3 10  2 57 35.0000000  0  7G04G08G09G16G27G28G31               
  21145959.406 6  21145969.152 9 111122759.430 6  86589196.380 9  21145968.01648
  20884106.641 6  20884119.934 9 109746717.695 6  85516942.920 9  20884118.37149
  23356289.750 1                                                
  21053382.258 6                 110636263.429 6  86210099.67548  21053389.73048
  19723458.445 7  19723468.285 9 103647470.221 7  80764299.603 9  19723467.49249
  23621050.508 5  23621071.898 8 124129464.888 5  96724287.636 8  23621071.93046
  23048785.180 5  23048806.813 8 121122158.861 5  94380979.337 8  23048806.57047
 23  3 10  2 57 40.0000000  0  6G04G08G16G27G28G31                  
  21144671.609 6  21144681.840 9 111115992.500 6  86583923.435 9  21144680.92648
  20881336.500 6  20881349.566 9 109732160.598 6  85505599.736 9  20881348.50449
  21053774.938 6                 110638328.249 6  86211708.60448  21053782.27048
  19722686.617 7  19722696.379 9 103643414.954 7  80761139.649 9  19722695.76249
  23622746.125 5  23622767.605 9 124138373.605 5  96731229.555 9  23622767.49647
  23050093.500 5  23050114.254 8 121129028.590 5  94386332.344 8  23050114.14146
 23  3 10  2 57 45.0000000  0  6G04G08G16G27G28G31                  
  21143387.891 6  21143397.441 9 111109245.969 6  86578666.404 9  21143396.56347
  20878569.547 6  20878582.898 9 109717621.069 6  85494270.240 9  20878581.62149
  21054168.867 6                 110640400.961 6  86213323.68147  21054176.52347
  19721919.156 7  19721928.863 9 103639381.169 7  80757996.438 9  19721928.50449
  23624443.453 5  23624465.434 8 124147293.927 5  96738180.477 8  23624465.23046
  23051402.977 5  23051423.949 8 121135909.686 5  94391694.223 8  23051424.05547
 23  3 10  2 57 50.0000000  0  6G04G08G16G27G28G31                  
  21142107.961 6  21142117.863 9 111102519.688 6  86573425.116 9  21142116.90247
  20875806.211 6  20875819.457 9 109703098.997 6  85482954.349 9  20875817.89549
  21054565.305 6                 110642481.391 6  86214944.79148  21054572.71548
  19721155.492 7  19721165.637 9 103635368.641 7  80754869.790 9  19721164.90249
  23626142.852 5  23626164.633 9 124156225.593 5  96745140.247 9  23626164.85946
  23052714.016 5  23052735.637 8 121142801.922 5  94397064.764 8  23052735.56346
 23  3 10  2 57 55.0000000  0  7G04G08G09G16G27G28G31               
  21140831.961 6  21140841.703 9 111095813.346 6  86568199.372 9  21140841.16047
  20873045.711 6  20873059.449 9 109688594.144 6  85471651.869 9  20873058.25449
  23345015.648 1                 122678816.95711                
  21054962.727 6                 110644569.188 6  86216571.60847  21054969.97747
  19720395.992 7  19720405.602 9 103631377.103 7  80751759.497 9  19720405.13349
  23627844.445 5  23627865.648 9 124165168.363 5  96752108.660 9  23627866.19946
  23054027.852 5  23054048.824 8 121149705.044 5  94402443.811 8  23054048.91447
 23  3 10  2 58  0.0000000  0  7G04G08G09G16G27G28G31               
  21139559.445 6  21139568.750 9 111089125.989 6  86562988.425 9  21139568.29348
  20870288.508 6  20870302.297 9 109674105.443 6  85460361.987 9  20870300.96549
  23342202.680 1  23342235.590 7 122664038.092 1  95582547.13917  23342232.90646
  21055361.469 6                 110646663.446 6  86218203.48548  21055368.67648
  19719640.313 7  19719649.895 9 103627405.596 7  80748664.817 9  19719649.51249
  23629547.641 5  23629569.844 9 124174121.244 5  96759084.948 9  23629570.06346
  23055343.953 5  23055365.184 8 121156618.117 5  94407830.600 8  23055364.70347
 23  3 10  2 58  5.0000000  0  7G04G08G09G16G27G28G31               
  21138290.773 6  21138300.285 9 111082458.821 6  86557793.211 9  21138299.49248
  20867534.914 6  20867548.773 9 109659634.109 6  85449085.636 9  20867547.36749
  23339393.938 1                 122649275.227 1  95571034.59445  23339424.15245
  21055761.484 6                 110648765.334 6  86219841.29347  21055768.44547
  19718888.602 7  19718898.555 9 103623455.327 7  80745586.682 9  19718897.91849
  23631254.320 5  23631275.887 9 124183085.479 5  96766070.089 9  23631275.83646
  23056660.922 5  23056681.645 8 121163542.269 5  94413225.996 8  23056681.78146
 23  3 10  2 58 10.0000000  0  7G04G08G09G16G27G28G31               
  21137026.000 6  21137034.918 9 111075812.255 6  86552614.062 9  21137034.30948
  20864784.375 6  20864798.039 9 109645180.554 6  85437823.121 9  20864796.89149
  23336586.727 1                 122634528.822 1  95559543.69145  23336619.11345
  21056162.461 6                 110650875.306 6  86221485.41148  21056169.87148
  19718140.992 6  19718150.820 9 103619526.685 6  80742525.392 9  19718150.21549
  23632962.086 5  23632984.270 9 124192061.347 5  96773064.316 9  23632984.18446
  23057981.211 5  23058001.832 8 121170477.965 5  94418630.409 8  23058001.32046
 23  3 10  2 58 15.0000000  0  7G04G08G09G16G27G28G31               
  21135764.656 6  21135773.695 9 111069184.457 6  86547449.531 9  21135773.14148
  20862036.758 6  20862050.961 9 109630742.979 6  85426573.070 9  20862049.52049
  23333781.922 1                 122619797.032 1  95548064.17045  23333816.52745
  21056565.531 6                 110652991.438 6  86223134.32748  21056572.85548
  19717397.422 7  19717407.078 9 103615617.847 7  80739479.529 9  19717406.14549
  23634672.039 5  23634695.063 9 124201047.118 5  96780066.242 9  23634694.76247
  23059302.273 5  23059323.449 8 121177423.422 5  94424042.437 8  23059323.49646
 23  3 10  2 58 20.0000000  0  7G04G08G09G16G27G28G31               
  21134507.539 6  21134517.582 9 111062577.863 6  86542301.533 9  21134516.50847
  20859292.547 6  20859306.547 9 109616323.636 6  85415337.214 9  20859305.21949
  23330983.352 1                                                
  21056969.922 6                 110655116.229 6  86224789.99348  21056977.39548
  19716657.773 7  19716667.281 9 103611731.227 7  80736450.984 9  19716666.32049
  23636384.391 5  23636406.965 9 124210045.190 5  96787077.746 9  23636406.75447
  23060625.875 4  23060646.766 8 121184380.901 4  94429463.814 8  23060646.42646
 23  3 10  2 58 25.0000000  0  7G04G08G09G16G27G28G31               
  21433047.055 6  21433056.301 9 112631412.284 6  87764769.894 9  21433055.86348
  21156344.727 6  21156359.152 9 111177344.174 6  86631716.870 9  21156358.04749
  23627979.281 1  23627999.105 8 124165805.97411  96752697.14518  23628010.08246
  21357167.781 6                 112232667.656 6  87454050.83547  21357175.43047
  20015714.711 6  20015723.895 9 105183286.058 6  81961039.159 9  20015723.31349
  23937891.266 5  23937913.016 9 125794472.271 5  98021696.260 9  23937912.79346
  23361744.141 4  23361765.398 8 122766767.614 4  95662492.422 8  23361764.38746
 23  3 10  2 58 30.0000000  0  7G04G08G09G16G27G28G31               
  21431797.094 6  21431806.926 9 112624844.654 6  87759652.238 9  21431806.34047
  21153607.813 6  21153621.512 9 111162958.341 6  86620507.146 9  21153620.32049
  23625186.664 3  23625208.340 8 124151121.758 3  96741254.923 8  23625214.85546
  21357574.484 6                 112234806.243 6  87455717.24348  21357581.94148
  20014982.578 6  20014992.406 9 105179440.427 6  81958042.560 9  20014991.55149
  23939607.391 5  23939629.535 9 125803491.542 5  98028724.282 9  23939628.70346
  23363072.633 4  23363094.133 8 122773745.899 4  95667930.014 8  23363092.57846
 23  3 10  2 58 35.0000000  0  7G04G08G09G16G27G28G31               
  21430551.008 6  21430560.266 9 112618296.333 6  87754549.632 9  21430560.17248
  21150873.164 6  21150887.660 9 111148589.083 6  86609310.342 9  21150886.58249
  23622395.766 3  23622420.402 8 124136452.771 3  96729824.496 8  23622423.43846
  21357982.977 6                 112236951.543 6  87457388.89048  21357990.41848
  20014254.672 7  20014264.570 9 105175615.076 7  81955061.761 9  20014263.28549
  23941326.055 5  23941348.133 9 125812521.199 5  98035760.420 9  23941347.33246
  23364403.414 4  23364423.637 8 122780734.416 4  95673375.590 8  23364421.92246
 23  3 10  2 58 40.0000000  0  7G04G08G09G16G27G28G31               
  21429308.719 6  21429317.891 9 112611767.521 6  87749462.236 9  21429317.68448
  21148142.734 6  21148156.074 9 111134236.524 6  86598126.533 9  21148155.55549
  23619607.883 3  23619632.938 8 124121799.169 3  96718406.139 8  23619634.89846
  21358392.344 6                 112239103.751 6  87459065.91748  21358400.19548
  20013530.844 7  20013540.566 9 105171810.259 7  81952096.965 9  20013539.46149
  23943046.398 5  23943068.508 9 125821561.469 5  98042804.804 9  23943067.78147
  23365733.570 3  23365755.523 8 122787733.301 3  95678829.241 8  23365753.87946
 23  3 10  2 58 45.0000000  0  7G04G08G09G16G27G28G31               
  21428070.617 6  21428079.781 9 112605258.958 6  87744390.588 9  21428079.11348
  21145414.125 6  21145428.465 9 111119901.488 6  86586956.387 9  21145427.75049
  23616820.023 1  23616845.020 7 124107161.690 1  96707000.239 7  23616848.04346
  21358803.344 6                 112241263.617 6  87460748.92648  21358810.86748
  20012810.734 7  20012820.738 9 105168026.697 7  81949148.719 9  20012819.70349
  23944768.953 5  23944791.035 9 125830613.050 5  98049857.999 9  23944790.21146
  23367067.594 3  23367088.680 8 122794743.267 3  95684291.551 8  23367087.34846
 23  3 10  2 58 50.0000000  0  7G04G08G09G16G27G28G31               
  21426835.523 6  21426844.891 9 112598769.492 6  87739333.850 9  21426844.17648
  21142689.664 6  21142703.508 9 111105582.838 6  86575798.997 9  21142702.64549
  23614037.484 1  23614063.020 7 124092539.184 1  96695605.974 7
  21359215.758 6                 112243429.877 6  87462436.90548  21359223.27048
  20012094.969 7  20012104.352 9 105164263.201 7  81946216.133 9  20012103.53549
  23946492.773 5  23946514.863 9 125839674.867 5  98056919.178 9  23946514.44547
  23368403.469 4  23368424.461 8 122801763.308 4  95689761.683 8  23368423.14146
 23  3 10  2 58 55.0000000  0  8G04G08G09G16G26G27G28G31            
  21425604.250 6  21425613.664 9 112592299.963 6  87734292.659 9  21425613.41447
  21139968.219 6  21139982.285 9 111091281.390 6  86564655.019 9  21139980.92649
  23611258.922 1                                                
  21359629.281 6                 112245603.481 6  87464130.59847  21359636.75847
  22765079.828 1                 119631281.54911                
  20011382.789 7  20011392.352 9 105160520.641 7  81943299.849 9  20011391.41049
  23948220.047 5  23948241.406 9 125848747.730 5  98063988.962 9  23948240.98046
  23369742.281 4  23369762.227 8 122808794.146 4  95695240.241 8  23369761.21146
 23  3 10  2 59  0.0000000  0  8G04G08G09G16G26G27G28G31            
  21424376.852 6  21424385.883 9 112585849.901 6  87729266.632 9  21424385.31648
  21137249.711 6  21137263.762 9 111076996.585 6  86553524.018 9  21137262.72349
  23608484.094 2                                                
  21360044.188 6                 112247783.912 6  87465829.62648  21360051.43848
  22766170.625 1                                                
  20010674.203 7  20010684.184 9 105156798.539 7  81940399.501 9  20010683.39149
  23949947.469 5  23949969.438 9 125857831.132 5  98071066.937 9  23949969.41447
  23371081.367 3  23371102.016 8 122815835.355 3  95700726.865 8  23371100.88746
 23  3 10  2 59  5.0000000  0  7G04G08G09G16G27G28G31               
  21423152.797 6  21423162.266 9 112579418.774 6  87724255.364 9  21423161.84448
  21134534.641 6  21134548.711 9 111062727.884 6  86542405.559 9  21134547.41449
  23605711.844 2  23605719.844 8 124048764.66612  96661475.29018  23605719.62946
  21360459.977 6                 112249970.647 6  87467533.55048  21360467.55548
  20009969.781 7  20009979.613 9 105153096.353 7  81937514.672 9  20009978.68849
  23951678.484 5  23951700.152 9 125866924.515 5  98078152.729 9  23951699.99247
  23372422.445 2  23372444.074 8 122822886.380 2  95706221.156 8  23372442.72746
 23  3 10  2 59 10.0000000  0  7G04G08G09G16G27G28G31               
  21421932.852 6  21421942.227 9 112573006.428 6  87719258.707 9  21421941.66448
  21131822.164 6  21131836.020 9 111048475.223 6  86531299.585 9  21131834.57049
  23602943.000 2  23602952.012 8 124034202.777 2  96650128.340 8  23602951.97746
  21360877.750 6                 112252163.458 6  87469242.22547  21360884.90247
  20009269.008 7  20009278.438 9 105149413.866 7  81934645.200 9  20009278.17249
  23953410.727 5  23953432.047 9 125876027.679 5  98085246.116 9  23953431.19546
  23373764.844 2  23373787.449 8 122829947.091 2  95711722.976 8  23373786.53946
 23  3 10  2 59 15.0000000  0  7G04G08G09G16G27G28G31               
  21420716.320 6  21420725.262 9 112566612.472 6  87714276.393 9  21420724.84848
  21129113.500 6  21129127.242 9 111034238.177 6  86520205.801 9  21129125.93049
  23600170.430 1  23600185.207 8 124019655.221 1  96638792.543 8  23600185.62146
  21361296.102 6                 112254361.988 6  87470955.35248  21361303.52048
  20008571.648 7  20008581.316 9 105145750.773 7  81931790.823 9  20008580.86349
  23955144.641 5  23955166.781 9 125885140.320 5  98092346.901 9  23955165.96946
  23375111.211 1  23375132.566 8 122837017.037 1  95717232.004 8  23375131.49646
 23  3 10  2 59 20.0000000  0  7G04G08G09G16G27G28G31               
  21419503.555 6  21419512.199 9 112560237.511 6  87709308.865 9  21419512.00848
  21126407.141 6  21126420.754 9 111020017.523 6  86509124.772 9  21126419.56349
  23597402.305 1                                                
  21361715.773 6                 112256566.851 6  87472673.40947  21361722.98047
  20007878.719 7  20007888.367 9 105142107.648 7  81928952.018 9  20007888.29349
  23956881.000 5  23956902.789 9 125894262.994 5  98099455.507 9  23956901.91446
  23376459.242 3  23376479.758 8 122844096.881 3  95722748.728 8  23376478.70345
 23  3 10  2 59 25.0000000  0  6G04G08G16G27G28G31                  
  21418293.688 6  21418303.012 9 112553881.114 6  87704355.818 9  21418302.80148
  21123704.359 6  21123717.918 9 111005812.776 6  86498056.148 9  21123716.36749
  21362136.320 6                 112258777.567 6  87474396.02648  21362143.76648
  20007188.875 7  20007199.152 9 105138484.012 7  81926128.409 9  20007198.69149
  23958618.547 5  23958640.219 8 125903395.287 5  98106571.599 8  23958639.72347
  23377808.633 3  23377829.539 8 122851186.164 3  95728272.832 8  23377828.68445
 23  3 10  2 59 30.0000000  0  6G04G08G16G27G28G31                  
  21417087.578 6  21417096.906 9 112547544.189 6  87699417.938 9  21417096.52348
  21121004.117 6  21121017.855 9 110991624.727 6  86487000.533 9  21121016.44549
  21362558.156 6                 112260995.040 6  87476123.90948  21362565.62148
  20006503.500 6  20006513.238 9 105134880.801 6  81923320.703 9  20006512.94149
  23960358.836 5  23960379.781 9 125912538.073 5  98113695.869 9  23960379.97747
  23379159.891 3  23379180.102 8 122858285.768 3  95733805.006 8  23379179.57446
 23  3 10  2 59 35.0000000  0  6G04G08G16G27G28G31                  
  21415885.797 7  21415895.234 9 112541227.919 7  87694496.151 9  21415894.48048
  21118307.320 6  21118320.773 9 110977454.602 6  86475958.880 9  21118319.48849
  21362982.055 6                 112263220.449 6  87477857.97747  21362989.24647
  20005821.781 6  20005831.926 9 105131299.203 6  81920529.843 9  20005831.03149
  23962100.281 5  23962121.301 9 125921692.550 5  98120829.231 9  23962121.64846
  23380511.164 2  23380533.383 8 122865396.910 2  95739346.130 8  23380532.34046
 23  3 10  2 59 40.0000000  0  7G04G08G09G16G27G28G31               
  21414687.461 6  21414696.988 9 112534931.430 6  87689589.780 9  21414696.03548
  21115614.555 6  21115627.652 9 110963301.674 6  86464930.633 9  21115626.49249
  23586377.883 1                 123947150.21411                
  21363406.102 6                 112265452.980 6  87479597.60348  21363413.94948
  20005144.227 6  20005154.047 9 105127738.325 6  81917755.120 9  20005153.18849
  23963844.695 5  23963865.820 9 125930857.855 5  98127971.059 9  23963866.23846
  23381867.789 3  23381889.227 8 122872518.688 3  95744895.556 8  23381888.30946
 23  3 10  2 59 45.0000000  0  7G04G08G09G16G27G28G31               
  21413492.984 6  21413501.648 9 112528652.080 6  87684696.755 9  21413500.98848
  21112923.594 6  21112937.602 9 110949163.046 6  86453913.523 9  21112936.27749
  23583630.117 1  23583631.633 7 123932692.782 1  96571028.97217  23583629.59045
  21363832.328 6                 112267689.897 6  87481340.63648  21363839.82048
  20004469.961 6  20004479.887 9 105124195.505 6  81914994.470 9  20004479.51649
  23965590.023 5  23965611.438 9 125940031.295 5  98135119.230 9  23965611.94947
  23383224.594 3  23383244.508 8 122879648.467 3  95750451.224 8  23383244.44546
 23  3 10  2 59 50.0000000  0  6G04G08G16G27G28G31                  
  21412301.273 6  21412310.523 9 112522390.747 6  87679817.778 9  21412309.53948
  21110236.063 6  21110249.941 9 110935039.821 6  86442908.438 9  21110248.80549
  21364259.289 6                 112269932.150 6  87483087.83148  21364266.83648
  20003799.516 7  20003809.133 9 105120671.687 7  81912248.632 9  20003808.62149
  23967337.047 5  23967359.039 9 125949213.822 5  98142274.479 9  23967359.56646
  23384583.297 3  23384604.133 8 122886787.183 3  95756013.836 8  23384603.32846
 23  3 10  2 59 55.0000000  0  6G04G08G16G27G28G31                  
  21411113.734 6  21411122.391 9 112516149.468 6  87674954.412 9  21411121.73047
  21107552.188 6  21107565.469 9 110920933.885 6  86431916.786 9  21107564.54349
  21364687.008 6                 112272181.752 6  87484840.75747  21364694.77047
  20003133.008 6  20003143.496 9 105117168.805 6  81909519.111 9  20003142.67249
  23969086.836 5  23969108.281 8 125958407.380 5  98149438.330 8  23969108.90646
  23385944.758 4  23385964.125 8 122893936.933 4  95761585.065 8  23385963.20746
 23  3 10  3  0  0.0000000  0  6G04G08G16G27G28G31                  
  21409929.977 6  21409938.891 9 112509927.150 6  87670105.844 9  21409938.21548
  21104870.398 6  21104884.156 9 110906844.124 6  86420937.771 9  21104883.10949
  21365116.258 6                 112274437.553 6  87486598.48847  21365123.64147
  20002470.289 6  20002480.199 9 105113685.809 6  81906805.082 9  20002479.21549
  23970837.523 5  23970859.516 8 125967610.923 5  98156609.938 8  23970860.21946
  23387306.727 4  23387326.184 8 122901096.363 4  95767163.842 8  23387325.46946
 23  3 10  3  0  5.0000000  0  6G04G08G16G27G28G31                  
  21408748.672 6  21408758.449 9 112503722.737 6  87665271.215 9  21408757.82048
  21102192.016 6  21102206.328 9 110892769.628 6  86409970.640 9  21102204.90649
  21365546.844 6                 112276698.511 6  87488360.27447  21365554.02347
  20001810.906 6  20001820.762 9 105110221.651 6  81904105.728 9  20001820.01649
  23972591.219 5  23972612.594 8 125976823.414 5  98163788.541 8  23972612.91446
  23388671.203 4  23388691.047 8 122908264.604 4  95772749.495 8  23388689.79746
 23  3 10  3  0 10.0000000  0  7G04G08G09G16G27G28G31               
  21407571.508 6  21407580.816 9 112497535.025 6  87660449.602 9  21407580.28948
  21099516.906 6  21099530.469 9 110878709.118 6  86399014.394 9  21099529.27049
  23569917.461 1                 123860623.71911                
  21365977.563 6                 112278963.407 6  87490125.11247  21365984.80147
  20001155.422 7  20001164.984 9 105106775.131 7  81901420.119 9  20001163.96949
  23974345.594 5  23974367.539 8 125986043.578 5  98170973.119 8  23974367.54346
  23390036.859 5  23390056.449 8 122915440.389 5  95778340.979 8  23390055.67246
 23  3 10  3  0 15.0000000  0  7G04G08G09G16G27G28G31               
  21406397.547 6  21406406.730 9 112491367.738 6  87655643.911 9  21406406.14848
  21096844.719 6  21096858.660 9 110864666.346 6  86388071.982 9  21096857.51249
  23567186.906 1                                                
  21366410.078 6                 112281235.979 6  87491895.93447  21366417.29747
  20000503.188 7  20000513.129 9 105103349.921 7  81898751.113 9  20000512.22349
  23976101.914 5  23976124.324 8 125995275.184 5  98178166.602 8  23976124.34846
  23391404.000 4  23391423.891 8 122922627.484 4  95783941.336 8  23391422.51646
 23  3 10  3  0 20.0000000  0  6G04G08G16G27G28G31                  
  21405227.398 6  21405236.801 9 112485219.724 6  87650853.239 9  21405235.89847
  21094175.203 6  21094189.301 9 110850640.138 6  86377142.484 9  21094187.96549
  21366844.555 6                 112283515.003 6  87493671.77847  21366850.77347
  19999855.406 7  19999865.184 9 105099944.888 7  81896097.828 9  19999864.60949
  23977861.398 5  23977882.910 8 126004517.040 5  98185368.096 8  23977883.46146
  23392773.836 4  23392794.383 8 122929824.574 4  95789549.449 8  23392793.13346
 23  3 10  3  0 25.0000000  0  6G04G08G16G27G28G31                  
  21404061.273 6  21404070.254 9 112479090.180 6  87646076.940 9  21404069.49648
  21091509.453 6  21091523.090 9 110836629.702 6  86366225.287 9  21091521.57449
  21367278.859 6                 112285799.727 6  87495452.06948  21367285.53548
  19999211.031 7  19999221.051 9 105096559.195 7  81893459.621 9  19999220.12149
  23979621.484 5  23979643.324 9 126013768.382 5  98192576.934 9  23979643.88346
  23394145.734 5  23394165.578 8 122937031.056 5  95795164.871 8  23394164.09846
 23  3 10  3  0 30.0000000  0  6G04G08G16G27G28G31                  
  21402898.703 6  21402908.293 9 112472980.782 6  87641316.363 9  21402906.94547
  21088846.336 6  21088859.914 9 110822636.896 6  86355321.798 9  21088858.57049
  21367715.008 6                 112288091.870 6  87497238.14247  21367721.76647
  19998571.039 7  19998580.742 9 105093194.572 7  81890837.836 9  19998579.65249
  23981384.234 5  23981406.383 9 126023030.869 5  98199794.474 9  23981406.74646
  23395518.945 4  23395538.492 8 122944248.516 4  95800788.847 8  23395537.62546
 23  3 10  3  0 35.0000000  0  6G04G08G16G27G28G31                  
  21401739.766 6  21401749.398 9 112466890.891 6  87636570.977 9  21401747.98847
  21086187.352 6  21086200.840 9 110808660.853 6  86344431.400 9  21086199.26249
  21368152.516 6                 112290390.684 6  87499029.42347  21368159.37547
  19997934.156 7  19997944.992 9 105089850.322 7  81888231.922 9  19997943.61749
  23983148.578 5  23983170.836 9 126032303.847 5  98207020.220 9  23983171.33646
  23396894.516 4  23396913.586 8 122951476.369 4  95806420.902 8  23396912.52346
 23  3 10  3  0 40.0000000  0  6G04G08G16G27G28G31                  
  21400584.711 6  21400593.871 9 112460820.317 6  87631840.655 9  21400592.89147
  21083530.484 6  21083544.152 9 110794701.497 6  86333553.980 9  21083543.07449
  21368590.930 6                 112292696.022 6  87500825.77848  21368597.80948
  19997301.984 7  19997311.633 9 105086526.305 7  81885641.765 9  19997310.75849
  23984915.313 5  23984937.273 9 126041587.081 5  98214253.946 9  23984937.78546
  23398271.453 4  23398291.672 8 122958714.314 4  95812060.903 8  23398290.09046
 23  3 10  3  0 45.0000000  0  6G04G08G16G27G28G31                  
  21399432.805 6  21399442.320 9 112454769.160 6  87627125.450 9  21399441.43847
  21080877.484 6  21080891.668 9 110780758.952 6  86322689.667 9  21080890.16049
  21369031.641 6                 112295007.971 6  87502627.29747  21369038.37947
  19996673.289 7  19996683.508 9 105083222.576 7  81883067.418 9  19996682.65249
  23986683.578 5  23986705.695 9 126050880.741 5  98221495.767 9  23986706.24246
  23399650.109 3  23399670.953 8 122965962.607 3  95817708.914 8  23399669.06646
 23  3 10  3  0 50.0000000  0  6G04G08G16G27G28G31                  
  21398285.000 6  21398294.352 9 112448735.887 6  87622424.173 9  21398293.37947
  21078227.211 6  21078241.805 9 110766831.584 6  86311837.187 9  21078240.44549
  21369472.063 6                 112297324.964 6  87504432.73547  21369478.94547
  19996048.633 7  19996058.301 9 105079937.585 7  81880507.680 9  19996057.60249
  23988453.422 4  23988476.121 9 126060183.262 4  98228744.507 9  23988476.19546
  23401031.883 4  23401051.949 8 122973219.533 4  95823363.668 8  23401049.16046
 23  3 10  3  0 55.0000000  0  6G04G08G16G27G28G31                  
  21397140.391 6  21397150.125 9 112442720.331 6  87617736.715 9  21397149.14847
  21075579.273 6  21075594.008 9 110752919.340 6  86300996.469 9  21075592.77349
  21369914.180 6                 112299646.850 6  87506241.98647  21369921.22747
  19995426.672 7  19995436.980 9 105076671.189 7  81877962.426 9  19995436.10249
  23990226.375 5  23990247.801 8 126069494.482 5  98236000.040 8  23990247.79346
  23402414.281 4  23402434.734 8 122980484.982 4  95829025.075 8  23402432.20746
 23  3 10  3  1  0.0000000  0  6G04G08G16G27G28G31                  
  21395999.320 6  21396008.457 9 112436723.468 6  87613063.815 9  21396007.96547
  21072934.797 6  21072949.121 9 110739023.070 6  86290168.217 9  21072948.34049
  21370356.961 6                 112301974.610 6  87508055.81447  21370363.98847
  19994808.539 7  19994818.742 9 105073424.361 7  81875432.410 9  19994817.96549
  23991999.633 5  23992021.375 9 126078815.346 5  98243263.032 9  23992021.48046
  23403798.477 3  23403819.078 8 122987760.090 3  95834693.980 8  23403816.69946
 23  3 10  3  1  5.0000000  0  6G04G08G16G27G28G31                  
  21394861.930 6  21394871.000 9 112430745.528 6  87608405.653 9  21394870.84847
  21070293.586 6  21070308.516 9 110725143.088 6  86279352.646 9  21070307.53549
  21370801.016 6                 112304308.470 6  87509874.38047  21370808.33247
  19994194.836 7  19994204.586 9 105070197.283 7  81872917.786 9  19994204.16049
  23993775.797 5  23993796.637 8 126088146.065 5  98250533.755 8  23993796.67646
  23405184.648 3  23405205.707 8 122995044.903 3  95840370.445 8  23405203.37946
 23  3 10  3  1 10.0000000  0  6G04G08G16G27G28G31                  
  21393727.242 6  21393736.453 9 112424785.808 6  87603761.693 9  21393736.44947
  21067655.547 6  21067669.891 9 110711278.818 6  86268549.323 9  21067668.91049
  21371246.320 6                 112306647.702 6  87511697.14748  21371253.50048
  19993584.109 7  19993593.629 9 105066989.280 7  81870418.042 9  19993593.40249
  23995552.773 5  23995573.898 9 126097485.950 5  98257811.589 9  23995573.62546
  23406571.984 3  23406593.316 8 123002338.766 3  95846053.958 8  23406591.79746
 23  3 10  3  1 15.0000000  0  7G04G08G16G26G27G28G31               
  21392596.836 6  21392605.926 9 112418843.117 6  87599131.002 9  21392605.82847
  21065019.961 6  21065034.227 9 110697428.921 6  86257757.206 9  21065033.86349
  21371692.539 6                 112308991.092 6  87513523.14248  21371699.61748
  22795965.055 1                 119793580.73211                
  19992977.250 7  19992986.648 9 105063799.156 7  81867932.229 9  19992986.48449
  23997331.414 5  23997352.754 9 126106833.828 5  98265095.681 9  23997352.10546
  23407960.195 2  23407982.805 8 123009640.501 2  95851743.610 8  23407981.12546
 23  3 10  3  1 20.0000000  0  7G04G08G16G26G27G28G31               
  21391469.445 6  21391478.797 9 112412918.741 6  87594514.594 9  21391478.55947
  21062387.438 6  21062401.598 9 110683594.641 6  86246977.256 9  21062400.97749
  21372139.195 6                 112311339.976 6  87515353.42948  21372146.78548
  22797075.320 1  22797089.633 8 119799411.297 1  93350269.84118
  19992373.938 7  19992384.023 9 105060628.227 7  81865461.369 9  19992383.28949
  23999111.438 5  23999133.414 9 126116190.958 5  98272386.930 9  23999132.32846
  23409351.656 1  23409373.867 8 123016951.466 1  95857440.419 8  23409372.22346
 23  3 10  3  1 25.0000000  0  7G04G08G16G26G27G28G31               
  21390345.320 6  21390354.453 9 112407012.030 6  87589911.947 9  21390354.20747
  21059757.586 6  21059772.105 9 110669775.366 6  86236208.996 9  21059771.60549
  21372587.422 6                 112313693.646 6  87517187.44547  21372594.06347
  22798184.875 1  22798200.027 7 119805243.076 1  93354813.990 7
  19991773.883 7  19991783.996 9 105057475.796 7  81863004.920 9  19991783.52349
  24000894.086 5  24000915.629 9 126125556.740 5  98279684.973 9  24000915.02046
  23410744.375 2  23410766.910 8 123024270.782 2  95863143.783 8  23410765.45346
 23  3 10  3  1 30.0000000  0  7G04G08G16G26G27G28G31               
  21389224.742 6  21389234.168 9 112401124.451 6  87585324.207 9  21389233.93447
  21057131.188 6  21057144.938 9 110655972.697 6  86225453.678 9  21057144.47749
  21373036.484 6                 112316053.524 6  87519026.29148  21373043.69948
  22799294.758 2  22799310.102 7 119811077.484 2  93359360.227 7
  19991178.047 7  19991187.781 9 105054343.282 7  81860563.998 9  19991187.22349
  24002678.180 5  24002700.406 9 126134932.568 5  98286990.823 9  24002699.43046
  23412141.156 3  23412161.730 8 123031600.177 3  95868854.979 8  23412160.41446
 23  3 10  3  1 35.0000000  0  7G04G08G16G26G27G28G31               
  21388107.898 6  21388117.379 9 112395254.367 6  87580750.095 9  21388116.55147
  21054507.930 6  21054521.609 9 110642184.982 6  86214710.025 9  21054521.01249
  21373486.211 6                 112318418.058 6  87520868.77948  21373493.33648
  22800404.992 2  22800420.715 8 119816913.019 2  93363907.314 8
  19990585.148 7  19990595.172 9 105051229.146 7  81858137.388 9  19990594.28149
  24004463.320 5  24004485.762 9 126144316.755 5  98294303.165 9  24004484.93046
  23413537.086 2  23413557.887 8 123038937.779 2  95874572.600 8  23413557.15646
 23  3 10  3  1 40.0000000  0  7G04G08G16G26G27G28G31               
  21386993.984 6  21387003.977 9 112389401.867 6  87576189.693 9  21387002.98047
  21051886.750 6  21051900.742 9 110628412.274 6  86203978.058 9  21051899.61749
  21373937.195 6                 112320787.279 6  87522714.92048  21373944.40648
  22801515.758 1  22801531.355 7 119822749.573 1  93368455.193 7
  19989996.133 7  19990005.719 9 105048133.409 7  81855725.121 9  19990004.87549
  24006250.930 4  24006273.664 9 126153709.513 4  98301622.197 9  24006273.41446
  23414932.992 1  23414955.594 8 123046283.796 1  95880296.823 8  23414954.77745
 23  3 10  3  1 45.0000000  0  7G04G08G16G26G27G28G31               
  21385884.102 6  21385894.066 9 112383568.983 6  87571644.570 9  21385893.43447
  21049268.555 6  21049283.539 9 110614656.553 6  86193259.314 9  21049282.44549
  21374389.227 6                 112323163.221 6  87524566.29148  21374396.18048
  22802627.273 1  22802643.660 7 119828589.118 1  93373005.521 7
  19989410.789 7  19989420.566 9 105045058.085 7  81853328.752 9  19989420.03149
  24008041.305 4  24008063.008 9 126163112.797 4  98308949.446 9  24008062.53946
  23416332.148 1  23416355.301 8 123053640.238 1  95886029.086 8  23416354.63345
 23  3 10  3  1 50.0000000  0  7G04G08G16G26G27G28G31               
  21384777.875 6  21384787.004 9 112377753.885 6  87567113.293 9  21384786.50448
  21046654.219 6  21046667.992 9 110600915.985 6  86182552.388 9  21046666.79749
  21374842.820 6                 112325544.021 6  87526421.44748  21374849.31648
  22803738.289 2  22803754.523 8 119834430.063 2  93377556.926 8
  19988829.039 7  19988839.352 9 105042001.387 7  81850946.912 9  19988838.36749
  24009831.602 4  24009854.422 9 126172524.806 4  98316283.483 9  24009853.63347
  23417733.734 1  23417757.574 8 123061005.290 1  95891768.112 8  23417756.40646
 23  3 10  3  1 55.0000000  0  7G04G08G16G26G27G28G31               
  21383674.148 6  21383683.824 9 112371956.600 6  87562595.931 9  21383683.25847
  21044042.102 6  21044056.746 9 110587190.685 6  86171857.359 9  21044055.52349
  21375296.289 6                 112327929.738 6  87528280.44748  21375303.34048
  22804850.750 1  22804866.660 8 119840272.341 1  93382109.311 8
  19988251.266 7  19988261.242 9 105038963.308 7  81848579.571 9  19988260.05149
  24011623.945 5  24011646.676 9 126181945.492 5  98323624.297 9  24011646.62547
  23419138.242 1  23419160.672 8 123068378.933 1  95897513.834 8  23419159.43846
 23  3 10  3  2  0.0000000  0  7G04G08G16G26G27G28G31               
  21382574.867 6  21382584.223 9 112366177.004 6  87558092.325 9  21382583.59847
  21041433.328 6  21041447.430 9 110573480.479 6  86161174.096 9  21041446.06349
  21375751.461 6                 112330320.193 6  87530143.12848  21375758.16448
  22805963.391 3  22805978.496 8 119846115.814 3  93386662.591 8
  19987676.531 7  19987686.422 9 105035943.714 7  81846226.633 9  19987685.06649
  24013418.086 4  24013440.809 9 126191374.820 4  98330971.841 9  24013440.71947
  23420541.617 1  23420565.461 8 123075761.153 1  95903266.245 8  23420564.14146
 23  3 10  3  2  5.0000000  0  7G04G08G16G26G27G28G31               
  21381478.453 6  21381488.410 9 112360415.171 6  87553602.577 9  21381487.50847
  21038826.984 6  21038841.605 9 110559785.592 6  86150502.754 9  21038839.96949
  21376207.023 6                 112332715.476 6  87532009.57047  21376213.80947
  22807074.711 3  22807090.813 7 119851960.565 3  93391216.905 7
  19987105.594 7  19987115.211 9 105032942.701 7  81843888.162 9  19987114.37949
  24015213.594 5  24015236.738 9 126200812.818 5  98338326.119 9  24015236.55946
  23421946.758 1  23421971.742 8 123083151.913 1  95909025.240 8  23421970.19546
 23  3 10  3  2 10.0000000  0  7G04G08G16G26G27G28G31               
  21380385.898 6  21380395.008 9 112354671.909 6  87549127.289 9  21380393.99648
  21036224.492 6  21036238.508 9 110546106.633 6  86139843.838 9  21036236.89849
  21376663.750 6                 112335116.398 6  87533880.40148  21376670.72348
  22808187.477 3  22808203.555 7 119857807.385 3  93395772.846 7  22808203.03145
  19986537.930 7  19986547.684 9 105029961.039 7  81841564.781 9  19986546.89549
  24017011.727 5  24017034.793 9 126210260.288 5  98345687.809 9  24017034.86347
  23423356.063 1  23423379.125 8 123090552.113 1  95914791.625 8  23423378.33246
 23  3 10  3  2 15.0000000  0  8G04G08G09G16G26G27G28G31            
  21379296.125 6  21379305.652 9 112348948.006 6  87544667.089 9  21379304.94948
  21033624.719 6  21033637.793 9 110532444.542 6  86129198.064 9  21033636.14849
  23502396.391 1                 123505793.90111                
  21377121.305 6                 112337523.752 6  87535756.25548  21377128.26248
  22809301.414 3  22809316.770 8 119863657.029 3  93400330.993 8  22809316.23445
  19985974.477 7  19985984.754 9 105026999.537 7  81839257.104 9  19985983.60549
  24018811.281 5  24018834.449 9 126219717.984 5  98353057.448 9  24018834.30147
  23424768.453 2  23424789.609 8 123097962.420 2  95920565.878 8  23424788.85246
 23  3 10  3  2 20.0000000  0  7G04G08G16G26G27G28G31               
  21378210.813 6  21378220.035 9 112343242.892 6  87540221.521 9  21378219.58648
  21031027.961 6  21031041.910 9 110518798.657 6  86118564.921 9  21031039.91449
  21377580.773 6                 112339936.969 6  87537636.67547  21377587.97347
  22810413.984 3  22810430.957 7 119869508.962 3  93404890.881 7  22810429.35945
  19985414.578 7  19985424.926 9 105024057.616 7  81836964.688 9  19985424.01649
  24020613.047 4  24020635.914 9 126229185.415 4  98360434.680 9  24020635.62947
  23426179.969 1  23426201.586 8 123105382.258 1  95926347.560 8  23426200.86346
 23  3 10  3  2 25.0000000  0  7G04G08G16G26G27G28G31               
  21377128.352 6  21377138.184 9 112337555.310 6  87535789.619 9  21377137.44948
  21028433.859 6  21028447.781 9 110505167.845 6  86107943.513 9  21028445.80549
  21378041.531 6                 112342354.768 6  87539520.65747  21378047.58647
  22811527.703 3  22811544.098 7 119875361.963 3  93409451.595 7  22811542.82845
  19984858.039 7  19984868.430 9 105021133.986 7  81834686.531 9  19984867.79349
  24022415.844 4  24022438.969 9 126238661.235 4  98367818.441 9  24022438.84846
  23427591.398 1  23427614.527 8 123112810.481 1  95932135.813 8  23427613.55946
 23  3 10  3  2 30.0000000  0  7G04G08G16G26G27G28G31               
  21376049.852 6  21376059.617 9 112331888.104 6  87531373.600 9  21376059.05547
  21025843.453 6  21025856.926 9 110491554.816 6  86097335.962 9  21025854.94949
  21378502.773 6                 112344779.993 6  87541410.42647  21378508.93447
  22812643.078 3  22812658.188 7 119881218.833 3  93414015.259 7  22812657.41445
  19984305.969 7  19984316.113 9 105018231.502 7  81832424.854 9  19984315.30549
  24024221.289 4  24024244.391 9 126248148.294 4  98375210.966 9  24024244.23046
  23429009.625 1                                                
 23  3 10  3  2 35.0000000  0  7G04G08G16G26G27G28G31               
  21374974.609 6  21374984.563 9 112326238.103 6  87526970.986 9  21374983.80148
  21023255.898 6  21023269.473 9 110477956.377 6  86086739.788 9  21023267.86349
  21378964.875 6                 112347209.423 6  87543303.47748  21378971.98048
  22813756.711 3  22813771.898 8 119887076.423 3  93418579.529 8  22813771.81345
  19983757.094 7  19983767.246 9 105015346.994 7  81830177.177 9  19983766.51649
  24026027.719 4  24026051.043 9 126257643.455 4  98382609.815 9  24026051.38346
  23430425.688 1  23430447.820 8 123127697.34911  95943736.03118  23430446.69546
 23  3 10  3  2 40.0000000  0  8G04G08G09G16G26G27G28G31            
  21373903.375 6  21373912.891 9 112320607.854 6  87522583.772 9  21373912.96948
  21020671.313 6  21020685.047 9 110464375.110 6  86076156.987 9  21020683.46549
  23489104.336 1                 123435913.53611  96184038.98056  23489118.25046
  21379428.883 6                 112349645.610 6  87545201.79348  21379435.32048
  22814871.781 2  22814887.781 8 119892937.231 2  93423146.340 8  22814888.03145
  19983212.297 7  19983222.168 9 105012483.014 7  81827945.497 9  19983221.70749
  24027836.602 5  24027860.156 9 126267149.268 5  98390016.965 9  24027860.00047
  23431846.477 1  23431866.809 8 123135155.410 1  95949547.515 8  23431865.41846
 23  3 10  3  2 45.0000000  0  8G04G08G09G16G26G27G28G31            
  21372835.648 6  21372845.164 9 112314994.802 6  87518209.941 9  21372844.64847
  21018089.734 6  21018103.820 9 110450808.679 6  86065585.751 9  21018102.21949
  23486451.813 1  23486455.508 8 123421981.71511  96173110.18918  23486463.29746
  21379892.734 6                 112352086.045 6  87547103.41048  21379900.12948
  22815988.328 2  22816003.523 8 119898798.693 2  93427713.682 8  22816003.44545
  19982670.211 6  19982680.844 9 105009637.011 6  81825727.823 9  19982680.23449
  24029646.977 4  24029670.914 9 126276663.074 4  98397430.348 9  24029670.61346
  23433267.516 2  23433287.504 8 123142621.354 2  95955365.127 8  23433286.02346
 23  3 10  3  2 50.0000000  0  8G04G08G09G16G26G27G28G31            
  21371770.547 6  21371780.094 9 112309399.046 6  87513849.601 9  21371779.93048
  21015510.734 6  21015525.000 9 110437256.984 6  86055026.003 9  21015523.43049
  23483803.297 1  23483806.750 8 123408063.387 1  96162264.758 8  23483812.92246
  21380358.117 6                 112354530.763 6  87549008.37348  21380365.16048
  22817104.031 2  22817119.504 8 119904660.968 2  93432281.613 8  22817118.81645
  19982132.258 7  19982142.645 9 105006809.030 7  81823524.202 9  19982142.22749
  24031458.922 5  24031481.906 9 126286185.095 5  98404850.113 9  24031482.19946
  23434689.094 2  23434710.277 8 123150095.414 2  95961189.038 8  23434708.76246
 23  3 10  3  2 55.0000000  0  8G04G08G09G16G26G27G28G31            
  21370708.625 6  21370718.152 9 112303820.369 6  87509502.546 9  21370717.58648
  21012934.906 6  21012948.801 9 110423719.848 6  86044477.595 9  21012947.30549
  23481160.609 1                                                
  21380824.180 6                 112356979.548 6  87550916.48748  21380831.42648
  22818219.844 2  22818235.301 8 119910523.786 2  93436849.956 8  22818235.01245
  19981597.820 7  19981607.965 9 105003998.895 7  81821334.469 9  19981607.42249
  24033272.727 4  24033295.352 8 126295715.055 4  98412276.072 8  24033295.88746
  23436113.266 3  23436134.063 8 123157577.343 3  95967019.085 8  23436132.55946
 23  3 10  3  3  0.0000000  0  7G04G08G16G26G27G28G31               
  21369651.117 6  21369660.742 9 112298260.432 6  87505170.116 9  21369660.14548
  21010361.734 6  21010375.977 9 110410198.857 6  86033941.779 9  21010374.67249
  21381291.445 6                 112359434.056 6  87552829.08748  21381298.00448
  22819333.977 2  22819350.504 8 119916388.863 2  93441420.110 8  22819350.76245
  19981066.734 7  19981076.984 9 105001208.236 7  81819159.928 9  19981076.58249
  24035088.750 5  24035110.992 9 126305254.563 5  98419709.541 9  24035110.80546
  23437540.195 3  23437559.633 8 123165068.809 3  95972856.587 8  23437558.12546
 23  3 10  3  3  5.0000000  0  7G04G08G16G26G27G28G31               
  21368596.156 6  21368606.133 9 112292718.985 6  87500852.088 9  21368605.03547
  21007791.977 6  21007806.102 9 110396693.960 6  86023418.487 9  21007805.01249
  21381759.578 6                 112361894.093 6  87554745.98447  21381766.73447
  22820451.227 2  22820468.242 8 119922255.953 2  93445991.791 8  22820467.50445
  19980539.250 7  19980549.016 9 104998436.859 7  81817000.398 9  19980548.67249
  24036905.336 5  24036928.199 9 126314803.523 5  98427150.314 9  24036927.99246
  23438965.742 3  23438986.508 8 123172569.553 3  95978701.303 8  23438985.59046
 23  3 10  3  3 10.0000000  0  8G04G08G09G16G26G27G28G31            
  21367545.188 6  21367555.070 9 112287195.548 6  87496548.083 9  21367554.31648
  21005225.570 6  21005239.043 9 110383204.522 6  86012907.250 9  21005237.94949
  23473239.313 2                                                
  21382229.164 6                 112364359.091 6  87556666.75048  21382235.39848
  22821568.031 2  22821584.328 8 119928124.491 2  93450564.675 8  22821584.60945
  19980015.617 7  19980025.668 9 104995684.167 7  81814855.443 9  19980025.31349
