     2.11           OBSERVATION DATA    Mixed(MIXED)        RINEX VERSION / TYPE
cnvtToRINEX 3.08.0  convertToRINEX OPR  10-Mar-23 03:39 UTC PGM / RUN BY / DATE 
----------------------------------------------------------- COMMENT             
CK02                                                        MARKER NAME         
CK02                                                        MARKER NUMBER       
GNSS Observer       Trimble                                 OBSERVER / AGENCY   
5218486828          R4-2                4.43                REC # / TYPE / VERS 
                    TRMR4-2         NONE                    ANT # / TYPE        
 -2956617.4394  5076007.2052  2476386.5291                  APPROX POSITION XYZ 
        1.6900        0.0000        0.0000                  ANTENNA: DELTA H/E/N
     1     1     0                                          WAVELENGTH FACT L1/2
     4    C1    L1    L2    P2                              # / TYPES OF OBSERV 
  2023     3    10     2    50   14.0000000     GPS         TIME OF FIRST OBS   
  2023     3    10     3    28   29.0000000     GPS         TIME OF LAST OBS    
     0                                                      RCV CLOCK OFFS APPL 
    18                                                      LEAP SECONDS        
     9                                                      # OF SATELLITES     
   G04  2296  2296  2296  2296                              PRN / # OF OBS      
   G08  2296  2296  2296  2296                              PRN / # OF OBS      
   G09  2296  2296  2296  2296                              PRN / # OF OBS      
   G16  2296  2296  2296  2296                              PRN / # OF OBS      
   G21    77    77    26    26                              PRN / # OF OBS      
   G26  2296  2296  2296  2296                              PRN / # OF OBS      
   G27  2296  2296  2296  2296                              PRN / # OF OBS      
   G28   730   694   300   300                              PRN / # OF OBS      
   G31  2296  2287  2287  2296                              PRN / # OF OBS      
CARRIER PHASE MEASUREMENTS: PHASE SHIFTS REMOVED            COMMENT             
                                                            END OF HEADER       
 23  3 10  2 50 14.0000000  0  8G04G08G09G16G26G27G28G31            
  21472648.953 6 112839523.492 6  87926955.71348  21472661.47748
  21339197.883 6 112138242.910 6  87380515.74749  21339215.81649
  23815278.461 5 125150112.609 5  97519654.16548  23815295.03148
  21222936.633 6 111527278.863 6  86904415.12548  21222947.23848
  22553356.227 5 118518681.138 5  92352279.87247  22553374.41447
  20005630.938 7 105130299.750 7  81919764.67849  20005644.26249
  23678393.898 4 124430806.116 4  96959171.78146  23678419.53546
  23140170.852 5 121602406.003 5  94755199.93847  23140194.38747
 23  3 10  2 50 15.0000000  0  8G04G08G09G16G26G27G28G31            
  21471990.328 6 112836063.117 6  87924259.31347  21472002.90647
  21338253.695 6 112133278.808 6  87376647.61749  21338271.19949
  23814327.523 5 125145117.451 5  97515761.86048  23814344.94148
  21222655.250 6 111525799.599 6  86903262.44948  21222666.05148
  22553227.359 5 118518002.975 5  92351751.41447  22553245.68447
  20005071.906 7 105127359.686 7  81917473.71549  20005084.79349
  23678361.430 4 124430633.679 4  96959037.41646  23678386.68046
  23140061.406 5 121601831.333 5  94754752.13347  23140085.07847
 23  3 10  2 50 16.0000000  0  8G04G08G09G16G26G27G28G31            
  21471331.602 6 112832603.935 6  87921563.84647  21471344.71947
  21337309.133 6 112128315.763 6  87372780.30949  21337326.67649
  23813377.281 5 125140123.258 5  97511870.29448  23813394.48848
  21222373.398 6 111524321.043 6  86902110.32648  21222384.78548
  22553098.578 5 118517325.335 5  92351223.37847  22553116.27047
  20004512.102 7 105124420.863 7  81915183.72649  20004525.16049
  23678329.117 4 124430462.183 4  96958903.78446  23678354.24646
  23139952.375 6 121601257.486 6  94754304.96147  23139975.92647
 23  3 10  2 50 17.0000000  0  8G04G08G09G16G26G27G28G31            
  21470673.961 6 112829145.722 6  87918869.12447  21470686.23447
  21336364.672 6 112123353.561 6  87368913.65649  21336382.32449
  23812426.094 5 125135129.896 5  97507979.36448  23812443.89848
  21222092.555 6 111522843.016 6  86900958.61348  21222103.56648
  22552969.742 5 118516648.068 5  92350695.63747  22552987.79347
  20003953.500 7 105121483.094 7  81912894.55349  20003966.48049
  23678296.547 3 124430291.313 3  96958770.64246  23678321.61346
  23139843.328 5 121600684.274 5  94753858.28947  23139867.15647
 23  3 10  2 50 18.0000000  0  8G04G08G09G16G26G27G28G31            
  21470016.336 6 112825688.426 6  87916175.12647  21470028.78547
  21335421.125 6 112118392.129 6  87365047.60849  21335438.40649
  23811476.688 5 125130137.233 5  97504088.98948  23811493.89548
  21221811.773 6 111521365.444 6  86899807.25148  21221822.39148
  22552840.695 5 118515971.032 5  92350168.06747  22552858.55947
  20003394.641 7 105118546.290 7  81910606.12849  20003407.50049
  23678264.414 3 124430121.021 3  96958637.96046  23678289.22346
  23139734.508 5 121600111.614 5  94753412.04747  23139757.77747
 23  3 10  2 50 19.0000000  0  8G04G08G09G16G26G27G28G31            
  21469358.266 6 112822231.895 6  87913481.72247  21469371.03147
  21334476.461 6 112113431.318 6  87361182.04949  21334493.82049
  23810525.813 5 125125145.164 5  97500199.05148  23810543.55148
  21221530.219 6 111519888.133 6  86898656.10448  21221541.46548
  22552712.195 5 118515294.155 5  92349640.62747  22552730.09047
  20002835.594 7 105115610.292 7  81908318.33849  20002848.65249
  23678231.563 3 124429951.143 3  96958505.59946  23678256.71146
  23139625.164 5 121599539.375 5  94752966.14747  23139648.95347
 23  3 10  2 50 20.0000000  0  8G04G08G09G16G26G27G28G31            
  21468700.813 6 112818776.415 6  87910789.14647  21468713.50447
  21333532.898 6 112108471.435 6  87357317.21649  21333550.32849
  23809575.828 5 125120153.924 5  97496309.75348  23809593.63348
  21221248.891 6 111518411.396 6  86897505.39748  21221260.10548
  22552583.836 5 118514617.668 5  92349113.48747  22552601.76247
  20002277.344 7 105112675.383 7  81906031.39749  20002290.52049
  23678199.609 4 124429781.968 4  96958373.77846  23678224.38746
  23139516.750 5 121598967.789 5  94752520.74047  23139540.23447
 23  3 10  2 50 21.0000000  0  8G04G08G09G16G26G27G28G31            
  21468043.406 6 112815321.631 6  87908097.10047  21468055.74247
  21332589.336 6 112103512.183 6  87353452.87148  21332606.20748
  23808626.094 4 125115163.185 4  97492420.86548  23808644.37548
  21220967.883 6 111516934.949 6  86896354.92147  21220979.10247
  22552454.438 5 118513941.258 5  92348586.40147  22552472.98047
  20001718.984 7 105109741.283 7  81903745.08149  20001731.89549
  23678166.930 4 124429613.158 4  96958242.24046  23678192.31646
  23139407.750 6 121598396.633 6  94752075.67547  23139431.00047
 23  3 10  2 50 22.0000000  0  8G04G08G09G16G26G27G28G31            
  21467386.742 6 112811867.538 6  87905405.59047  21467398.50847
  21331645.453 6 112098553.453 6  87349588.92348  21331662.28948
  23807676.766 4 125110172.939 4  97488532.37148  23807694.77048
  21220687.133 6 111515458.682 6  86895204.57248  21220698.42248
  22552325.969 5 118513264.888 5  92348059.34147  22552344.57447
  20001160.961 7 105106807.917 7  81901459.34149  20001173.57449
  23678135.203 4 124429444.691 4  96958110.97546  23678160.28146
  23139299.055 5 121597825.766 5  94751630.82347  23139322.30147
 23  3 10  2 50 23.0000000  0  8G04G08G09G16G26G27G28G31            
  21466729.305 6 112808414.360 6  87902714.80247  21466741.64847
  21330702.008 6 112093595.521 6  87345725.60249  21330719.45349
  23806727.492 3 125105183.475 3  97484644.49348  23806745.20748
  21220406.141 6 111513982.868 6  86894054.58848  21220417.66848
  22552196.938 5 118512588.796 5  92347532.51047  22552215.52347
  20000602.773 7 105103875.510 7  81899174.34649  20000615.53549
  23678103.523 4 124429276.847 4  96957980.19646  23678128.32846
  23139191.258 6 121597255.481 6  94751186.43947  23139214.23047
 23  3 10  2 50 24.0000000  0  8G04G08G09G16G26G27G28G31            
  21466072.234 6 112804962.063 6  87900024.69947  21466084.27047
  21329758.711 6 112088638.332 6  87341862.85849  21329775.92649
  23805778.422 4 125100194.667 4  97480757.12148  23805795.73448
  21220125.625 6 111512507.471 6  86892904.92448  21220136.56648
  22552068.641 5 118511912.944 5  92347005.87147  22552087.02747
  20000044.945 7 105100944.058 7  81896890.09549  20000057.88349
  23678071.500 4 124429109.542 4  96957849.82146  23678096.57446
  23139082.289 6 121596685.684 6  94750742.41447  23139106.13747
 23  3 10  2 50 25.0000000  0  8G04G08G09G16G26G27G28G31            
  21465415.813 6 112801510.838 6  87897335.43147  21465427.42647
  21328815.875 6 112083682.135 6  87338000.89249  21328833.03549
  23804829.125 4 125095206.714 4  97476870.40848  23804846.91448
  21219844.430 6 111511032.708 6  86891755.75948  21219855.98048
  22551940.125 5 118511237.555 5  92346479.58347  22551958.42247
  19999487.523 7 105098013.751 7  81894606.73749  19999500.27349
  23678039.945 4 124428942.982 4  96957720.03046  23678064.87546
  23138974.023 6 121596116.662 6  94750299.00747  23138997.41447
 23  3 10  2 50 26.0000000  0  8G04G08G09G16G26G27G28G31            
  21464759.000 6 112798060.411 6  87894646.78947  21464771.00447
  21327873.008 6 112078726.603 6  87334139.43949  21327889.52749
  23803880.031 4 125090219.405 4  97472984.18548  23803897.09848
  21219564.305 6 111509558.258 6  86890606.83348  21219575.05148
  22551811.070 5 118510562.290 5  92345953.39647  22551830.10247
  19998930.156 7 105095084.274 7  81892324.02849  19998942.61749
  23678008.555 3 124428776.829 3  96957590.57946  23678032.95346
  23138865.820 6 121595548.063 6  94749855.92847  23138889.56347
 23  3 10  2 50 27.0000000  0  8G04G08G09G16G26G27G28G31            
  21464102.781 6 112794611.093 6  87891958.99548  21464114.52348
  21326929.844 6 112073772.014 6  87330278.72549  21326946.94949
  23802932.172 4 125085232.972 4  97469098.64848  23802948.78148
  21219283.930 6 111508084.403 6  86889458.37648  21219294.88748
  22551683.305 5 118509887.517 5  92345427.59147  22551701.79347
  19998372.695 7 105092155.942 7  81890042.21449  19998385.39849
  23677977.320 3 124428611.432 3  96957461.68946  23678001.56346
  23138757.625 6 121594980.190 6  94749413.41447  23138781.09847
 23  3 10  2 50 28.0000000  0  8G04G08G09G16G26G27G28G31            
  21463446.688 6 112791162.899 6  87889272.09648  21463458.26648
  21325987.555 6 112068818.470 6  87326418.82249  21326004.20349
  23801983.570 5 125080247.503 5  97465213.86548  23801999.86748
  21219003.633 6 111506611.279 6  86888310.47848  21219014.57048
  22551554.891 5 118509213.210 5  92344902.14247  22551573.28547
  19997815.539 7 105089228.841 7  81887761.35449  19997828.66449
  23677946.625 3 124428446.939 3  96957333.53846  23677970.45346
  23138649.844 6 121594413.146 6  94748971.55447  23138673.46147
 23  3 10  2 50 29.0000000  0  8G04G08G09G16G26G27G28G31            
  21462790.813 6 112787715.698 6  87886585.95848  21462802.76648
  21325044.883 6 112063865.760 6  87322559.56749  21325061.76649
  23801034.633 4 125075262.854 4  97461329.73848  23801051.52748
  21218723.672 6 111505138.655 6  86887162.97548  21218734.18848
  22551426.195 5 118508539.283 5  92344376.99647  22551445.03147
  19997258.633 7 105086302.789 7  81885481.31249  19997271.82049
  23677915.125 4 124428283.040 4  96957205.83446  23677939.20346
  23138542.141 6 121593846.729 6  94748530.17447  23138565.71547
 23  3 10  2 50 30.0000000  0  8G04G08G09G16G26G27G28G31            
  21462134.336 6 112784269.158 6  87883900.34647  21462146.29347
  21324102.664 6 112058913.550 6  87318700.70849  21324119.14849
  23800086.422 5 125070278.600 5  97457445.92148  23800103.17648
  21218443.391 6 111503666.231 6  86886015.62748  21218454.16448
  22551298.281 5 118507865.356 5  92343851.85147  22551316.68447
  19996702.336 7 105083377.425 7  81883201.80849  19996715.32849
  23677883.148 3 124428119.442 3  96957078.37246  23677908.23446
  23138435.375 6 121593280.562 6  94748088.99747  23138458.29347
 23  3 10  2 50 31.0000000  0  8G04G08G09G16G26G27G28G31            
  21461478.836 6 112780823.723 6  87881215.59547  21461490.95747
  21323160.195 6 112053962.344 6  87314842.62349  21323177.02349
  23799137.852 5 125065295.321 5  97453562.85848  23799154.71148
  21218162.781 6 111502194.426 6  86884868.76448  21218174.37548
  22551170.000 5 118507191.912 5  92343327.09047  22551188.57847
  19996145.469 7 105080453.244 7  81880923.22049  19996158.62549
  23677852.578 3 124427956.630 3  96956951.49446  23677876.96146
  23138326.914 6 121592715.208 6  94747648.45147  23138350.11747
 23  3 10  2 50 32.0000000  0  8G04G08G09G16G26G27G28G31            
  21460823.867 6 112777379.233 6  87878531.57147  21460835.55147
  21322218.039 6 112049011.929 6  87310985.16349  21322234.98449
  23798190.016 5 125060312.770 5  97449680.37048  23798207.08248
  21217883.078 6 111500723.119 6  86883722.28848  21217894.51648
  22551042.031 5 118506518.780 5  92342802.56047  22551060.35947
  19995589.563 7 105077530.061 7  81878645.41349  19995602.67649
  23677821.563 3 124427794.437 3  96956825.09046  23677846.46546
  23138219.391 6 121592150.431 6  94747208.34947  23138242.77047
 23  3 10  2 50 33.0000000  0  8G04G08G09G16G26G27G28G31            
  21460168.180 6 112773935.578 6  87875848.20347  21460180.41847
  21321275.836 6 112044062.215 6  87307128.25048  21321292.63348
  23797242.203 5 125055330.854 5  97445798.37848  23797258.87948
  21217603.008 6 111499252.180 6  86882576.09948  21217614.37948
  22550913.852 5 118505845.854 5  92342278.19447  22550932.21947
  19995033.484 7 105074607.779 7  81876368.30849  19995046.60549
  23677791.914 4 124427632.746 4  96956699.11446  23677815.73846
  23138112.508 6 121591586.153 6  94746768.64547  23138135.43047
 23  3 10  2 50 34.0000000  0  8G04G08G09G16G26G27G28G31            
  21459512.484 6 112770492.759 6  87873165.48647  21459525.42647
  21320334.555 6 112039113.230 6  87303271.90048  21320351.10248
  23796293.758 4 125050349.640 4  97441916.92247  23796310.69547
  21217322.969 6 111497781.596 6  86881430.18848  21217334.53548
  22550786.516 5 118505173.100 5  92341753.95047  22550804.38347
  19994477.313 7 105071686.370 7  81874091.88749  19994490.74649
  23677760.867 4 124427471.605 4  96956573.57446  23677785.00446
  23138005.320 5 121591022.338 5  94746329.30747  23138027.58647
 23  3 10  2 50 35.0000000  0  8G04G08G09G16G26G27G28G31            
  21458858.047 6 112767050.669 6  87870483.33447  21458870.42247
  21319392.805 6 112034164.806 6  87299415.99248  21319409.68448
  23795345.719 4 125045368.892 4  97438035.81548  23795362.84848
  21217044.039 6 111496311.268 6  86880284.47548  21217054.73448
  22550658.336 5 118504500.425 5  92341229.78047  22550676.65247
  19993921.406 7 105068765.749 7  81871816.07749  19993934.68449
  23677730.078 4 124427310.725 4  96956448.22846  23677754.41046
  23137897.516 6 121590458.886 6  94745890.23047  23137920.75847
 23  3 10  2 50 36.0000000  0  8G04G08G09G16G26G27G28G31            
  21458203.656 6 112763609.391 6  87867801.80647  21458215.46147
  21318451.289 6 112029217.096 6  87295560.63549  21318467.93049
  23794397.211 4 125040388.795 4  97434155.22148  23794415.19148
  21216764.039 6 111494841.302 6  86879139.03448  21216775.03948
  22550529.711 5 118503827.941 5  92340705.76547  22550548.30547
  19993366.141 7 105065846.009 7  81869540.95349  19993379.35249
  23677699.281 3 124427150.387 3  96956323.28346  23677723.95346
  23137790.570 6 121589895.923 6  94745451.53647  23137813.37547
 23  3 10  2 50 37.0000000  0  8G04G08G09G16G26G27G28G31            
  21457548.227 6 112760168.982 6  87865120.96447  21457560.37547
  21317509.781 6 112024270.145 6  87291705.87249  21317526.80549
  23793449.656 4 125035409.391 4  97430275.15348  23793468.06348
  21216484.117 6 111493371.732 6  86877993.90948  21216495.01248
  22550402.531 5 118503155.679 5  92340181.92047  22550420.19147
  19992810.547 7 105062927.208 7  81867266.56649  19992823.69549
  23677668.781 4 124426990.600 4  96956198.77146  23677693.77346
  23137683.555 6 121589333.451 6  94745013.23547  23137706.02747
 23  3 10  2 50 38.0000000  0  8G04G08G09G16G26G27G28G31            
  21456893.438 6 112756729.277 6  87862440.67447  21456905.62147
  21316568.352 6 112019323.769 6  87287851.55249  21316585.34049
  23792502.313 4 125030430.501 4  97426395.47948  23792520.18048
  21216204.383 6 111491902.386 6  86876848.96048  21216215.83248
  22550274.391 5 118502483.474 5  92339658.13147  22550292.06347
  19992255.305 7 105060009.157 7  81864992.75449  19992268.46549
  23677638.070 4 124426831.170 4  96956074.53246  23677663.00046
  23137576.742 6 121588771.326 6  94744575.20147  23137599.09847
 23  3 10  2 50 39.0000000  0  8G04G08G09G16G26G27G28G31            
  21456239.102 6 112753290.600 6  87859761.18248  21456251.82848
  21315626.906 6 112014378.240 6  87283997.89849  21315644.62149
  23791554.906 4 125025452.461 4  97422516.46648  23791573.28548
  21215924.961 6 111490433.612 6  86875704.46748  21215935.50848
  22550146.164 5 118501811.675 5  92339134.64547  22550164.52047
  19991700.063 7 105057092.190 7  81862719.79149  19991713.51649
  23677608.328 4 124426672.415 4  96955950.83246  23677633.65646
  23137469.695 6 121588209.924 6  94744137.73947  23137492.55947
 23  3 10  2 50 40.0000000  0  8G04G08G09G16G26G27G28G31            
  21455585.406 6 112749853.068 6  87857082.58348  21455597.51248
  21314686.242 6 112009433.762 6  87280145.05049  21314703.41849
  23790608.086 4 125020475.355 4  97418638.20248  23790626.18448
  21215645.664 6 111488965.503 6  86874560.48148  21215656.70748
  22550019.070 5 118501140.401 5  92338611.56347  22550036.77747
  19991145.273 7 105054176.442 7  81860447.78149  19991158.54349
  23677578.078 4 124426514.473 4  96955827.74746  23677603.01646
  23137362.906 6 121587649.283 6  94743700.87147  23137386.21547
 23  3 10  2 50 41.0000000  0  8G04G08G09G16G26G27G28G31            
  21454930.992 6 112746416.313 6  87854404.59448  21454943.81648
  21313745.602 6 112004489.889 6  87276292.68149  21313762.59049
  23789661.383 4 125015498.809 4  97414760.38248  23789679.05148
  21215365.930 6 111487497.743 6  86873416.77148  21215377.53548
  22549891.094 5 118500469.222 5  92338088.55347  22549909.39547
  19990590.656 7 105051261.522 7  81858176.41249  19990604.07849
  23677548.336 3 124426357.025 3  96955705.07546  23677573.21946
  23137256.320 6 121587089.073 6  94743264.33447  23137279.81647
 23  3 10  2 50 42.0000000  0  8G04G08G09G16G26G27G28G31            
  21454277.406 6 112742980.505 6  87851727.33947  21454290.10947
  21312805.063 6 111999546.865 6  87272440.97449  21312822.03949
  23788714.461 4 125010523.026 4  97410883.15048  23788732.01248
  21215086.891 6 111486030.401 6  86872273.38748  21215098.59848
  22549763.594 5 118499798.384 5  92337565.80647  22549781.73847
  19990036.109 7 105048347.585 7  81855905.81149  19990049.47749
  23677518.664 4 124426200.096 4  96955582.81046  23677543.18046
  23137149.961 6 121586529.432 6  94742828.24547  23137173.44147
 23  3 10  2 50 43.0000000  0  8G04G08G09G16G26G27G28G31            
  21453623.828 6 112739545.300 6  87849050.55148  21453636.17248
  21311865.000 6 111994604.290 6  87268589.61849  21311881.83249
  23787767.883 4 125005547.638 4  97407006.25048  23787785.40648
  21214807.977 6 111484563.238 6  86871130.13148  21214819.31648
  22549635.594 5 118499127.495 5  92337043.02447  22549653.59847
  19989481.852 7 105045434.318 7  81853635.73849  19989495.35949
  23677488.234 4 124426043.516 4  96955460.81646  23677513.55546
  23137043.375 6 121585970.045 6  94742392.35547  23137066.75047
 23  3 10  2 50 44.0000000  0  8G04G08G09G16G26G27G28G31            
  21452970.023 6 112736110.987 6  87846374.45547  21452983.19147
  21310923.930 6 111989662.540 6  87264738.89549  21310941.40249
  23786821.523 4 125000573.003 4  97403129.92048  23786838.65248
  21214528.609 6 111483096.500 6  86869987.21048  21214540.16048
  22549507.906 5 118498456.866 5  92336520.44147  22549525.83247
  19988927.570 7 105042522.044 7  81851366.43349  19988941.23449
  23677458.203 4 124425887.450 4  96955339.20746  23677483.69146
  23136937.000 5 121585411.251 5  94741956.91347  23136960.62147
 23  3 10  2 50 45.0000000  0  8G04G08G09G16G26G27G28G31            
  21452316.516 6 112732677.361 6  87843698.90447  21452329.77347
  21309983.586 6 111984721.274 6  87260888.56649  21310001.45349
  23785874.797 4 124995598.837 4  97399253.95548  23785892.30548
  21214249.445 6 111481629.962 6  86868844.45247  21214261.07047
  22549380.219 5 118497786.293 5  92335997.90947  22549398.56647
  19988373.648 7 105039610.476 7  81849097.67949  19988386.94149
  23677428.828 4 124425731.746 4  96955217.86945  23677454.07845
  23136830.781 6 121584852.754 6  94741521.70847  23136853.87947
 23  3 10  2 50 46.0000000  0  8G04G08G09G16G26G27G28G31            
  21451663.406 6 112729244.718 6  87841024.10547  21451676.36347
  21309043.828 6 111979780.887 6  87257038.92249  21309060.98049
  23784927.914 4 124990625.476 4  97395378.61648  23784945.94948
  21213970.445 6 111480163.938 6  86867702.09048  21213981.82848
  22549252.891 5 118497116.057 5  92335475.64547  22549271.35547
  19987819.828 7 105036699.945 7  81846829.73049  19987833.37549
  23677398.773 4 124425576.680 4  96955097.03045  23677424.78945
  23136724.500 5 121584294.888 5  94741086.98647  23136747.86347
 23  3 10  2 50 47.0000000  0  8G04G08G09G16G26G27G28G31            
  21451010.422 6 112725813.028 6  87838350.05947  21451023.25047
  21308103.344 6 111974841.328 6  87253189.92049  21308120.68049
  23783981.750 4 124985652.833 4  97391503.82048  23783999.44148
  21213691.383 6 111478698.385 6  86866560.10148  21213703.07048
  22549125.180 5 118496446.166 5  92334953.63647  22549143.24247
  19987266.141 7 105033790.434 7  81844562.57749  19987279.36349
  23677369.977 4 124425422.261 4  96954976.72146  23677395.42646
  23136619.266 6 121583737.649 6  94740652.76847  23136641.83647
 23  3 10  2 50 48.0000000  0  8G04G08G09G16G26G27G28G31            
  21450357.422 6 112722382.121 6  87835676.62247  21450370.85247
  21307163.695 6 111969902.386 6  87249341.40049  21307180.50449
  23783036.023 4 124980680.842 4  97387629.53548  23783053.32448
  21213412.656 6 111477233.187 6  86865418.38648  21213424.09048
  22548998.250 5 118495776.342 5  92334431.67447  22549016.11347
  19986712.703 7 105030881.750 7  81842296.06749  19986725.72749
  23677340.531 4 124425268.240 4  96954856.72446  23677366.60546
  23136513.273 6 121583180.808 6  94740218.85747  23136536.30947
 23  3 10  2 50 49.0000000  0  8G04G08G09G16G26G27G28G31            
  21449705.211 6 112718952.182 6  87833003.93847  21449717.60547
  21306224.031 6 111964964.316 6  87245493.56249  21306241.20349
  23782089.617 4 124975709.582 4  97383755.82048  23782107.52348
  21213134.047 6 111475768.462 6  86864277.04548  21213145.17248
  22548870.688 5 118495106.908 5  92333910.04047  22548888.67247
  19986159.359 7 105027974.102 7  81840030.36049  19986172.52349
  23677311.422 4 124425114.887 4  96954737.23346  23677336.97346
  23136407.313 5 121582624.601 5  94739785.45047  23136430.19147
 23  3 10  2 50 50.0000000  0  8G04G08G09G16G26G27G28G31            
  21449052.414 6 112715522.983 6  87830331.82447  21449065.31347
  21305284.773 6 111960026.844 6  87241646.18349  21305301.19949
  23781144.242 4 124970738.937 4  97379882.58648  23781161.48048
  21212854.688 6 111474304.039 6  86863135.93348  21212866.81648
  22548743.156 5 118494437.539 5  92333388.43847  22548761.35947
  19985606.453 7 105025067.258 7  81837765.28749  19985619.39849
  23677281.969 3 124424961.918 3  96954618.04146  23677308.26246
  23136301.547 6 121582068.759 6  94739352.32447  23136324.24247
 23  3 10  2 50 51.0000000  0  8G04G08G09G16G26G27G28G31            
  21448399.664 6 112712094.674 6  87827660.42047  21448413.30547
  21304345.336 6 111955090.153 6  87237799.41649  21304362.09849
  23780198.055 3 124965768.920 3  97376009.85148  23780215.67648
  21212576.813 6 111472839.976 6  86861995.09948  21212588.35248
  22548616.141 5 118493768.440 5  92332867.05347  22548634.56347
  19985053.156 7 105022161.367 7  81835500.95149  19985066.55149
  23677253.367 3 124424809.514 3  96954499.28546  23677279.30546
  23136195.383 6 121581513.471 6  94738919.61647  23136218.68047
 23  3 10  2 50 52.0000000  0  8G04G08G09G16G26G27G28G31            
  21447747.750 6 112708667.418 6  87824989.83248  21447761.18448
  21303405.984 6 111950154.384 6  87233953.36249  21303422.75449
  23779252.516 4 124960799.794 4  97372137.80548  23779270.13348
  21212298.297 6 111471376.537 6  86860854.74848  21212309.66848
  22548488.703 5 118493099.764 5  92332345.99747  22548507.38347
  19984500.242 7 105019256.560 7  81833237.46649  19984513.89849
  23677224.555 3 124424657.781 3  96954381.06246  23677250.21546
  23136090.063 6 121580958.867 6  94738487.45147  23136113.40247
 23  3 10  2 50 53.0000000  0  8G04G08G09G16G26G27G28G31            
  21447095.570 6 112705241.077 6  87822319.95747  21447108.95747
  21302466.906 6 111945219.394 6  87230107.90749  21302483.80549
  23778307.055 4 124955831.406 4  97368266.34048  23778324.71548
  21212019.664 6 111469913.528 6  86859714.73848  21212031.60948
  22548361.328 5 118492431.346 5  92331825.14647  22548379.81647
  19983947.766 7 105016352.755 7  81830974.75549  19983961.18449
  23677195.219 3 124424506.667 3  96954263.32246  23677221.54346
  23135984.422 6 121580404.856 6  94738055.73547  23136007.77047
 23  3 10  2 50 54.0000000  0  8G04G08G09G16G26G27G28G31            
  21446443.586 6 112701815.521 6  87819650.68848  21446456.81648
  21301528.383 6 111940285.086 6  87226262.99549  21301544.69549
  23777362.227 4 124950863.633 4  97364395.34148  23777379.69948
  21211741.656 6 111468450.884 6  86858575.00848  21211753.48448
  22548234.750 5 118491763.079 5  92331304.40047  22548252.98847
  19983394.992 7 105013449.800 7  81828712.71449  19983408.58249
  23677165.781 3 124424356.021 3  96954145.94846  23677192.68046
  23135879.461 6 121579851.262 6  94737624.35347  23135902.94147
 23  3 10  2 50 55.0000000  0  8G04G08G09G16G26G27G28G31            
  21445792.070 6 112698390.680 6  87816981.96847  21445805.36747
  21300589.547 6 111935351.332 6  87222418.51049  21300605.63749
  23776416.336 4 124945896.325 4  97360524.72248  23776434.13348
  21211463.047 6 111466988.428 6  86857435.43948  21211474.67248
  22548107.289 5 118491094.914 5  92330783.74347  22548125.66447
  19982843.063 7 105010547.591 7  81826451.25449  19982856.60549
  23677137.922 3 124424205.749 3  96954028.81246  23677164.29346
  23135774.586 5 121579298.024 5  94737193.24547  23135797.25847
 23  3 10  2 50 56.0000000  0  8G04G08G09G16G26G27G28G31            
  21445140.500 6 112694966.611 6  87814313.85947  21445154.12147
  21299650.258 6 111930418.224 6  87218574.53549  21299667.32449
  23775470.875 4 124940929.613 4  97356654.55748  23775489.34448
  21211184.758 6 111465526.310 6  86856296.12548  21211196.34848
  22547980.672 5 118490426.812 5  92330263.14647  22547998.50047
  19982290.859 7 105007646.201 7  81824190.43549  19982304.49249
  23677108.594 3 124424055.838 3  96953911.98945  23677135.96145
  23135668.578 5 121578745.203 5  94736762.45747  23135692.05147
 23  3 10  2 50 57.0000000  0  8G04G08G09G16G26G27G28G31            
  21444489.469 6 112691543.178 6  87811646.24348  21444502.60548
  21298712.156 6 111925485.640 6  87214730.96549  21298728.49649
  23774526.320 4 124935963.378 4  97352784.76148  23774543.87548
  21210906.633 6 111464064.354 6  86855156.93748  21210918.21948
  22547853.188 5 118489758.793 5  92329742.61347  22547871.47747
  19981738.820 7 105004745.549 7  81821930.18349  19981752.66449
  23677079.719 3 124423906.344 3  96953795.51746  23677107.59846
  23135563.398 5 121578192.708 5  94736331.92447  23135586.96547
 23  3 10  2 50 58.0000000  0  8G04G08G09G16G26G27G28G31            
  21443837.602 6 112688120.840 6  87808979.48448  21443851.49648
  21297773.359 6 111920554.035 6  87210888.15249  21297790.29349
  23773581.086 4 124930997.981 4  97348915.62047  23773598.98047
  21210628.734 6 111462603.018 6  86854018.21847  21210639.98847
  22547726.531 5 118489091.192 5  92329222.39547  22547744.48447
  19981187.359 7 105001846.006 7  81819670.80149  19981201.01649
  23677051.852 2 124423757.528 2  96953679.55145  23677079.08645
  23135458.656 5 121577640.898 5  94735901.93247  23135482.13347
 23  3 10  2 50 59.0000000  0  8G04G08G09G16G26G27G28G31            
  21443187.094 6 112684699.141 6  87806313.22948  21443200.30948
  21296834.727 6 111915622.919 6  87207045.72349  21296851.94149
  23772636.508 4 124926033.113 4  97345046.91247  23772654.74647
  21210350.695 6 111461141.881 6  86852879.67048  21210362.45348
  22547599.289 5 118488423.581 5  92328702.16447  22547617.46147
  19980635.727 7 104998947.202 7  81817411.99349  19980648.94149
  23677023.594 2 124423609.029 2  96953563.83845  23677050.77045
  23135353.406 5 121577089.419 5  94735472.20247  23135377.37547
 23  3 10  2 51  0.0000000  0  8G04G08G09G16G26G27G28G31            
  21442536.016 6 112681278.397 6  87803647.70948  21442549.10548
  21295896.875 6 111910692.612 6  87203203.93949  21295913.36349
  23771691.781 3 124921068.942 3  97341178.73347  23771709.52747
  21210072.578 6 111459681.156 6  86851741.43648  21210083.82848
  22547472.234 5 118487756.285 5  92328182.18247  22547490.33647
  19980083.648 7 104996049.366 7  81815153.93849  19980097.77749
  23676995.578 2 124423461.170 2  96953448.63645  23677022.69145
  23135249.234 5 121576538.504 5  94735042.91347  23135272.06647
 23  3 10  2 51  1.0000000  0  8G04G08G09G16G26G27G28G31            
  21441884.984 6 112677858.467 6  87800982.81948  21441898.68448
  21294959.039 6 111905763.016 6  87199362.69449  21294975.60249
  23770747.297 4 124916105.424 4  97337311.05048  23770765.10248
  21209795.086 6 111458220.839 6  86850603.52148  21209806.10948
  22547345.391 5 118487089.177 5  92327662.34847  22547363.21547
  19979532.859 7 104993152.431 7  81812896.57749  19979546.10949
  23676967.594 2 124423313.792 2  96953333.83545  23676994.49245
  23135144.484 5 121575988.079 5  94734613.99847  23135167.82447
 23  3 10  2 51  2.0000000  0  8G04G08G09G16G26G27G28G31            
  21441234.555 6 112674439.247 6  87798318.49448  21441247.62948
  21294020.914 6 111900834.021 6  87195521.92549  21294037.54349
  23769803.242 4 124911142.463 4  97333443.79448  23769820.44148
  21209517.273 6 111456760.739 6  86849465.77848  21209528.48448
  22547218.047 5 118486422.114 5  92327142.55547  22547236.28547
  19978981.633 7 104990256.249 7  81810639.81249  19978995.23449
  23676939.531 2 124423166.783 2  96953219.27745  23676966.58645
  23135039.188 5 121575438.037 5  94734185.38547  23135062.81347
 23  3 10  2 51  3.0000000  0  8G04G08G09G16G26G27G28G31            
  21440583.664 6 112671021.037 6  87795654.95447  21440597.80147
  21293083.375 6 111895905.897 6  87191681.82549  21293100.05949
  23768858.219 4 124906180.300 4  97329577.16548  23768876.52748
  21209239.594 6 111455301.176 6  86848328.45348  21209250.64848
  22547091.578 5 118485755.437 5  92326623.05447  22547109.89147
  19978430.836 7 104987361.140 7  81808383.88049  19978444.11749
  23676911.914 2 124423020.352 2  96953105.18245  23676938.73845
  23134934.758 5 121574888.591 5  94733757.23347  23134959.07447
 23  3 10  2 51  4.0000000  0  8G04G08G09G16G26G27G28G31            
  21439933.328 6 112667604.150 6  87792992.45547  21439947.28947
  21292145.750 6 111890978.967 6  87187842.66549  21292162.72349
  23767914.289 4 124901219.243 4  97325711.40748  23767932.29748
  21208961.602 6 111453842.482 6  86847191.80448  21208973.06348
  22546964.469 5 118485089.443 5  92326104.08747  22546983.17647
  19977880.250 7 104984467.396 7  81806129.01649  19977893.81649
  23676883.789 2 124422874.988 2  96952991.92845  23676911.32845
  23134830.055 5 121574340.122 5  94733329.85247  23134854.43847
 23  3 10  2 51  5.0000000  0  8G04G08G09G16G26G27G28G31            
  21439283.531 6 112664187.530 6  87790330.21347  21439297.44947
  21291207.969 6 111886052.164 6  87184003.65449  21291224.96149
  23766969.766 4 124896258.295 4  97321845.81348  23766988.37148
  21208684.352 6 111452383.583 6  86846055.05348  21208695.46548
  22546838.094 5 118484423.059 5  92325584.87247  22546856.68847
  19977329.758 7 104981573.991 7  81803874.46849  19977343.39549
  23676855.688 2 124422729.556 2  96952878.68545  23676883.52045
  23134726.188 5 121573791.615 5  94732902.47847  23134749.89547
 23  3 10  2 51  6.0000000  0  8G04G08G09G16G26G27G28G31            
  21438633.047 6 112660771.641 6  87787668.53248  21438647.27748
  21290270.352 6 111881125.941 6  87180165.07649  21290287.69549
  23766026.133 4 124891297.815 4  97317980.57347  23766044.22347
  21208406.438 6 111450924.942 6  86844918.48748  21208417.94148
  22546711.258 5 118483756.797 5  92325065.74747  22546730.21947
  19976779.195 7 104978681.363 7  81801620.51149  19976792.80549
  23676828.656 2 124422584.513 2  96952765.70245  23676856.01645
  23134621.555 6 121573243.449 6  94732475.36147  23134645.94947
 23  3 10  2 51  7.0000000  0  8G04G08G09G16G26G27G28G31            
  21437983.500 6 112657356.599 6  87785007.46847  21437997.47747
  21289333.250 6 111876200.441 6  87176327.04149  21289350.22349
  23765082.695 4 124886338.073 4  97314115.87447  23765100.60947
  21208128.813 6 111449466.660 6  86843782.17547  21208140.36747
  22546584.523 5 118483090.725 5  92324546.74847  22546603.27047
  19976228.766 7 104975789.651 7  81799367.24749  19976242.56649
  23676801.164 2 124422439.926 2  96952653.01945  23676828.72345
  23134517.336 5 121572695.798 5  94732048.61847  23134541.36747
 23  3 10  2 51  8.0000000  0  8G04G08G09G16G26G27G28G31            
  21437333.813 6 112653942.352 6  87782347.00447  21437347.81347
  21288395.891 6 111871275.627 6  87172489.52149  21288413.23849
  23764138.719 4 124881378.932 4  97310251.60947  23764156.38747
  21207851.484 6 111448008.722 6  86842646.11647  21207862.98447
  22546456.945 5 118482424.817 5  92324027.84347  22546476.30947
  19975678.406 7 104972898.804 7  81797114.63149  19975691.77749
  23676772.664 2 124422295.882 2  96952540.80845  23676801.23045
  23134413.273 5 121572148.559 5  94731622.18747  23134436.88347
 23  3 10  2 51  9.0000000  0  8G04G08G09G16G26G27G28G31            
  21436684.203 6 112650529.071 6  87779687.28447  21436698.26647
  21287458.930 6 111866351.609 6  87168652.62449  21287476.18049
  23763194.867 4 124876420.520 4  97306387.88647  23763212.61747
  21207574.219 6 111446551.245 6  86841510.40847  21207585.76647
  22546330.992 5 118481759.222 5  92323509.17247  22546349.55547
  19975128.938 7 104970008.927 7  81794862.76949  19975142.42649
  23676745.297 2 124422152.396 2  96952428.99145  23676773.80145
  23134309.086 5 121571601.908 5  94731196.19447  23134333.45347
 23  3 10  2 51 10.0000000  0  8G04G08G09G16G26G27G28G31            
  21436034.922 6 112647116.604 6  87777028.20547  21436049.05947
  21286521.727 6 111861428.372 6  87164816.33249  21286539.39849
  23762251.320 4 124871462.775 4  97302524.68847  23762269.68847
  21207296.867 6 111445094.139 6  86840374.98847  21207308.59047
  22546204.172 5 118481093.780 5  92322990.61847  22546223.09447
  19974579.180 7 104967119.973 7  81792611.62149  19974592.82849
  23676717.953 1 124422009.418 1  96952317.53345  23676746.21945
  23134205.875 5 121571055.804 5  94730770.64447  23134229.53947
 23  3 10  2 51 11.0000000  0  8G04G08G09G16G26G27G28G31            
  21435385.352 6 112643704.950 6  87774369.76947  21435399.82047
  21285585.719 6 111856505.772 6  87160980.53349  21285602.48049
  23761308.477 3 124866505.622 3  97298661.95947  23761326.48447
  21207019.930 6 111443637.399 6  86839239.86147  21207031.17647
  22546078.047 5 118480428.554 5  92322472.23747  22546096.43047
  19974029.641 7 104964231.881 7  81790361.15049  19974042.75849
  23676691.664 1 124421866.973 1  96952206.52945  23676719.08245
  23134101.773 5 121570510.118 5  94730345.42347  23134125.49647
 23  3 10  2 51 12.0000000  0  8G04G08G09G16G26G27G28G31            
  21434736.727 6 112640294.019 6  87771711.89747  21434750.87547
  21284649.063 6 111851583.835 6  87157145.25549  21284665.89849
  23760365.539 3 124861549.024 3  97294799.69147  23760383.40247
  21206742.375 6 111442180.891 6  86838104.91248  21206753.98848
  22545950.820 5 118479763.394 5  92321953.92147  22545969.87547
  19973479.766 7 104961344.565 7  81788111.29249  19973493.57849
  23676664.281 2 124421724.847 2  96952095.79745  23676691.82445
  23133997.352 5 121569964.819 5  94729920.49547  23134021.60947
 23  3 10  2 51 13.0000000  0  8G04G08G09G16G26G27G28G31            
  21434087.969 6 112636883.817 6  87769054.59347  21434102.07047
  21283712.141 6 111846662.477 6  87153310.43149  21283730.04349
  23759422.461 4 124856592.968 4  97290937.84647  23759440.26247
  21206465.445 6 111440724.671 6  86836970.19348  21206477.28148
  22545824.375 5 118479098.379 5  92321435.72747  22545843.59847
  19972930.844 7 104958458.076 7  81785862.08049  19972944.34449
  23676637.891 2 124421583.132 2  96951985.36345  23676664.95745
  23133893.711 5 121569419.937 5  94729495.89247  23133917.62547
 23  3 10  2 51 14.0000000  0  8G04G08G09G16G26G27G28G31            
  21433438.992 6 112633474.569 6  87766398.04047  21433453.38347
  21282775.906 6 111841741.902 6  87149476.21949  21282793.05549
  23758479.492 3 124851637.700 3  97287076.59948  23758497.11348
  21206188.867 6 111439268.886 6  86835835.80448  21206199.93048
  22545697.883 5 118478433.568 5  92320917.67947  22545716.76247
  19972381.789 7 104955572.531 7  81783613.60449  19972395.58249
  23676610.477 1 124421441.993 1  96951875.42145  23676638.21145
  23133790.672 5 121568875.551 5  94729071.68147  23133814.41047
 23  3 10  2 51 15.0000000  0  8G04G08G09G16G26G27G28G31            
  21432790.156 6 112630065.903 6  87763741.94248  21432804.28148
  21281839.875 6 111836821.780 6  87145642.36349  21281856.77349
  23757536.094 4 124846682.778 4  97283215.61747  23757554.25047
  21205911.430 6 111437813.241 6  86834701.53348  21205923.08648
  22545571.523 5 118477768.754 5  92320399.64147  22545590.46947
  19971832.625 7 104952687.653 7  81781365.64649  19971846.21549
  23676583.164 1 124421301.127 1  96951765.69045  23676611.21545
  23133686.867 5 121568331.443 5  94728647.68547  23133710.93047
 23  3 10  2 51 16.0000000  0  8G04G08G09G16G26G27G28G31            
  21432141.813 6 112626657.804 6  87761086.27148  21432155.61748
  21280903.273 6 111831902.100 6  87141808.84449  21280920.58649
  23756593.539 4 124841728.290 4  97279354.95248  23756611.41048
  21205635.172 6 111436357.679 6  86833567.32348  21205645.98848
  22545444.641 5 118477103.883 5  92319881.56247  22545463.61747
  19971284.063 7 104949803.399 7  81779118.17949  19971297.24249
  23676556.898 2 124421160.507 2  96951656.14445  23676584.11745
  23133583.570 5 121567787.588 5  94728223.89847  23133607.44147
 23  3 10  2 51 17.0000000  0  8G04G08G09G16G26G27G28G31            
  21431493.195 6 112623250.529 6  87758431.25248  21431507.15248
  21279967.078 6 111826983.104 6  87137975.86749  21279984.69549
  23755651.102 4 124836774.367 4  97275494.73748  23755668.53948
  21205358.047 6 111434902.437 6  86832433.37948  21205369.17648
  22545318.117 5 118476439.170 5  92319363.58847  22545337.36747
  19970735.242 7 104946920.010 7  81776871.38149  19970748.85549
  23676530.328 2 124421020.345 2  96951546.90945  23676557.88745
  23133479.992 5 121567244.138 5  94727800.41047  23133504.19147
 23  3 10  2 51 18.0000000  0  8G04G08G09G16G26G27G28G31            
  21430845.555 6 112619844.090 6  87755776.88348  21430859.17648
  21279031.453 6 111822064.846 6  87134143.45849  21279048.36349
  23754708.539 4 124831821.145 4  97271635.08948  23754726.22348
  21205081.211 6 111433447.618 6  86831299.74947  21205092.41047
  22545192.117 5 118475774.708 5  92318845.80147  22545210.72747
  19970186.734 7 104944037.545 7  81774625.30049  19970200.37149
  23676504.484 2 124420880.708 2  96951438.09245  23676531.04745
  23133376.867 5 121566701.246 5  94727377.35447  23133400.71547
 23  3 10  2 51 19.0000000  0  8G04G08G09G16G26G27G28G31            
  21430197.203 6 112616438.440 6  87753123.13348  21430210.69548
  21278095.805 6 111817147.198 6  87130311.52449  21278113.39849
  23753765.703 4 124826868.488 4  97267775.89248  23753783.46548
  21204804.305 6 111431993.077 6  86830166.33648  21204815.78948
  22545065.773 5 118475110.320 5  92318328.08647  22545084.42647
  19969638.406 7 104941155.906 7  81772379.86749  19969652.00449
  23676477.609 2 124420741.544 2  96951329.64046  23676504.60546
  23133273.563 5 121566158.739 5  94726954.60447  23133297.65247
 23  3 10  2 51 20.0000000  0  8G04G08G09G16G26G27G28G31            
  21429549.172 6 112613033.775 6  87750470.14848  21429563.13348
  21277160.125 6 111812230.432 6  87126480.27749  21277177.30549
  23752823.305 4 124821916.629 4  97263917.31347  23752841.46547
  21204527.453 6 111430539.071 6  86829033.34647  21204538.67647
  22544939.234 5 118474446.293 5  92317810.66247  22544958.02747
  19969090.148 7 104938275.317 7  81770135.24549  19969103.91849
  23676451.773 2 124420602.987 2  96951221.70546  23676478.29746
  23133170.148 5 121565616.827 5  94726532.32647  23133193.91047
 23  3 10  2 51 21.0000000  0  8G04G08G09G16G26G27G28G31            
  21428901.891 6 112609629.929 6  87747817.79248  21428915.48448
  21276224.281 6 111807314.386 6  87122649.60249  21276241.61349
  23751881.648 4 124816965.467 4  97260059.27048  23751899.05548
  21204250.727 6 111429085.430 6  86827900.63247  21204262.64147
  22544813.016 5 118473782.470 5  92317293.37947  22544831.35547
  19968542.047 7 104935395.618 7  81767891.32449  19968555.35549
  23676424.672 1 124420464.908 1  96951114.12146  23676451.75846
  23133067.266 5 121565075.461 5  94726110.47947  23133091.18447
 23  3 10  2 51 22.0000000  0  8G04G08G09G16G26G27G28G31            
  21428253.688 6 112606226.998 6  87745166.15547  21428267.23847
  21275288.750 6 111802399.093 6  87118819.50249  21275306.78949
  23750939.523 4 124812014.960 4  97256201.72748  23750957.46148
  21203974.328 6 111427632.200 6  86826768.23948  21203986.21948
  22544686.430 5 118473118.875 5  92316776.29247  22544705.17247
  19967994.672 7 104932516.849 7  81765648.12049  19968007.90649
  23676398.500 2 124420327.447 2  96951007.01045  23676425.57445
  23132964.625 5 121564534.607 5  94725689.02447  23132988.12947
 23  3 10  2 51 23.0000000  0  8G04G08G09G16G26G27G28G31            
  21427606.719 6 112602824.873 6  87742515.14648  21427620.18048
  21274354.211 6 111797484.516 6  87114989.96949  21274371.25449
  23749996.641 4 124807065.079 4  97252344.67548  23750015.28548
  21203697.938 6 111426179.296 6  86825636.10548  21203709.28948
  22544560.406 5 118472455.503 5  92316259.36947  22544579.09847
  19967446.750 7 104929638.956 7  81763405.60549  19967460.20749
  23676373.063 2 124420190.396 2  96950900.21245  23676399.84045
  23132862.102 6 121563994.184 6  94725267.89747  23132885.12947
 23  3 10  2 51 24.0000000  0  8G04G08G09G16G26G27G28G31            
  21426959.133 6 112599423.517 6  87739864.73548  21426973.27348
  21273418.930 6 111792570.563 6  87111160.91849  21273436.15649
  23749055.125 4 124802115.772 4  97248488.08947  23749073.65247
  21203421.336 6 111424726.686 6  86824504.19748  21203432.71948
  22544434.273 5 118471792.213 5  92315742.50647  22544452.94147
  19966899.609 7 104926761.893 7  81761163.73349  19966913.09449
  23676347.102 2 124420053.795 2  96950793.76545  23676373.98845
  23132759.242 6 121563454.216 6  94724847.12947  23132782.23447
 23  3 10  2 51 25.0000000  0  8G04G08G09G16G26G27G28G31            
  21426311.844 6 112596022.969 6  87737214.96148  21426325.98848
  21272483.898 6 111787657.297 6  87107332.40549  21272501.34049
  23748113.352 4 124797167.105 4  97244631.99847  23748131.75047
  21203144.961 6 111423274.451 6  86823372.58548  21203156.28948
  22544308.273 5 118471129.127 5  92315225.80247  22544326.79347
  19966352.117 7 104923885.716 7  81758922.55649  19966365.39849
  23676321.172 2 124419917.697 2  96950687.68645  23676347.87545
  23132656.273 6 121562914.696 6  94724426.71547  23132679.68447
 23  3 10  2 51 26.0000000  0  8G04G08G09G16G26G27G28G31            
  21425664.961 6 112592623.146 6  87734565.74148  21425678.97748
  21271548.672 6 111782744.635 6  87103504.35449  21271566.22749
  23747172.211 4 124792218.957 4  97240776.30347  23747190.06347
  21202868.914 6 111421822.467 6  86822241.16248  21202880.17648
  22544181.898 5 118470466.126 5  92314709.17047  22544200.48847
  19965804.805 7 104921010.313 7  81756681.98549  19965818.31649
  23676295.055 2 124419781.904 2  96950581.87845  23676322.13345
  23132554.461 6 121562375.575 6  94724006.62047  23132576.89847
 23  3 10  2 51 27.0000000  0  8G04G08G09G16G26G27G28G31            
  21425018.500 6 112589224.197 6  87731917.21448  21425031.70748
  21270614.055 6 111777832.680 6  87099676.85449  21270631.07449
  23746230.281 4 124787271.461 4  97236921.11347  23746248.61747
  21202592.188 6 111420370.838 6  86821110.02148  21202603.87948
  22544056.039 6 118469803.313 6  92314192.68547  22544074.47747
  19965258.070 7 104918135.798 7  81754442.09749  19965271.31649
  23676269.977 2 124419646.716 2  96950476.55545  23676296.09045
  23132451.594 5 121561836.915 5  94723586.87247  23132474.68447
 23  3 10  2 51 28.0000000  0  8G04G08G09G16G26G27G28G31            
  21424372.063 6 112585826.004 6  87729269.25047  21424385.05147
  21269679.594 6 111772921.381 6  87095849.85449  21269697.42649
  23745288.969 3 124782324.582 3  97233066.38347  23745307.42647
  21202316.523 6 111418919.536 6  86819979.12448  21202327.53948
  22543929.891 6 118469140.651 6  92313676.29647  22543948.35947
  19964710.859 7 104915262.147 7  81752202.87749  19964724.19949
  23676244.000 2 124419511.955 2  96950371.56045  23676270.64545
  23132349.383 5 121561298.698 5  94723167.47047  23132372.48847
 23  3 10  2 51 29.0000000  0  8G04G08G09G16G26G27G28G31            
  21423725.375 6 112582428.746 6  87726622.01448  21423738.50448
  21268745.211 6 111768010.908 6  87092023.48649  21268762.66849
  23744348.102 3 124777378.445 3  97229212.24847  23744366.04747
  21202040.398 6 111417468.704 6  86818848.57848  21202051.84048
  22543804.102 6 118468478.299 6  92313160.14647  22543822.35547
  19964164.602 7 104912389.479 7  81749964.40949  19964177.47749
  23676217.578 3 124419377.754 3  96950266.97945  23676244.67645
  23132246.789 6 121560761.087 6  94722748.51747  23132270.18447
 23  3 10  2 51 30.0000000  0  8G04G08G09G16G26G27G28G31            
  21423079.258 6 112579032.245 6  87723975.37747  21423092.52747
  21267811.039 6 111763100.979 6  87088197.56649  21267828.53549
  23743406.961 3 124772432.834 3  97225358.53447  23743425.02747
  21201763.859 6 111416018.104 6  86817718.22648  21201775.63348
  22543677.625 5 118467815.992 5  92312644.04247  22543696.05947
  19963617.484 7 104909517.579 7  81747726.55449  19963631.18049
  23676193.219 3 124419243.980 3  96950162.72545  23676219.38345
  23132144.398 5 121560223.817 5  94722329.84247  23132167.61347
 23  3 10  2 51 31.0000000  0  8G04G08G09G16G26G27G28G31            
  21422433.445 6 112575636.432 6  87721329.27947  21422446.42647
  21266876.617 6 111758191.693 6  87084372.15249  21266894.02049
  23742466.133 3 124767487.808 3  97221505.27847  23742483.97347
  21201488.195 6 111414567.779 6  86816588.09948  21201500.03548
  22543551.836 6 118467153.820 6  92312128.05647  22543570.00047
  19963071.727 7 104906646.474 7  81745489.32249  19963085.23849
  23676167.273 3 124419110.561 3  96950058.76645  23676194.14145
  23132042.586 6 121559686.934 6  94721911.46847  23132065.48047
 23  3 10  2 51 32.0000000  0  8G04G08G09G16G26G27G28G31            
  21421787.375 6 112572241.436 6  87718683.82747  21421800.43447
  21265942.953 6 111753283.068 6  87080547.26049  21265959.94949
  23741524.688 3 124762543.320 3  97217652.42947  23741542.94147
  21201212.141 6 111413117.775 6  86815458.22447  21201224.28147
  22543425.844 6 118466491.748 6  92311612.14547  22543444.16047
  19962524.945 7 104903776.206 7  81743252.75549  19962538.86749
  23676141.547 3 124418977.596 3  96949955.17546  23676168.75846
  23131940.313 5 121559150.450 5  94721493.42647  23131963.37147
 23  3 10  2 51 33.0000000  0  8G04G08G09G16G26G27G28G31            
  21421141.242 6 112568847.372 6  87716039.11447  21421154.48447
  21265008.813 6 111748375.271 6  87076723.00949  21265025.73049
  23740583.938 3 124757599.639 3  97213800.21347  23740602.30147
  21200936.641 6 111411668.254 6  86814328.72847  21200948.07447
  22543300.055 6 118465830.013 6  92311096.50047  22543318.63347
  19961979.125 7 104900906.943 7  81741016.97149  19961992.35549
  23676116.453 3 124418845.261 3  96949852.07945  23676143.32045
  23131838.555 6 121558614.600 6  94721075.88347  23131861.98047
 23  3 10  2 51 34.0000000  0  8G04G08G09G16G26G27G28G31            
  21420495.563 6 112565454.151 6  87713395.04247  21420508.68447
  21264075.438 6 111743468.196 6  87072899.32349  21264092.43049
  23739642.711 2 124752656.612 2  97209948.50747  23739661.66447
  21200660.703 6 111410219.063 6  86813199.47948  21200672.05548
  22543173.891 6 118465168.451 6  92310580.99047  22543192.52747
  19961433.383 7 104898038.574 7  81738781.87949  19961446.63749
  23676092.539 3 124418713.402 3  96949749.34245  23676118.10245
  23131736.117 6 121558079.229 6  94720658.70947  23131759.69547
 23  3 10  2 51 35.0000000  0  8G04G08G09G16G26G27G28G31            
  21419849.719 6 112562061.642 6  87710751.52648  21419862.90648
  21263141.617 6 111738561.673 6  87069076.05749  21263158.70749
  23738702.484 3 124747714.119 3  97206097.20747  23738721.32847
  21200384.836 6 111408770.145 6  86812070.45248  21200396.53548
  22543047.430 5 118464506.992 5  92310065.56547  22543066.61347
  19960887.758 7 104895170.979 7  81736547.39649  19960901.01249
  23676067.328 2 124418581.924 2  96949646.89845  23676093.77345
  23131634.734 5 121557544.190 5  94720241.77747  23131657.99247
 23  3 10  2 51 36.0000000  0  8G04G08G09G16G26G27G28G31            
  21419204.547 6 112558669.822 6  87708108.54948  21419217.66448
  21262208.250 6 111733655.769 6  87065253.27149  21262224.76249
  23737762.414 2 124742772.125 2  97202246.29547  23737780.62147
  21200109.195 6 111407321.415 6  86810941.57648  21200120.69548
  22542922.898 6 118463845.563 6  92309550.16047  22542940.53547
  19960342.227 7 104892304.153 7  81734313.50449  19960355.47749
  23676041.953 2 124418450.844 2  96949544.73845  23676068.82445
  23131533.125 6 121557009.548 6  94719825.16647  23131556.18447
 23  3 10  2 51 37.0000000  0  8G04G08G09G16G26G27G28G31            
  21418559.477 6 112555278.821 6  87705466.21348  21418572.38748
  21261274.344 6 111728750.519 6  87061431.00249  21261291.18449
  23736822.953 3 124737830.723 3  97198395.85247  23736840.25847
  21199833.602 6 111405873.050 6  86809812.97648  21199845.36348
  22542796.219 6 118463184.321 6  92309034.90647  22542814.47747
  19959797.250 7 104889438.170 7  81732080.26949  19959809.93849
  23676016.211 2 124418320.133 2  96949442.88046  23676043.36346
  23131431.453 6 121556475.307 6  94719408.86047  23131454.46947
 23  3 10  2 51 38.0000000  0  8G04G08G09G16G26G27G28G31            
  21417913.773 6 112551888.722 6  87702824.57048  21417927.30148
  21260341.672 6 111723846.074 6  87057609.35849  21260357.70749
  23735882.242 3 124732890.024 3  97194545.95647  23735900.75847
  21199558.266 6 111404425.094 6  86808684.69548  21199569.21148
  22542670.594 5 118462523.347 5  92308519.84447  22542688.59847
  19959251.477 7 104886573.167 7  81729847.79849  19959264.90649
  23675992.234 2 124418190.093 2  96949341.56546  23676018.85546
  23131329.633 6 121555941.654 6  94718993.00947  23131352.88347
 23  3 10  2 51 39.0000000  0  8G04G08G09G16G26G27G28G31            
  21417268.867 6 112548499.485 6  87700183.59748  21417282.03148
  21259408.023 6 111718942.314 6  87053788.24349  21259424.89849
  23734942.867 4 124727949.960 4  97190696.55347  23734960.07447
  21199282.555 6 111402977.542 6  86807556.72948  21199294.03948
  22542545.180 5 118461862.575 5  92308004.93347  22542563.21147
  19958706.859 7 104883709.039 7  81727616.00049  19958719.94949
  23675968.766 2 124418060.454 2  96949240.56446  23675994.52046
  23131228.273 6 121555408.479 6  94718577.53847  23131251.44147
 23  3 10  2 51 40.0000000  0  8G04G08G09G16G26G27G28G31            
  21416624.109 6 112545110.989 6  87697543.20648  21416638.10548
  21258475.305 6 111714039.197 6  87049967.63649  21258491.77049
  23734003.102 3 124723010.563 3  97186847.67147  23734019.96947
  21199006.922 6 111401530.278 6  86806428.99147  21199018.72747
  22542419.203 5 118461201.923 5  92307490.12647  22542437.21147
  19958161.844 7 104880845.749 7  81725384.86249  19958174.83249
  23675943.711 2 124417931.338 2  96949139.95046  23675969.66446
  23131126.813 5 121554875.720 5  94718162.38747  23131149.82447
 23  3 10  2 51 41.0000000  0  8G04G08G09G16G26G27G28G31            
  21415979.438 6 112541723.096 6  87694903.28448  21415992.50448
  21257542.516 6 111709136.556 6  87046147.40049  21257558.85949
  23733062.867 3 124718071.492 3  97182999.06147  23733080.41847
  21198732.156 6 111400083.098 6  86805301.30748  21198743.27748
  22542293.477 5 118460541.196 5  92306975.26747  22542311.82047
  19957617.133 7 104877983.117 7  81723154.24149  19957630.34449
  23675918.758 2 124417802.475 2  96949039.52545  23675945.13345
  23131025.477 5 121554343.212 5  94717747.44147  23131048.67647
 23  3 10  2 51 42.0000000  0  8G04G08G09G16G26G27G28G31            
  21415334.695 6 112538335.878 6  87692263.89648  21415348.13348
  21256609.133 6 111704234.421 6  87042327.55349  21256625.74649
  23732123.477 4 124713132.937 4  97179150.86748  23732140.95348
  21198456.555 6 111398636.162 6  86804173.82248  21198468.12148
  22542167.367 5 118459880.512 5  92306460.44547  22542185.84847
  19957072.547 7 104875121.187 7  81720924.17149  19957085.76649
  23675894.625 3 124417673.962 3  96948939.39646  23675920.57846
  23130924.594 6 121553811.015 6  94717332.73647  23130947.50447
 23  3 10  2 51 43.0000000  0  8G04G08G09G16G26G27G28G31            
  21414690.789 6 112534949.645 6  87689625.26448  21414704.32848
  21255676.461 6 111699333.217 6  87038508.43449  21255693.31349
  23731183.555 3 124708195.174 3  97175303.27447  23731201.22347
  21198181.367 6 111397189.712 6  86803046.72048  21198192.29348
  22542041.625 5 118459220.200 5  92305945.91747  22542060.48847
  19956528.047 7 104872260.342 7  81718694.94249  19956541.14849
  23675869.648 2 124417545.996 2  96948839.70646  23675896.47746
  23130823.219 5 121553279.439 5  94716918.50847  23130846.43047
 23  3 10  2 51 44.0000000  0  8G04G08G09G16G26G27G28G31            
  21414046.375 6 112531564.172 6  87686987.23347  21414059.85247
  21254743.852 6 111694432.609 6  87034689.77149  21254760.31349
  23730243.219 3 124703258.000 3  97171456.14047  23730261.67247
  21197906.359 6 111395743.551 6  86801919.83247  21197917.63747
  22541916.148 5 118458559.965 5  92305431.43147  22541934.52747
  19955983.867 7 104869400.266 7  81716466.30349  19955996.73849
  23675845.336 3 124417418.481 3  96948740.35445  23675872.16845
  23130721.992 6 121552748.254 6  94716504.58047  23130744.91847
 23  3 10  2 51 45.0000000  0  8G04G08G09G16G26G27G28G31            
  21413402.070 6 112528179.533 6  87684349.84447  21413415.92247
  21253812.172 6 111689532.718 6  87030871.68249  21253828.18449
  23729304.617 3 124698321.434 3  97167609.48447  23729322.09047
  21197631.117 6 111394297.750 6  86800793.22948  21197641.85948
  22541790.242 6 118457899.961 6  92304917.13347  22541809.13347
  19955439.797 7 104866541.106 7  81714238.38749  19955452.77349
  23675821.242 2 124417291.511 2  96948641.43245  23675847.76645
  23130621.461 6 121552217.549 6  94716091.03647  23130644.12147
 23  3 10  2 51 46.0000000  0  8G04G08G09G16G26G27G28G31            
  21412758.234 6 112524795.787 6  87681713.16147  21412771.93847
  21252879.586 6 111684633.584 6  87027054.18049  21252896.02749
  23728364.617 2 124693385.533 2  97163763.33447  23728382.59447
  21197355.969 6 111392852.371 6  86799666.95847  21197367.23447
  22541665.055 6 118457240.191 6  92304403.02147  22541683.35247
  19954895.867 7 104863682.893 7  81712011.21449  19954909.23049
  23675797.508 2 124417165.083 2  96948542.93845  23675824.05145
  23130520.195 5 121551687.410 5  94715677.94147  23130543.23847
 23  3 10  2 51 47.0000000  0  8G04G08G09G16G26G27G28G31            
  21412114.914 6 112521413.095 6  87679077.29347  21412127.86347
  21251947.203 6 111679735.353 6  87023237.37949  21251963.68849
  23727425.672 2 124688450.644 2  97159917.96547  23727443.92247
  21197081.250 6 111391407.559 6  86798541.13648  21197091.77048
  22541539.539 6 118456580.809 6  92303889.21647  22541557.92647
  19954352.023 7 104860825.753 7  81709784.86949  19954365.21949
  23675773.773 3 124417039.323 3  96948444.95746  23675800.09446
  23130419.172 6 121551157.953 6  94715265.37747  23130442.65647
 23  3 10  2 51 48.0000000  0  8G04G08G09G16G26G27G28G31            
  21411471.148 6 112518031.048 6  87676441.93048  21411484.07048
  21251014.992 6 111674837.644 6  87019420.98749  21251032.04349
  23726485.688 2 124683516.178 2  97156072.89747  23726504.42247
  21196806.148 6 111389962.948 6  86797415.46448  21196816.97748
  22541414.375 5 118455921.473 5  92303375.44547  22541432.34447
  19953808.766 7 104857969.365 7  81707559.11349  19953821.66449
  23675749.852 2 124416913.872 2  96948347.17045  23675776.47345
  23130318.883 6 121550628.789 6  94714853.03447  23130341.70747
 23  3 10  2 51 49.0000000  0  8G04G08G09G16G26G27G28G31            
  21410827.961 6 112514649.822 6  87673807.20148  21410841.15648
  21250083.563 6 111669940.628 6  87015605.13449  21250099.77049
  23725547.008 2 124678582.342 2  97152228.31347  23725565.32047
  21196531.539 6 111388518.674 6  86796290.05248  21196542.42648
  22541288.859 6 118455262.261 6  92302861.76347  22541306.98847
  19953265.313 7 104855113.824 7  81705334.01949  19953278.05149
  23675726.109 2 124416788.962 2  96948249.84246  23675752.34846
  23130217.766 5 121550100.091 5  94714441.05047  23130241.28547
 23  3 10  2 51 50.0000000  0  8G04G08G09G16G26G27G28G31            
  21410184.773 6 112511269.259 6  87671172.99347  21410197.81647
  21249151.938 6 111665044.163 6  87011789.70449  21249168.28549
  23724608.578 2 124673648.931 2  97148384.07747  23724627.36347
  21196256.117 6 111387074.587 6  86795164.78948  21196267.60548
  22541163.406 6 118454603.160 6  92302348.16047  22541181.73847
  19952721.914 7 104852259.014 7  81703109.49849  19952734.50049
  23675702.961 2 124416664.390 2  96948152.75646  23675728.59046
  23130117.586 5 121549571.743 5  94714029.33347  23130140.80147
 23  3 10  2 51 51.0000000  0  8G04G08G09G16G26G27G28G31            
  21409541.602 6 112507889.447 6  87668539.37248  21409554.26648
  21248220.211 6 111660148.309 6  87007974.75849  21248236.77049
  23723670.008 2 124668716.052 2  97144540.27247  23723688.60547
  21195982.156 6 111385630.781 6  86794039.74748  21195993.11348
  22541037.813 6 118453944.113 6  92301834.59347  22541056.24647
  19952178.797 7 104849405.011 7  81700885.59849  19952191.73449
  23675679.609 2 124416540.098 2  96948055.91145  23675704.92645
  23130017.617 5 121549043.722 5  94713617.85447  23130040.18447
