     3.02           OBSERVATION DATA    G: GPS              RINEX VERSION / TYPE
convert_skytraq_raw Skytraq Corp.       20241216 141316 UTC PGM / RUN BY / DATE 
Test version 0.1                                            COMMENT             
                                                            MARKER NAME         
                                                            MARKER NUMBER       
                                                            MARKER TYPE         
Skytraq Corp.                                               OBSERVER / AGENCY   
                                                            REC # / TYPE / VERS 
                                                            ANT # / TYPE        
 -2956512.4890  5075998.2815  2476568.5855                  APPROX POSITION XYZ 
        0.0000        0.0000        0.0000                  ANTENNA: DELTA H/E/N
G    4 C1C L1C D1C S1C                                      SYS / # / OBS TYPES 
  2024    12    16     3    58   23.9860001     GPS         TIME OF FIRST OBS   
  2024    12    16     4    58   51.9849999     GPS         TIME OF LAST OBS    
                                                            END OF HEADER       
> 2024 12 16  3 58 23.9860001  0 10                     
G 3  19691053.747    -4574352.396        1759.000          37.000  
G10  20333843.142     5818982.815       -2902.000          37.000  
G16  17710297.443    -6722719.674        2952.000          43.000  
G25  20631936.711     5912753.461       -2977.000          37.000  
G26  16383871.304    -2601969.831         787.000          47.000  
G27  21111823.017    -5163546.452        4130.000          37.000  
G28  17803664.063     -474817.108         185.000          44.000  
G29  19387618.024     -554378.611        -281.000          42.000  
G31  17513023.937    -2074207.759         949.000          44.000  
G32  17132369.609      624437.387        -839.000          48.000  
> 2024 12 16  3 58 24.9860001  0 10                     
G 3  19690719.051    -4576111.205        1758.000          37.000  
G10  20334395.386     5821884.822       -2902.000          37.000  
G16  17709735.726    -6725671.484        2951.000          43.000  
G25  20632503.350     5915731.052       -2977.000          37.000  
G26  16383721.516    -2602757.009         787.000          47.000  
G27  21111036.921    -5167677.475        4131.000          37.000  
G28  17803628.782     -475002.530         185.000          44.000  
G29  19387671.684     -554096.721        -281.000          41.000  
G31  17512843.342    -2075156.741         948.000          44.000  
G32  17132529.522      625277.695        -840.000          48.000  
> 2024 12 16  3 58 25.9860001  0 10                     
G 3  19690384.361    -4577870.009        1758.000          37.000  
G10  20334947.521     5824786.173       -2901.000          37.000  
G16  17709173.995    -6728623.391        2951.000          43.000  
G25  20633069.871     5918708.044       -2976.000          37.000  
G26  16383571.722    -2603544.233         787.000          47.000  
G27  21110250.676    -5171809.276        4131.000          37.000  
G28  17803593.404     -475188.473         185.000          44.000  
G29  19387725.353     -553814.791        -281.000          42.000  
G31  17512662.653    -2076106.203         949.000          44.000  
G32  17132689.427      626117.958        -840.000          48.000  
> 2024 12 16  3 58 26.9860001  0 10                     
G 3  19690049.851    -4579627.929        1757.000          37.000  
G10  20335499.696     5827687.772       -2901.000          37.000  
G16  17708612.420    -6731574.502        2951.000          43.000  
G25  20633636.450     5921685.330       -2977.000          37.000  
G26  16383422.091    -2604330.619         786.000          47.000  
G27  21109464.460    -5175940.901        4131.000          37.000  
G28  17803558.111     -475373.985         185.000          44.000  
G29  19387779.191     -553531.966        -282.000          42.000  
G31  17512482.047    -2077055.240         949.000          44.000  
G32  17132849.499      626959.085        -841.000          48.000  
> 2024 12 16  3 58 27.9860001  0 10                     
G 3  19689715.527    -4581384.934        1757.000          38.000  
G10  20336051.915     5830589.615       -2901.000          37.000  
G16  17708050.999    -6734524.826        2950.000          43.000  
G25  20634203.085     5924662.851       -2977.000          37.000  
G26  16383272.616    -2605116.179         785.000          47.000  
G27  21108678.281    -5180072.333        4131.000          36.000  
G28  17803522.886     -475559.133         185.000          44.000  
G29  19387833.183     -553248.269        -283.000          41.000  
G31  17512301.523    -2078003.865         948.000          44.000  
G32  17133009.740      627801.078        -841.000          48.000  
> 2024 12 16  3 58 28.9860001  0 10                     
G 3  19689381.358    -4583141.172        1756.000          37.000  
G10  20336604.158     5833491.569       -2901.000          37.000  
G16  17707489.712    -6737474.463        2949.000          43.000  
G25  20634769.752     5927640.553       -2977.000          36.000  
G26  16383123.272    -2605901.011         784.000          47.000  
G27  21107892.107    -5184203.729        4131.000          36.000  
G28  17803487.712     -475744.003         184.000          44.000  
G29  19387887.330     -552963.778        -284.000          41.000  
G31  17512121.064    -2078952.167         948.000          44.000  
G32  17133170.130      628643.838        -842.000          48.000  
> 2024 12 16  3 58 29.9860001  0 10                     
G 3  19689047.285    -4584896.955        1755.000          38.000  
G10  20337156.355     5836393.291       -2901.000          37.000  
G16  17706928.496    -6740423.768        2949.000          43.000  
G25  20635326.066     5930618.0851      -2977.000          36.000  
G26  16382973.996    -2606685.459         784.000          46.000  
G27  21107105.881    -5188335.414        4131.000          36.000  
G28  17803452.527     -475928.937         184.000          44.000  
G29  19387941.558     -552678.852        -284.000          41.000  
G31  17511940.602    -2079900.535         948.000          44.000  
G32  17133330.597      629486.994        -843.000          48.000  
> 2024 12 16  3 58 30.9860001  0 10                     
G 3  19688713.232    -4586652.578        1755.000          37.000  
G10  20337708.475     5839294.541       -2901.000          37.000  
G16  17706367.294    -6743373.007        2949.000          43.000  
G25  20635901.299     5933595.134       -2977.000          35.000  
G26  16382824.736    -2607469.808         784.000          47.000  
G27  21106319.546    -5192467.663        4132.000          36.000  
G28  17803417.278     -476114.212         185.000          44.000  
G29  19387995.825     -552393.703        -285.000          41.000  
G31  17511760.073    -2080849.228         948.000          44.000  
G32  17133491.092      630330.299        -843.000          48.000  
> 2024 12 16  3 58 31.9860001  0 10                     
G 3  19688379.252    -4588407.813        1755.000          37.000  
G10  20338260.558     5842195.507       -2900.000          37.000  
G16  17705806.138    -6746322.013        2949.000          43.000  
G25  20636466.582     5936571.933       -2976.000          35.000  
G26  16382675.527    -2608253.883         784.000          47.000  
G27  21105533.135    -5196600.274        4132.000          36.000  
G28  17803382.004     -476299.615         185.000          44.000  
G29  19388050.150     -552108.229        -285.000          41.000  
G31  17511579.528    -2081797.988         948.000          44.000  
G32  17133651.646      631173.933        -843.000          48.000  
> 2024 12 16  3 58 32.9860001  0 10                     
G 3  19688045.355    -4590162.612        1754.000          37.000  
G10  20338812.613     5845096.289       -2900.000          38.000  
G16  17705245.039    -6749270.628        2948.000          43.000  
G25  20637036.087     5939548.665       -2976.000          34.000  
G26  16382526.400    -2609037.516         783.000          47.000  
G27  21104746.685    -5200733.143        4132.000          36.000  
G28  17803346.728     -476485.042         185.000          44.000  
G29  19388104.552     -551822.280        -285.000          41.000  
G31  17511398.988    -2082746.770         948.000          44.000  
G32  17133812.279      632017.998        -844.000          48.000  
> 2024 12 16  3 58 33.9860001  0 10                     
G 3  19687711.556    -4591916.942        1754.000          37.000  
G10  20339364.617     5847996.854       -2900.000          38.000  
G16  17704683.995    -6752218.908        2948.000          43.000  
G25  20637601.300     5942525.169       -2976.000          35.000  
G26  16382377.334    -2609820.830         783.000          46.000  
G27  21103960.184    -5204866.285        4133.000          36.000  
G28  17803311.433     -476670.580         185.000          44.000  
G29  19388159.038     -551535.828        -286.000          41.000  
G31  17511218.438    -2083695.645         948.000          44.000  
G32  17133972.982      632862.430        -844.000          48.000  
> 2024 12 16  3 58 34.9860001  0 10                     
G 3  19687377.887    -4593670.574        1753.000          37.000  
G10  20339916.617     5850897.437       -2900.000          38.000  
G16  17704123.068    -6755166.603        2947.000          43.000  
G25  20638171.307     5945501.738       -2976.000          35.000  
G26  16382228.400    -2610603.454         782.000          47.000  
G27  21103173.673    -5208999.477        4133.000          37.000  
G28  17803276.189     -476855.864         185.000          44.000  
G29  19388213.642     -551248.745        -287.000          41.000  
G31  17511037.930    -2084644.249         948.000          44.000  
G32  17134133.813      633707.559        -845.000          48.000  
> 2024 12 16  3 58 35.9860001  0 10                     
G 3  19687044.433    -4595422.978        1752.000          37.000  
G10  20340468.722     5853798.616       -2901.000          38.000  
G16  17703562.352    -6758113.169        2946.000          43.000  
G25  20638738.884     5948478.871       -2977.000          35.000  
G26  16382079.684    -2611384.933         781.000          46.000  
G27  21102387.263    -5213132.172        4132.000          37.000  
G28  17803241.074     -477040.483         184.000          44.000  
G29  19388268.490     -550960.426        -288.000          41.000  
G31  17510857.553    -2085592.147         947.000          44.000  
G32  17134294.873      634553.909        -846.000          48.000  
> 2024 12 16  3 58 36.9860001  0 10                     
G 3  19686711.126    -4597174.593        1751.000          37.000  
G10  20341020.853     5856699.928       -2901.000          38.000  
G16  17703001.761    -6761059.053        2945.000          43.000  
G25  20639303.023     5951456.262       -2977.000          35.000  
G26  16381931.110    -2612165.667         780.000          47.000  
G27  21101600.865    -5217264.795        4132.000          36.000  
G28  17803206.020     -477224.788         184.000          44.000  
G29  19388323.499     -550671.309        -289.000          41.000  
G31  17510677.236    -2086539.721         947.000          44.000  
G32  17134456.069      635400.972        -847.000          48.000  
> 2024 12 16  3 58 37.9860001  0 10                     
G 3  19686377.869    -4598925.951        1751.000          37.000  
G10  20341572.889     5859600.778       -2900.000          38.000  
G16  17702441.196    -6764004.796        2945.000          43.000  
G25  20639867.948     5954433.237       -2976.000          35.000  
G26  16381782.567    -2612946.264         780.000          47.000  
G27  21100814.373    -5221397.881        4133.000          36.000  
G28  17803170.913     -477409.353         184.000          44.000  
G29  19388378.565     -550381.930        -289.000          41.000  
G31  17510496.876    -2087487.529         947.000          44.000  
G32  17134617.306      636248.256        -847.000          48.000  
> 2024 12 16  3 58 38.9860001  0 10                     
G 3  19686044.713    -4600676.806        1750.000          37.000  
G10  20342124.910     5862501.554       -2900.000          38.000  
G16  17701880.715    -6766950.124        2945.000          43.000  
G25  20640439.102     5957410.084       -2976.000          35.000  
G26  16381634.119    -2613726.367         780.000          47.000  
G27  21100027.823    -5225531.211        4133.000          36.000  
G28  17803135.807     -477593.904         184.000          44.000  
G29  19388433.744     -550092.011        -289.000          42.000  
G31  17510316.527    -2088435.297         947.000          44.000  
G32  17134778.637      637096.043        -847.000          48.000  
> 2024 12 16  3 58 39.9860001  0 10                     
G 3  19685711.717    -4602426.857        1750.000          37.000  
G10  20342676.953     5865402.441       -2900.000          38.000  
G16  17701320.363    -6769894.736        2944.000          43.000  
G25  20641003.385     5960387.225       -2977.000          35.000  
G26  16381485.813    -2614505.723         779.000          47.000  
G27  21099241.283    -5229664.452        4133.000          36.000  
G28  17803100.761     -477778.156         184.000          44.000  
G29  19388489.075     -549801.315        -290.000          41.000  
G31  17510136.246    -2089382.714         947.000          44.000  
G32  17134940.115      637944.611        -848.000          48.000  
> 2024 12 16  3 58 40.9860001  0 10                     
G 3  19685378.836    -4604176.345        1749.000          38.000  
G10  20343228.971     5868303.224       -2900.000          38.000  
G16  17700760.093    -6772838.899        2944.000          43.000  
G25  20641568.240     5963364.218       -2976.000          35.000  
G26  16381337.591    -2615284.640         778.000          46.000  
G27  21098454.721    -5233797.860        4133.000          36.000  
G28  17803065.718     -477962.377         184.000          44.000  
G29  19388544.515     -549510.064        -291.000          41.000  
G31  17509955.977    -2090330.087         947.000          44.000  
G32  17135101.682      638793.658        -849.000          48.000  
> 2024 12 16  3 58 41.9860001  0 10                     
G 3  19685045.981    -4605925.762        1749.000          37.000  
G10  20343780.876     5871203.427       -2900.000          38.000  
G16  17700199.807    -6775783.116        2944.000          43.000  
G25  20642134.884     5966340.690       -2976.000          35.000  
G26  16381189.380    -2616063.521         778.000          46.000  
G27  21097668.041    -5237931.906        4134.000          36.000  
G28  17803030.599     -478147.014         184.000          44.000  
G29  19388599.968     -549218.723        -291.000          41.000  
G31  17509775.631    -2091277.869         947.000          44.000  
G32  17135263.261      639642.771        -849.000          48.000  
> 2024 12 16  3 58 42.9860001  0 10                     
G 3  19684713.282    -4607674.424        1748.000          38.000  
G10  20344332.798     5874103.731       -2900.000          37.000  
G16  17699639.644    -6778726.687        2943.000          43.000  
G25  20642701.383     5969317.251       -2976.000          35.000  
G26  16381041.297    -2616841.732         778.000          47.000  
G27  21096881.371    -5242065.984        4134.000          36.000  
G28  17802995.518     -478331.437         184.000          44.000  
G29  19388655.554     -548926.641        -292.000          41.000  
G31  17509595.341    -2092225.372         947.000          44.000  
G32  17135424.973      640492.572        -849.000          48.000  
> 2024 12 16  3 58 43.9860001  0 10                     
G 3  19684380.760    -4609422.080        1747.000          38.000  
G10  20344884.775     5877004.353       -2900.000          37.000  
G16  17699079.647    -6781669.368        2942.000          43.000  
G25  20643264.951     5972294.211       -2976.000          35.000  
G26  16380893.396    -2617619.001         777.000          46.000  
G27  21096094.760    -5246199.770        4133.000          36.000  
G28  17802960.538     -478515.335         183.000          44.000  
G29  19388711.317     -548633.568        -293.000          41.000  
G31  17509415.150    -2093172.375         947.000          45.000  
G32  17135586.876      641343.365        -850.000          48.000  
> 2024 12 16  3 58 44.9860001  0 10                     
G 3  19684048.295    -4611169.414        1747.000          38.000  
G10  20345436.689     5879904.649       -2900.000          37.000  
G16  17698519.694    -6784611.820        2942.000          43.000  
G25  20643834.064     5975270.832       -2976.000          36.000  
G26  16380745.544    -2618396.034         777.000          46.000  
G27  21095307.994    -5250333.923        4134.000          36.000  
G28  17802925.515     -478699.437         184.000          44.000  
G29  19388767.147     -548340.165        -293.000          41.000  
G31  17509234.931    -2094119.535         947.000          45.000  
G32  17135748.834      642194.421        -851.000          48.000  
> 2024 12 16  3 58 45.9860001  0 10                     
G 3  19683715.842    -4612916.662        1747.000          37.000  
G10  20345988.511     5882804.463       -2899.000          37.000  
G16  17697959.751    -6787554.232        2942.000          43.000  
G25  20644400.816     5978247.021       -2976.000          37.000  
G26  16380597.714    -2619172.945         776.000          47.000  
G27  21094521.191    -5254468.731        4134.000          36.000  
G28  17802890.433     -478883.872         184.000          44.000  
G29  19388823.009     -548046.589        -293.000          41.000  
G31  17509054.650    -2095067.012         947.000          45.000  
G32  17135910.821      643045.607        -851.000          48.000  
> 2024 12 16  3 58 46.9860001  0 10                     
G 3  19683383.519    -4614663.177        1746.000          38.000  
G10  20346540.325     5885704.216       -2899.000          37.000  
G16  17697399.909    -6790496.101        2941.000          43.000  
G25  20644966.352     5981223.257       -2976.000          37.000  
G26  16380449.986    -2619949.307         776.000          46.000  
G27  21093734.377    -5258603.576        4134.000          36.000  
G28  17802855.371     -479068.193         184.000          44.000  
G29  19388878.996     -547752.381        -294.000          41.000  
G31  17508874.402    -2096014.346         947.000          45.000  
G32  17136072.927      643897.396        -851.000          48.000  
> 2024 12 16  3 58 47.9860001  0 10                     
G 3  19683051.333    -4616408.945        1745.000          37.000  
G10  20347092.152     5888604.070       -2899.000          38.000  
G16  17696840.191    -6793437.313        2941.000          43.000  
G25  20645533.636     5984199.596       -2976.000          37.000  
G26  16380302.392    -2620724.953         775.000          46.000  
G27  21092947.560    -5262738.372        4134.000          36.000  
G28  17802820.359     -479252.235         184.000          44.000  
G29  19388935.138     -547457.400        -294.000          41.000  
G31  17508694.212    -2096961.382         947.000          45.000  
G32  17136235.171      644749.911        -852.000          48.000  
> 2024 12 16  3 58 48.9860001  0 10                     
G 3  19682719.229    -4618154.201        1745.000          38.000  
G10  20347643.962     5891503.846       -2899.000          38.000  
G16  17696280.563    -6796378.071        2940.000          43.000  
G25  20646101.283     5987175.867       -2976.000          37.000  
G26  16380154.884    -2621500.151         775.000          46.000  
G27  21092160.692    -5266873.348        4134.000          36.000  
G28  17802785.346     -479436.255         184.000          44.000  
G29  19388991.378     -547161.879        -295.000          41.000  
G31  17508514.031    -2097908.387         947.000          45.000  
G32  17136397.514      645602.946        -853.000          48.000  
> 2024 12 16  3 58 49.9860001  0 10                     
G 3  19682387.165    -4619899.188        1744.000          37.000  
G10  20348195.688     5894403.214       -2899.000          37.000  
G16  17695720.971    -6799318.681        2940.000          43.000  
G25  20646668.284     5990151.802       -2975.000          37.000  
G26  16380007.418    -2622275.137         774.000          46.000  
G27  21091373.736    -5271008.840        4135.000          36.000  
G28  17802750.283     -479620.513         184.000          44.000  
G29  19389047.662     -546866.073        -295.000          41.000  
G31  17508333.808    -2098855.613         947.000          45.000  
G32  17136559.894      646456.186        -853.000          48.000  
> 2024 12 16  3 58 50.9860001  0 10                     
G 3  19682055.217    -4621643.644        1744.000          38.000  
G10  20348747.389     5897302.442       -2899.000          37.000  
G16  17695161.469    -6802258.871        2940.000          43.000  
G25  20647235.072     5993127.590       -2975.000          38.000  
G26  16379860.039    -2623049.659         774.000          46.000  
G27  21090586.742    -5275144.536        4135.000          36.000  
G28  17802715.226     -479804.750         184.000          44.000  
G29  19389104.038     -546569.737        -296.000          41.000  
G31  17508153.603    -2099802.765         947.000          45.000  
G32  17136722.376      647309.945        -853.000          48.000  
> 2024 12 16  3 58 51.9860001  0 10                     
G 3  19681723.381    -4623387.531        1743.000          38.000  
G10  20349299.077     5900201.580       -2899.000          37.000  
G16  17694602.056    -6805198.610        2939.000          43.000  
G25  20647801.358     5996103.323       -2975.000          38.000  
G26  16379712.756    -2623823.679         774.000          46.000  
G27  21089799.712    -5279280.349        4135.000          36.000  
G28  17802680.186     -479988.922         184.000          44.000  
G29  19389160.518     -546272.834        -296.000          41.000  
G31  17507973.415    -2100749.823         947.000          45.000  
G32  17136884.957      648164.226        -854.000          48.000  
> 2024 12 16  3 58 52.9860001  0 10                     
G 3  19681391.648    -4625130.893        1743.000          38.000  
G10  20349850.743     5903100.538       -2898.000          38.000  
G16  17694042.727    -6808137.934        2939.000          43.000  
G25  20648367.683     5999079.005       -2975.000          38.000  
G26  16379565.551    -2624597.272         773.000          46.000  
G27  21089012.651    -5283416.393        4136.000          36.000  
G28  17802645.141     -480173.125         184.000          44.000  
G29  19389217.099     -545975.434        -297.000          41.000  
G31  17507793.229    -2101696.874         947.000          45.000  
G32  17137047.627      649018.972        -854.000          48.000  
> 2024 12 16  3 58 53.9860001  0 10                     
G 3  19681060.015    -4626873.789        1742.000          38.000  
G10  20350402.385     5905999.336       -2898.000          38.000  
G16  17693483.476    -6811076.889        2938.000          43.000  
G25  20648934.863     6002054.509       -2975.000          38.000  
G26  16379418.426    -2625370.430         773.000          46.000  
G27  21088225.548    -5287552.690        4136.000          36.000  
G28  17802610.098     -480357.312         184.000          44.000  
G29  19389273.778     -545677.547        -297.000          41.000  
G31  17507613.042    -2102643.928         947.000          45.000  
G32  17137210.379      649874.159        -855.000          48.000  
> 2024 12 16  3 58 54.9860001  0 10                     
G 3  19680728.503    -4628616.117        1742.000          38.000  
G10  20350954.020     5908898.060       -2898.000          38.000  
G16  17692924.314    -6814015.386        2938.000          43.000  
G25  20649501.471     6005029.965       -2975.000          38.000  
G26  16379271.389    -2626143.104         772.000          46.000  
G27  21087438.405    -5291689.142        4136.000          36.000  
G28  17802575.059     -480541.474         184.000          44.000  
G29  19389330.571     -545379.096        -298.000          41.000  
G31  17507432.873    -2103590.889         946.000          45.000  
G32  17137373.231      650729.899        -855.000          48.000  
> 2024 12 16  3 58 55.9860001  0 10                     
G 3  19680397.085    -4630357.948        1741.000          38.000  
G10  20351505.620     5911796.581       -2898.000          38.000  
G16  17692365.238    -6816953.467        2938.000          43.000  
G25  20650067.862     6008005.288       -2975.000          38.000  
G26  16379124.428    -2626915.353         772.000          46.000  
G27  21086651.230    -5295825.829        4136.000          36.000  
G28  17802540.015     -480725.641         184.000          44.000  
G29  19389387.452     -545080.150        -298.000          41.000  
G31  17507252.701    -2104537.859         946.000          45.000  
G32  17137536.160      651586.073        -856.000          48.000  
> 2024 12 16  3 58 56.9860001  0 10                     
G 3  19680065.797    -4632099.102        1741.000          38.000  
G10  20352057.219     5914695.106       -2898.000          38.000  
G16  17691806.261    -6819891.016        2937.000          43.000  
G25  20650633.148     6010980.638       -2975.000          38.000  
G26  16378977.582    -2627686.993         771.000          46.000  
G27  21085864.025    -5299962.604        4136.000          36.000  
G28  17802505.005     -480909.629         183.000          44.000  
G29  19389444.453     -544780.515        -299.000          41.000  
G31  17507072.567    -2105484.628         946.000          45.000  
G32  17137699.210      652442.889        -856.000          48.000  
> 2024 12 16  3 58 57.9860001  0 10                     
G 3  19679734.622    -4633839.664        1740.000          37.000  
G10  20352608.812     5917593.618       -2898.000          38.000  
G16  17691247.368    -6822828.062        2937.000          43.000  
G25  20651199.076     6013956.007       -2975.000          38.000  
G26  16378830.839    -2628458.098         771.000          46.000  
G27  21085076.816    -5304099.489        4136.000          36.000  
G28  17802470.015     -481093.521         183.000          44.000  
G29  19389501.562     -544480.294        -300.000          41.000  
G31  17506892.461    -2106431.254         946.000          45.000  
G32  17137862.370      653300.284        -857.000          48.000  
> 2024 12 16  3 58 58.9860001  0 10                     
G 3  19679403.583    -4635579.465        1739.000          37.000  
G10  20353160.410     5920492.172       -2898.000          38.000  
G16  17690688.593    -6825764.449        2936.000          43.000  
G25  20651765.074     6016931.463       -2975.000          38.000  
G26  16378684.219    -2629228.534         770.000          46.000  
G27  21084289.618    -5308236.337        4136.000          36.000  
G28  17802435.069     -481277.195         183.000          44.000  
G29  19389558.824     -544179.316        -300.000          41.000  
G31  17506712.404    -2107377.646         946.000          45.000  
G32  17138025.664      654158.370        -858.000          48.000  
> 2024 12 16  3 58 59.9860001  0 10                     
G 3  19679072.710    -4637318.413        1738.000          37.000  
G10  20353712.047     5923390.944       -2898.000          38.000  
G16  17690129.950    -6828700.096        2935.000          43.000  
G25  20652332.219     6019907.214       -2975.000          38.000  
G26  16378537.755    -2629998.159         769.000          46.000  
G27  21083502.451    -5312373.074        4136.000          36.000  
G28  17802400.195     -481460.501         183.000          44.000  
G29  19389616.247     -543877.510        -301.000          41.000  
G31  17506532.427    -2108323.649         946.000          45.000  
G32  17138189.117      655017.289        -858.000          48.000  
> 2024 12 16  3 59  0.9860001  0 10                     
G 3  19678741.965    -4639056.716        1738.000          38.000  
G10  20354263.688     5926289.704       -2898.000          38.000  
G16  17689571.408    -6831635.192        2935.000          43.000  
G25  20652897.829     6022882.924       -2975.000          38.000  
G26  16378391.395    -2630767.233         769.000          46.000  
G27  21082715.286    -5316509.839        4136.000          37.000  
G28  17802365.344     -481643.678         183.000          44.000  
G29  19389673.814     -543575.039        -302.000          41.000  
G31  17506352.486    -2109269.479         945.000          45.000  
G32  17138352.686      655876.812        -859.000          48.000  
> 2024 12 16  3 59  1.9860001  0 10                     
G 3  19678411.377    -4640794.128        1737.000          38.000  
G10  20354815.367     5929188.682       -2898.000          38.000  
G16  17689013.014    -6834569.502        2934.000          43.000  
G25  20653463.648     6025858.928       -2975.000          38.000  
G26  16378245.201    -2631535.458         768.000          46.000  
G27  21081928.146    -5320646.469        4136.000          36.000  
G28  17802330.572     -481826.438         182.000          44.000  
G29  19389731.556     -543271.645        -303.000          41.000  
G31  17506172.625    -2110214.907         945.000          45.000  
G32  17138516.423      656737.218        -860.000          48.000  
> 2024 12 16  3 59  2.9860001  0 10                     
G 3  19678080.914    -4642530.884        1736.000          38.000  
G10  20355367.037     5932087.662       -2898.000          38.000  
G16  17688454.722    -6837503.267        2933.000          43.000  
G25  20654029.113     6028834.980       -2976.000          38.000  
G26  16378099.121    -2632303.092         767.000          46.000  
G27  21081140.987    -5324783.219        4136.000          36.000  
G28  17802295.827     -482009.064         182.000          44.000  
G29  19389789.421     -542967.604        -304.000          41.000  
G31  17505992.801    -2111160.154         945.000          45.000  
G32  17138680.270      657598.217        -860.000          48.000  
> 2024 12 16  3 59  3.9860001  0 10                     
G 3  19677750.503    -4644267.310        1736.000          38.000  
G10  20355918.639     5934986.323       -2898.000          38.000  
G16  17687896.476    -6840436.780        2933.000          43.000  
G25  20654595.041     6031810.782       -2975.000          38.000  
G26  16377953.094    -2633070.458         767.000          46.000  
G27  21080353.748    -5328920.333        4137.000          36.000  
G28  17802261.053     -482191.861         182.000          44.000  
G29  19389847.352     -542663.240        -304.000          41.000  
G31  17505812.945    -2112105.565         945.000          45.000  
G32  17138844.173      658459.535        -861.000          48.000  
> 2024 12 16  3 59  4.9860001  0 10                     
G 3  19677420.182    -4646003.255        1735.000          38.000  
G10  20356470.210     5937884.813       -2898.000          39.000  
G16  17687338.300    -6843369.938        2933.000          43.000  
G25  20655161.650     6034786.388       -2975.000          38.000  
G26  16377807.146    -2633837.422         766.000          46.000  
G27  21079566.454    -5333057.690        4137.000          36.000  
G28  17802226.271     -482374.688         182.000          44.000  
G29  19389905.374     -542358.375        -304.000          41.000  
G31  17505633.088    -2113050.960         945.000          45.000  
G32  17139008.157      659321.297        -861.000          48.000  
> 2024 12 16  3 59  5.9860001  0 10                     
G 3  19677089.939    -4647738.781        1735.000          38.000  
G10  20357021.735     5940782.980       -2898.000          39.000  
G16  17686780.176    -6846302.818        2932.000          43.000  
G25  20655727.792     6037761.718       -2975.000          38.000  
G26  16377661.257    -2634604.069         766.000          46.000  
G27  21078779.087    -5337195.382        4137.000          36.000  
G28  17802191.465     -482557.636         182.000          44.000  
G29  19389963.452     -542053.150        -305.000          41.000  
G31  17505453.206    -2113996.468         945.000          45.000  
G32  17139172.205      660183.399        -862.000          48.000  
> 2024 12 16  3 59  6.9860001  0 10                     
G 3  19676759.810    -4649473.791        1735.000          38.000  
G10  20357573.241     5943681.046       -2898.000          38.000  
G16  17686222.135    -6849235.277        2932.000          43.000  
G25  20656293.829     6040737.010       -2975.000          38.000  
G26  16377515.456    -2635370.254         766.000          46.000  
G27  21077991.680    -5341333.254        4137.000          36.000  
G28  17802156.660     -482740.558         182.000          44.000  
G29  19390021.633     -541747.376        -305.000          41.000  
G31  17505273.343    -2114941.904         945.000          45.000  
G32  17139336.350      661045.996        -862.000          48.000  
> 2024 12 16  3 59  7.9860001  0 10                     
G 3  19676429.779    -4651208.245        1734.000          38.000  
G10  20358124.737     5946579.016       -2897.000          38.000  
G16  17685664.181    -6852167.285        2932.000          43.000  
G25  20656860.045     6043712.206       -2975.000          38.000  
G26  16377369.740    -2636135.952         765.000          46.000  
G27  21077204.243    -5345471.327        4138.000          36.000  
G28  17802121.857     -482923.442         182.000          44.000  
G29  19390079.911     -541441.041        -306.000          40.000  
G31  17505093.491    -2115887.296         945.000          45.000  
G32  17139500.597      661909.113        -863.000          48.000  
> 2024 12 16  3 59  8.9860001  0 10                     
G 3  19676099.872    -4652942.028        1733.000          37.000  
G10  20358676.222     5949476.965       -2897.000          39.000  
G16  17685106.342    -6855098.694        2931.000          43.000  
G25  20657425.899     6046687.532       -2975.000          38.000  
G26  16377224.138    -2636901.051         765.000          46.000  
G27  21076416.781    -5349609.458        4138.000          36.000  
G28  17802087.091     -483106.134         182.000          44.000  
G29  19390138.312     -541134.027        -307.000          40.000  
G31  17504913.687    -2116832.466         945.000          45.000  
G32  17139664.973      662772.878        -863.000          48.000  
> 2024 12 16  3 59  9.9860001  0 10                     
G 3  19675770.053    -4654675.324        1733.000          37.000  
G10  20359227.675     5952374.779       -2897.000          38.000  
G16  17684548.568    -6858029.764        2931.000          43.000  
G25  20657991.866     6049662.619       -2975.000          38.000  
G26  16377078.616    -2637665.712         764.000          46.000  
G27  21075629.275    -5353747.832        4138.000          36.000  
G28  17802052.314     -483288.880         182.000          44.000  
G29  19390196.785     -540826.501        -307.000          40.000  
G31  17504733.885    -2117777.655         945.000          45.000  
G32  17139829.438      663637.088        -864.000          48.000  
> 2024 12 16  3 59 10.9860001  0 10                     
G 3  19675440.359    -4656407.951        1732.000          37.000  
G10  20359779.124     5955272.605       -2897.000          38.000  
G16  17683990.906    -6860960.230        2930.000          43.000  
G25  20658557.615     6052637.830       -2975.000          37.000  
G26  16376933.213    -2638429.756         764.000          46.000  
G27  21074841.763    -5357886.225        4138.000          36.000  
G28  17802017.580     -483471.411         182.000          44.000  
G29  19390255.388     -540518.301        -308.000          40.000  
G31  17504554.121    -2118722.637         944.000          45.000  
G32  17139994.030      664501.948        -864.000          48.000  
> 2024 12 16  3 59 11.9860001  0 10                     
G 3  19675110.801    -4658139.813        1731.000          37.000  
G10  20360330.579     5958170.480       -2897.000          38.000  
G16  17683433.358    -6863890.067        2929.000          43.000  
G25  20659123.792     6055613.114       -2975.000          38.000  
G26  16376787.937    -2639193.142         763.000          46.000  
G27  21074054.246    -5362024.615        4138.000          36.000  
G28  17801982.885     -483653.755         182.000          44.000  
G29  19390314.119     -540209.387        -308.000          40.000  
G31  17504374.405    -2119667.354         944.000          45.000  
G32  17140158.753      665367.502        -865.000          48.000  
> 2024 12 16  3 59 12.9860001  0 10                     
G 3  19674781.323    -4659871.195        1731.000          37.000  
G10  20360882.012     5961068.198       -2897.000          39.000  
G16  17682875.876    -6866819.512        2929.000          43.000  
G25  20659690.221     6058588.301       -2975.000          37.000  
G26  16376642.736    -2639956.110         762.000          46.000  
G27  21073266.655    -5366163.216        4138.000          36.000  
G28  17801948.196     -483836.076         182.000          44.000  
G29  19390372.964     -539899.979        -309.000          40.000  
G31  17504194.681    -2120612.072         944.000          45.000  
G32  17140323.563      666233.501        -865.000          48.000  
> 2024 12 16  3 59 13.9860001  0 10                     
G 3  19674451.954    -4661601.977        1730.000          37.000  
G10  20361433.442     5963965.820       -2897.000          39.000  
G16  17682318.490    -6869748.479        2928.000          43.000  
G25  20660256.293     6061563.441       -2975.000          37.000  
G26  16376497.642    -2640718.523         762.000          46.000  
G27  21072479.049    -5370301.993        4138.000          35.000  
G28  17801913.522     -484018.325         182.000          44.000  
G29  19390431.920     -539589.961        -310.000          41.000  
G31  17504014.984    -2121556.656         944.000          45.000  
G32  17140488.486      667100.097        -866.000          48.000  
> 2024 12 16  3 59 14.9860001  0 10                     
G 3  19674122.685    -4663332.199        1730.000          37.000  
G10  20361984.867     5966863.389       -2897.000          39.000  
G16  17681761.198    -6872676.961        2928.000          43.000  
G25  20660822.509     6064538.552       -2975.000          37.000  
G26  16376352.641    -2641480.464         761.000          46.000  
G27  21071691.439    -5374440.890        4138.000          35.000  
G28  17801878.861     -484200.488         182.000          44.000  
G29  19390490.992     -539279.369        -310.000          41.000  
G31  17503835.303    -2122501.171         944.000          45.000  
G32  17140653.498      667967.180        -867.000          48.000  
> 2024 12 16  3 59 15.9860001  0 10                     
G 3  19673793.546    -4665061.748        1729.000          37.000  
G10  20362536.298     5969760.967       -2897.000          39.000  
G16  17681204.016    -6875604.892        2927.000          43.000  
G25  20661388.149     6067513.688       -2975.000          37.000  
G26  16376207.761    -2642241.780         761.000          46.000  
G27  21070903.849    -5378579.879        4138.000          35.000  
G28  17801844.226     -484382.502         182.000          44.000  
G29  19390550.212     -538968.112        -311.000          41.000  
G31  17503655.659    -2123445.498         944.000          45.000  
G32  17140818.639      668834.945        -867.000          48.000  
> 2024 12 16  3 59 16.9860001  0 10                     
G 3  19673464.493    -4666790.832        1729.000          37.000  
G10  20363087.677     5972658.336       -2897.000          39.000  
G16  17680646.913    -6878532.462        2927.000          43.000  
G25  20661953.938     6070488.710       -2975.000          37.000  
G26  16376062.953    -2643002.734         760.000          46.000  
G27  21070116.190    -5382719.088        4139.000          35.000  
G28  17801809.576     -484564.563         182.000          44.000  
G29  19390609.522     -538656.401        -311.000          41.000  
G31  17503476.006    -2124389.868         944.000          45.000  
G32  17140983.854      669703.093        -868.000          48.000  
> 2024 12 16  3 59 17.9860001  0 10                     
G 3  19673135.532    -4668519.471        1728.000          37.000  
G10  20363638.995     5975555.451       -2897.000          38.000  
G16  17680089.882    -6881459.675        2927.000          43.000  
G25  20662520.795     6073463.486       -2974.000          37.000  
G26  16375918.225    -2643763.267         760.000          46.000  
G27  21069328.547    -5386858.600        4139.000          36.000  
G28  17801774.904     -484746.702         182.000          44.000  
G29  19390668.922     -538344.229        -312.000          41.000  
G31  17503296.356    -2125334.245         944.000          45.000  
G32  17141149.150      670571.683        -868.000          48.000  
> 2024 12 16  3 59 18.9860001  0 10                     
G 3  19672806.666    -4670247.674        1728.000          38.000  
G10  20364190.267     5978452.373       -2896.000          38.000  
G16  17679532.912    -6884386.566        2926.000          43.000  
G25  20663088.154     6076438.083       -2974.000          37.000  
G26  16375773.562    -2644523.454         760.000          46.000  
G27  21068540.816    -5390998.427        4139.000          36.000  
G28  17801740.226     -484928.860         182.000          44.000  
G29  19390728.403     -538031.632        -312.000          41.000  
G31  17503116.699    -2126278.683         944.000          45.000  
G32  17141314.520      671440.670        -868.000          48.000  
> 2024 12 16  3 59 19.9860001  0 10                     
G 3  19672477.973    -4671975.020        1727.000          38.000  
G10  20364741.568     5981349.453       -2897.000          38.000  
G16  17678976.086    -6887312.738        2926.000          43.000  
G25  20663654.514     6079412.888       -2974.000          36.000  
G26  16375629.042    -2645282.876         759.000          46.000  
G27  21067753.087    -5395138.134        4139.000          36.000  
G28  17801705.604     -485110.745         181.000          44.000  
G29  19390788.038     -537718.204        -313.000          41.000  
G31  17502937.112    -2127222.764         944.000          45.000  
G32  17141480.039      672310.435        -869.000          48.000  
> 2024 12 16  3 59 20.9860001  0 10                     
G 3  19672149.354    -4673701.976        1726.000          37.000  
G10  20365292.837     5984246.320       -2896.000          38.000  
G16  17678419.326    -6890238.576        2925.000          43.000  
G25  20664221.227     6082387.553       -2974.000          36.000  
G26  16375484.580    -2646041.978         759.000          46.000  
G27  21066965.302    -5399278.125        4139.000          36.000  
G28  17801670.967     -485292.717         181.000          44.000  
G29  19390847.750     -537404.354        -313.000          41.000  
G31  17502757.505    -2128166.929         944.000          45.000  
G32  17141645.630      673180.574        -870.000          48.000  
> 2024 12 16  3 59 21.9860001  0 10                     
G 3  19671820.767    -4675428.782        1726.000          37.000  
G10  20365843.996     5987142.582       -2896.000          38.000  
G16  17677862.570    -6893164.406        2925.000          43.000  
G25  20664786.907     6085361.604       -2974.000          36.000  
G26  16375340.132    -2646801.007         759.000          46.000  
G27  21066177.385    -5403418.721        4140.000          36.000  
G28  17801636.260     -485475.079         182.000          44.000  
G29  19390907.499     -537090.376        -313.000          41.000  
G31  17502577.828    -2129111.438         944.000          45.000  
G32  17141811.241      674050.825        -870.000          48.000  
> 2024 12 16  3 59 22.9860001  0 10                     
G 3  19671492.365    -4677154.655        1725.000          37.000  
G10  20366395.224     5990039.166       -2896.000          38.000  
G16  17677305.976    -6896089.393        2924.000          43.000  
G25  20665352.979     6088336.088       -2974.000          36.000  
G26  16375195.857    -2647559.124         758.000          46.000  
G27  21065389.494    -5407559.116        4140.000          36.000  
G28  17801601.654     -485656.935         181.000          44.000  
G29  19390967.441     -536775.420        -314.000          41.000  
G31  17502398.243    -2130055.464         944.000          45.000  
G32  17141977.021      674921.977        -871.000          48.000  
> 2024 12 16  3 59 23.9860001  0 10                     
G 3  19671164.072    -4678879.878        1725.000          37.000  
G10  20366946.467     5992935.790       -2896.000          38.000  
G16  17676749.492    -6899013.778        2924.000          43.000  
G25  20665918.941     6091310.584       -2974.000          36.000  
G26  16375051.695    -2648316.650         757.000          46.000  
G27  21064601.590    -5411699.561        4140.000          36.000  
G28  17801567.072     -485838.649         181.000          44.000  
G29  19391027.517     -536459.821        -315.000          41.000  
G31  17502218.694    -2130999.283         943.000          45.000  
G32  17142142.921      675793.782        -871.000          48.000  
> 2024 12 16  3 59 24.9860001  0 10                     
G 3  19670835.889    -4680604.407        1724.000          37.000  
G10  20367497.694     5995832.333       -2896.000          38.000  
G16  17676193.105    -6901937.664        2923.000          43.000  
G25  20666484.765     6094285.121       -2974.000          35.000  
G26  16374907.635    -2649073.627         756.000          46.000  
G27  21063813.676    -5415840.063        4140.000          36.000  
G28  17801532.507     -486020.265         181.000          44.000  
G29  19391087.700     -536143.596        -316.000          41.000  
G31  17502039.166    -2131942.979         943.000          45.000  
G32  17142308.930      676666.167        -872.000          48.000  
> 2024 12 16  3 59 25.9860001  0 10                     
G 3  19670507.799    -4682328.446        1724.000          37.000  
G10  20368048.895     5998728.771       -2896.000          39.000  
G16  17675636.795    -6904861.121        2923.000          43.000  
G25  20667044.467     6097259.506       -2974.000          35.000  
G26  16374763.664    -2649830.135         756.000          46.000  
G27  21063025.729    -5419980.776        4140.000          36.000  
G28  17801497.942     -486201.833         181.000          44.000  
G29  19391147.990     -535826.800        -316.000          41.000  
G31  17501859.645    -2132886.622         943.000          45.000  
G32  17142475.034      677539.063        -872.000          48.000  
> 2024 12 16  3 59 26.9860001  0 10                     
G 3  19670179.774    -4684052.180        1723.000          37.000  
G10  20368600.029     6001624.847       -2896.000          39.000  
G16  17675080.521    -6907784.383        2923.000          43.000  
G25  20667611.543     6100233.582       -2974.000          35.000  
G26  16374619.743    -2650586.394         756.000          46.000  
G27  21062237.691    -5424121.884        4141.000          36.000  
G28  17801463.337     -486383.616         181.000          44.000  
G29  19391208.328     -535509.727        -317.000          41.000  
G31  17501680.082    -2133830.459         943.000          45.000  
G32  17142641.185      678412.211        -873.000          48.000  
> 2024 12 16  3 59 27.9860001  0 10                     
G 3  19669851.786    -4685775.739        1723.000          37.000  
G10  20369151.072     6004520.445       -2895.000          39.000  
G16  17674524.263    -6910707.521        2923.000          43.000  
G25  20668177.397     6103207.279       -2973.000          35.000  
G26  16374475.840    -2651342.543         756.000          46.000  
G27  21061449.513    -5428263.647        4141.000          36.000  
G28  17801428.676     -486565.696         182.000          44.000  
G29  19391268.706     -535192.428        -317.000          41.000  
G31  17501500.469    -2134774.568         944.000          45.000  
G32  17142807.370      679285.517        -873.000          48.000  
> 2024 12 16  3 59 28.9860001  0 10                     
G 3  19669523.879    -4687498.880        1723.000          37.000  
G10  20369702.053     6007415.749       -2895.000          38.000  
G16  17673968.046    -6913630.429        2922.000          43.000  
G25  20668746.047     6106180.643       -2973.000          35.000  
G26  16374331.996    -2652098.393         755.000          46.000  
G27  21060663.157    -5432405.6371       4141.000          36.000  
G28  17801393.987     -486747.944         182.000          44.000  
G29  19391329.137     -534874.819        -317.000          41.000  
G31  17501320.831    -2135718.802         944.000          45.000  
G32  17142973.622      680159.156        -873.000          48.000  
> 2024 12 16  3 59 29.9860001  0 10                     
G 3  19669196.029    -4689221.766        1722.000          38.000  
G10  20370252.963     6010310.672       -2894.000          39.000  
G16  17673411.864    -6916553.127        2922.000          43.000  
G25  20669311.329     6109153.777       -2973.000          36.000  
G26  16374188.189    -2652854.034         755.000          46.000  
G27  21059872.933    -5436548.1171       4142.000          36.000  
G28  17801359.270     -486930.394         182.000          44.000  
G29  19391389.629     -534556.896        -317.000          41.000  
G31  17501141.157    -2136663.249         944.000          45.000  
G32  17143139.928      681033.059        -873.000          48.000  
> 2024 12 16  3 59 30.9860001  0 10                     
G 3  19668868.326    -4690943.902        1722.000          38.000  
G10  20370803.887     6013205.659       -2894.000          39.000  
G16  17672855.795    -6919475.226        2922.000          43.000  
G25  20669883.661     6112126.923       -2973.000          36.000  
G26  16374044.516    -2653608.994         754.000          46.000  
G27  21059084.353    -5440690.610        4142.000          36.000  
G28  17801324.604     -487112.611         182.000          44.000  
G29  19391450.258     -534238.225        -318.000          41.000  
G31  17500961.535    -2137607.403         944.000          45.000  
G32  17143306.368      681907.640        -874.000          48.000  
> 2024 12 16  3 59 31.9860001  0 10                     
G 3  19668540.758    -4692665.309        1721.000          38.000  
G10  20371354.819     6016100.663       -2894.000          39.000  
G16  17672299.841    -6922396.704        2921.000          43.000  
G25  20670448.089     6115100.120       -2973.000          36.000  
G26  16373900.968    -2654363.321         754.000          46.000  
G27  21058295.167    -5444833.101        4142.000          36.000  
G28  17801289.979     -487294.633         182.000          44.000  
G29  19391511.003     -533918.859        -319.000          40.000  
G31  17500781.953    -2138551.352         943.000          45.000  
G32  17143472.942      682782.918        -875.000          48.000  
> 2024 12 16  3 59 32.9860001  0 10                     
G 3  19668213.304    -4694386.155        1720.000          37.000  
G10  20371905.755     6018995.675       -2895.000          39.000  
G16  17671743.985    -6925317.663        2920.000          43.000  
G25  20671014.697     6118073.395       -2973.000          37.000  
G26  16373757.532    -2655117.084         753.000          46.000  
G27  21057501.828    -5448975.676        4142.000          36.000  
G28  17801255.370     -487476.538         181.000          44.000  
G29  19391571.862     -533598.879        -319.000          40.000  
G31  17500602.394    -2139495.164         943.000          45.000  
G32  17143639.622      683658.771        -875.000          48.000  
> 2024 12 16  3 59 33.9860001  0 10                     
G 3  19667885.990    -4696106.228        1720.000          37.000  
G10  20372456.687     6021890.700       -2895.000          39.000  
G16  17671188.235    -6928238.032        2920.000          43.000  
G25  20671579.875     6121046.701       -2973.000          36.000  
G26  16373614.206    -2655870.264         753.000          46.000  
G27  21056721.476    -5453118.269        4142.000          36.000  
G28  17801220.789     -487658.250         181.000          44.000  
G29  19391632.865     -533278.165        -320.000          41.000  
G31  17500422.879    -2140438.761         943.000          45.000  
G32  17143806.417      684535.253        -876.000          48.000  
> 2024 12 16  3 59 34.9860001  0 10                     
G 3  19667558.799    -4697825.656        1719.000          37.000  
G10  20373007.630     6024785.783       -2895.000          39.000  
G16  17670632.606    -6931157.777        2919.000          43.000  
G25  20672144.551     6124020.136       -2973.000          36.000  
G26  16373471.015    -2656622.736         752.000          46.000  
G27  21055938.262    -5457260.875        4142.000          36.000  
G28  17801186.241     -487839.765         181.000          44.000  
G29  19391693.998     -532956.731        -321.000          41.000  
G31  17500243.418    -2141382.085         943.000          45.000  
G32  17143973.346      685412.454        -877.000          48.000  
> 2024 12 16  3 59 35.9860001  0 10                     
G 3  19667231.718    -4699544.381        1718.000          37.000  
G10  20373558.567     6027680.813       -2895.000          39.000  
G16  17670077.075    -6934077.006        2919.000          43.000  
G25  20672709.332     6126993.537       -2973.000          36.000  
G26  16373327.922    -2657374.688         751.000          46.000  
G27  21055148.897    -5461403.583        4142.000          36.000  
G28  17801151.726     -488021.128         181.000          44.000  
G29  19391755.247     -532634.692        -322.000          41.000  
G31  17500063.982    -2142325.300         943.000          45.000  
G32  17144140.384      686290.234        -877.000          48.000  
> 2024 12 16  3 59 36.9860001  0 10                     
G 3  19666904.720    -4701262.598        1718.000          36.000  
G10  20374109.484     6030575.743       -2894.000          39.000  
G16  17669521.630    -6936995.795        2918.000          43.000  
G25  20673273.475     6129966.893       -2973.000          37.000  
G26  16373184.923    -2658126.109         751.000          46.000  
G27  21054359.781    -5465546.465        4142.000          35.000  
G28  17801117.217     -488202.457         181.000          44.000  
G29  19391816.626     -532312.085        -322.000          41.000  
G31  17499884.565    -2143268.421         943.000          45.000  
G32  17144307.525      687168.553        -878.000          48.000  
> 2024 12 16  3 59 37.9860001  0 10                     
G 3  19666577.768    -4702980.563        1717.000          36.000  
G10  20374660.323     6033470.236       -2894.000          39.000  
G16  17668966.217    -6939914.432        2918.000          43.000  
G25  20673838.256     6132939.870       -2972.000          37.000  
G26  16373041.948    -2658877.402         751.000          46.000  
G27  21053570.664    -5469689.842        4143.000          36.000  
G28  17801082.654     -488384.053         181.000          44.000  
G29  19391878.062     -531989.264        -322.000          41.000  
G31  17499705.096    -2144211.819         943.000          45.000  
G32  17144474.701      688047.047        -878.000          48.000  
> 2024 12 16  3 59 38.9860001  0 10                     
G 3  19666250.940    -4704697.875        1717.000          36.000  
G10  20375211.155     6036364.676       -2894.000          39.000  
G16  17668410.905    -6942832.555        2918.000          43.000  
G25  20674403.399     6135912.813       -2972.000          37.000  
G26  16372899.080    -2659628.126         750.000          46.000  
G27  21052780.440    -5473833.303        4143.000          35.000  
G28  17801048.113     -488565.527         181.000          44.000  
G29  19391939.636     -531665.767        -323.000          41.000  
G31  17499525.659    -2145155.054         943.000          45.000  
G32  17144641.992      688926.133        -879.000          48.000  
> 2024 12 16  3 59 39.9860001  0 10                     
G 3  19665924.234    -4706414.617        1716.000          37.000  
G10  20375761.982     6039259.091       -2894.000          39.000  
G16  17667855.688    -6945750.196        2917.000          43.000  
G25  20674968.363     6138885.759       -2972.000          37.000  
G26  16372756.311    -2660378.340         750.000          46.000  
G27  21051979.196    -5477976.929        4143.000          36.000  
G28  17801013.592     -488746.907         181.000          44.000  
G29  19392001.333     -531341.673        -324.000          42.000  
G31  17499346.243    -2146098.172         943.000          45.000  
G32  17144809.396      689805.795        -879.000          48.000  
> 2024 12 16  3 59 40.9860001  0 10                     
G 3  19665597.620    -4708130.925        1716.000          37.000  
G10  20376312.756     6042153.252       -2894.000          39.000  
G16  17667300.540    -6948667.466        2917.000          43.000  
G25  20675534.038     6141858.509       -2972.000          37.000  
G26  16372613.625    -2661128.133         749.000          46.000  
G27  21051196.841    -5482120.834        4143.000          35.000  
G28  17800979.050     -488928.389         181.000          44.000  
G29  19392063.117     -531017.185        -324.000          42.000  
G31  17499166.821    -2147041.308         943.000          45.000  
G32  17144976.877      690685.865        -880.000          48.000  
> 2024 12 16  3 59 41.9860001  0 10                     
G 3  19665271.133    -4709846.630        1715.000          37.000  
G10  20376863.518     6045047.361       -2894.000          39.000  
G16  17666745.489    -6951584.255        2916.000          43.000  
G25  20676100.398     6144831.238       -2972.000          37.000  
G26  16372471.038    -2661877.435         749.000          46.000  
