     3.02           OBSERVATION DATA    G: GPS              RINEX VERSION / TYPE
convert_skytraq_raw Skytraq Corp.       20241216 141554 UTC PGM / RUN BY / DATE 
Test version 0.1                                            COMMENT             
                                                            MARKER NAME         
                                                            MARKER NUMBER       
                                                            MARKER TYPE         
Skytraq Corp.                                               OBSERVER / AGENCY   
                                                            REC # / TYPE / VERS 
                                                            ANT # / TYPE        
 -2956586.7129  5075886.9059  2476661.7715                  APPROX POSITION XYZ 
        0.0000        0.0000        0.0000                  ANTENNA: DELTA H/E/N
G    4 C1C L1C D1C S1C                                      SYS / # / OBS TYPES 
  2024    12    16     7    16   34.4619999     GPS         TIME OF FIRST OBS   
  2024    12    16     7    34   24.4619999     GPS         TIME OF LAST OBS    
                                                            END OF HEADER       
> 2024 12 16  7 16 34.4619999  0 10                     
G 4 160090304.642        4370.878        -151.000          42.000  
G 7 164086977.491      -57283.5781       3583.000          26.000  
G 8 159246902.751      -51536.103        1719.000          46.000  
G 9 161215980.208      -37067.151        1335.000          37.000  
G16 160728522.265       28714.127        -986.000          40.000  
G21 162241292.426      -72519.224        4077.000          38.000  
G26 162281578.561       23214.390       -1302.000          34.000  
G27 159048187.816       15875.747        -543.000          40.000  
G28 163823980.979       40646.9171      -2420.000          25.000  
G31 161615656.910       49146.357       -1666.000          41.000  
> 2024 12 16  7 16 35.4619999  0 10                     
G 4 160090332.937        4523.595        -152.000          43.000  
G 7 164086293.228      -60868.7241       3585.000          26.000  
G 8 159246575.642      -53255.029        1718.000          45.000  
G 9 161215726.468      -38401.472        1334.000          37.000  
G16 160728709.786       29701.224        -987.000          39.000  
G21 162240515.865      -76596.295        4077.000          38.000  
G26 162281828.256       24517.036       -1302.000          34.000  
G27 159048289.983       16419.766        -544.000          40.000  
G28 163824450.251       43067.8571      -2420.000          25.000  
G31 161615972.711       50813.077       -1666.000          41.000  
> 2024 12 16  7 16 36.4619999  0 10                     
G 4 160090362.559        4677.250        -153.000          43.000  
G 7 164085614.755      -64453.7211       3585.000          25.000  
G 8 159246248.215      -54973.045        1718.000          45.000  
G 9 161215472.302      -39734.900        1333.000          39.000  
G16 160728898.204       30688.598        -987.000          38.000  
G21 162239740.307      -80673.123        4076.000          37.000  
G26 162282077.306       25819.972       -1302.000          33.000  
G27 159048392.328       16964.732        -544.000          40.000  
G28 163824914.797       45489.4781      -2421.000          25.000  
G31 161616289.734       52480.434       -1667.000          40.000  
> 2024 12 16  7 16 37.4619999  0 10                     
G 4 160090392.643        4831.079        -153.000          42.000  
G 7 164084920.546      -68039.4541       3585.000          24.000  
G 8 159245920.962      -56690.845        1717.000          44.000  
G 9 161215218.458      -41067.996        1333.000          42.000  
G16 160729085.511       31675.792        -987.000          36.000  
G21 162238965.858      -84750.266        4077.000          37.000  
G26 162282331.795       27122.6251      -1302.000          29.000  
G27 159048494.678       17509.889        -545.000          42.000  
G28 163825379.060       47910.5641      -2421.000          25.000  
G31 161616606.394       54147.739       -1667.000          40.000  
> 2024 12 16  7 16 38.4619999  0 10                     
G 4 160090422.583        4985.637        -154.000          43.000  
G 7 164084223.044      -71624.9921       3585.000          25.000  
G 8 159245594.107      -58408.041        1717.000          44.000  
G 9 161214965.150      -42400.438        1332.000          42.000  
G16 160729273.209       32663.041        -987.000          39.000  
G21 162238189.943      -88827.338        4077.000          37.000  
G26 162282570.759       28425.3111      -1302.000          31.000  
G27 159048597.918       18055.676        -545.000          42.000  
G28 163825834.376       50332.3241      -2421.000          26.000  
G31 161616923.735       55815.441       -1667.000          40.000  
> 2024 12 16  7 16 39.4619999  0 10                     
G 4 160090453.025        5141.467        -155.000          43.000  
G 7 164083516.528      -75209.9631       3584.000          27.000  
G 8 159245266.745      -60123.938        1715.000          44.000  
G 9 161214712.340      -43731.637        1331.000          43.000  
G16 160729460.446       33650.986        -987.000          39.000  
G21 162237413.238      -92903.746        4076.000          37.000  
G26 162282818.953       29728.5501      -1303.000          31.000  
G27 159048701.982       18602.739        -547.000          42.000  
G28 163826297.352       52755.1601      -2422.000          26.000  
G31 161617240.688       57484.156       -1668.000          41.000  
> 2024 12 16  7 16 40.4619999  0 10                     
G 4 160090483.506        5297.808        -156.000          43.000  
G 7 164082826.036      -78795.0921       3585.000          26.000  
G 8 159244939.065      -61839.372        1715.000          44.000  
G 9 161214459.644      -45062.308        1330.000          43.000  
G16 160729648.040       34638.846        -987.000          38.000  
G21 162236630.238      -96980.195        4076.000          35.000  
G26 162283065.642       31031.7781      -1303.000          30.000  
G27 159048805.366       19150.213        -547.000          42.000  
G28 163826750.809       55177.7771      -2422.000          26.000  
G31 161617557.994       59153.081       -1668.000          41.000  
> 2024 12 16  7 16 41.4619999  0 10                     
G 4 160090513.839        5454.425        -156.000          43.000  
G 7 164082158.011      -82380.6651       3585.000          24.000  
G 8 159244611.633      -63554.572        1715.000          43.000  
G 9 161214206.655      -46392.745        1330.000          43.000  
G16 160729834.989       35626.419        -987.000          38.000  
G21 162235851.461     -101056.972        4076.000          36.000  
G26 162283314.622       32334.5891      -1302.000          29.000  
G27 159048909.178       19698.010        -547.000          41.000  
G28 163827233.028       57600.4001      -2422.000          26.000  
G31 161617875.012       60822.024       -1668.000          41.000  
> 2024 12 16  7 16 42.4619999  0 10                     
G 4 160090544.534        5611.448        -157.000          43.000  
G 7 164081475.180      -85967.5441       3586.000          24.000  
G 8 159244285.065      -65269.318        1714.000          43.000  
G 9 161213954.028      -47722.738        1329.000          43.000  
G16 160730023.050       36613.908        -987.000          38.000  
G21 162235077.871     -105133.933        4076.000          36.000  
G26 162283552.944       33637.2831      -1302.000          29.000  
G27 159049013.491       20246.192        -548.000          41.000  
G28 163827688.562       60023.1391      -2422.000          27.000  
G31 161618191.747       62491.060       -1669.000          41.000  
> 2024 12 16  7 16 43.4619999  0 10                     
G 4 160090575.264        5768.760        -157.000          43.000  
G 7 164080791.698      -89553.9211       3586.000          23.000  
G 8 159243958.563      -66983.843        1714.000          44.000  
G 9 161213700.681      -49052.456        1329.000          42.000  
G16 160730209.427       37601.067        -987.000          37.000  
G21 162234301.310     -109211.198        4077.000          36.000  
G26 162283799.489       34939.654       -1302.000          28.000  
G27 159049118.449       20794.631        -548.000          42.000  
G28 163828146.242       62445.6881      -2422.000          25.000  
G31 161618509.803       64160.141       -1669.000          42.000  
> 2024 12 16  7 16 44.4619999  0 10                     
G 4 160090606.491        5926.979        -158.000          43.000  
G 7 164080092.769      -93140.2431       3586.000          24.000  
G 8 159243632.637      -68697.528        1713.000          43.000  
G 9 161213447.121      -50381.285        1328.000          43.000  
G16 160730397.304       38588.607        -987.000          38.000  
G21 162233524.928     -113288.154        4076.000          37.000  
G26 162284057.626       36242.250       -1302.000          30.000  
G27 159049223.766       21343.933        -549.000          42.000  
G28 163828605.780       64868.9561      -2423.000          25.000  
G31 161618828.614       65829.844       -1669.000          41.000  
> 2024 12 16  7 16 45.4619999  0 10                     
G 4 160090637.077        6085.660        -158.000          43.000  
G 7 164079422.737      -96726.5471       3586.000          23.000  
G 8 159243306.815      -70410.750        1713.000          43.000  
G 9 161213193.992      -51709.645        1328.000          43.000  
G16 160730583.721       39575.992        -987.000          37.000  
G21 162232749.157     -117365.241        4077.000          36.000  
G26 162284304.460       37544.723       -1302.000          30.000  
G27 159049329.545       21893.680        -549.000          42.000  
G28 163829064.250       67292.0811      -2423.000          25.000  
G31 161619148.101       67499.707       -1669.000          41.000  
> 2024 12 16  7 16 46.4619999  0 10                     
G 4 160090667.772        6244.866        -159.000          43.000  
G 7 164078737.829     -100313.3771       3586.000          22.000  
G 8 159242981.674      -72123.515        1712.000          43.000  
G 9 161212939.935      -53037.503        1327.000          43.000  
G16 160730771.171       40563.326        -987.000          38.000  
G21 162231972.059     -121442.403        4077.000          36.000  
G26 162284555.730       38847.065       -1302.000          30.000  
G27 159049435.114       22443.893        -550.000          42.000  
G28 163829515.272       69715.3931      -2423.000          25.000  
G31 161619467.445       69169.805       -1670.000          42.000  
> 2024 12 16  7 16 47.4619999  0 10                     
G 4 160090698.681        6405.046        -160.000          43.000  
G 7 164078028.740     -103899.2461       3585.000          22.000  
G 8 159242656.463      -73835.268        1711.000          43.000  
G 9 161212686.339      -54364.373        1326.000          42.000  
G16 160730958.621       41551.118        -987.000          37.000  
G21 162231195.394     -125519.152        4076.000          36.000  
G26 162284797.127       40149.853       -1302.000          30.000  
G27 159049541.499       22995.077        -551.000          43.000  
G28 163829988.623       72139.3651      -2423.000          25.000  
G31 161619786.683       70840.603       -1670.000          42.000  
> 2024 12 16  7 16 48.4619999  0 10                     
G 4 160090729.267        6565.764        -160.000          43.000  
G 7 164077344.617     -107485.8471       3586.000          25.000  
G 8 159242331.143      -75546.547        1711.000          43.000  
G 9 161212433.102      -55690.720        1326.000          42.000  
G16 160731146.569       42538.838        -987.000          37.000  
G21 162230418.475     -129596.002        4076.000          36.000  
G26 162285052.904       41452.465       -1302.000          30.000  
G27 159049647.248       23546.751        -551.000          43.000  
G28 163830468.765       74563.4321      -2424.000          26.000  
G31 161620104.635       72511.670       -1671.000          41.000  
> 2024 12 16  7 16 49.4619999  0 10                     
G 4 160090759.922        6726.820        -161.000          43.000  
G 7 164076653.196     -111073.3261       3586.000          25.000  
G 8 159242006.682      -77257.477        1710.000          43.000  
G 9 161212179.258      -57016.764        1326.000          42.000  
G16 160731335.201       43526.359        -987.000          37.000  
G21 162229642.525     -133673.084        4077.000          36.000  
G26 162285305.818       42754.820       -1302.000          30.000  
G27 159049753.672       24098.766        -552.000          43.000  
G28 163830916.573       76987.6051      -2424.000          24.000  
G31 161620423.084       74182.812       -1671.000          41.000  
> 2024 12 16  7 16 50.4619999  0 10                     
G 4 160090789.937        6887.933        -161.000          43.000  
G 7 164075981.236     -114660.5571       3587.000          22.000  
G 8 159241681.541      -78968.438        1710.000          43.000  
G 9 161211925.911      -58342.701        1325.000          42.000  
G16 160731523.834       44513.378        -987.000          37.000  
G21 162228853.622     -137750.695        4077.000          36.000  
G26 162285550.793       44056.682       -1301.000          30.000  
G27 159049859.809       24650.821        -552.000          43.000  
G28 163831369.960       79411.2091      -2423.000          24.000  
G31 161620741.071       75853.692       -1670.000          41.000  
> 2024 12 16  7 16 51.4619999  0 10                     
G 4 160090820.736        7050.099        -162.000          43.000  
G 7 164075299.905     -118247.8381       3587.000          23.000  
G 8 159241356.976      -80678.345        1709.000          44.000  
G 9 161211672.460      -59667.650        1324.000          41.000  
G16 160731713.217       45500.817        -987.000          38.000  
G21 162228084.430     -141827.871        4077.000          36.000  
G26 162285799.629       45358.896       -1302.000          29.000  
G27 159049965.448       25203.832        -553.000          43.000  
G28 163831841.875       81835.6041      -2424.000          24.000  
G31 161621060.562       77525.353       -1671.000          41.000  
> 2024 12 16  7 16 52.4619999  0 10                     
G 4 160090851.754        7213.260        -163.000          43.000  
G 7 164074621.432     -121834.4521       3586.000          23.000  
G 8 159241032.476      -82387.258        1708.000          44.000  
G 9 161211419.188      -60991.557        1323.000          42.000  
G16 160731903.311       46488.750        -987.000          38.000  
G21 162227312.489     -145904.579        4076.000          36.000  
G26 162286041.742       46661.562       -1302.000          29.000  
G27 159050071.013       25757.905        -554.000          43.000  
G28 163832293.260       84260.5371      -2424.000          25.000  
G31 161621379.548       79197.777       -1672.000          42.000  
> 2024 12 16  7 16 53.4619999  0 10                     
G 4 160090882.266        7377.689        -164.000          43.000  
G 7 164073943.321     -125420.9411       3586.000          23.000  
G 8 159240708.268      -84094.959        1707.000          43.000  
G 9 161211167.062      -62314.202        1322.000          42.000  
G16 160732085.504       47477.499        -988.000          37.000  
G21 162226539.113     -149980.643        4076.000          36.000  
G26 162286293.366       47964.8611      -1303.000          30.000  
G27 159050176.543       26313.153        -555.000          43.000  
G28 163832744.431       86686.4531      -2425.000          25.000  
G31 161621699.214       80871.135       -1673.000          41.000  
> 2024 12 16  7 16 54.4619999  0 10                     
G 4 160090912.747        7543.412        -165.000          43.000  
G 7 164073243.170     -129007.1481       3586.000          25.000  
G 8 159240384.021      -85801.401        1706.000          43.000  
G 9 161210915.326      -63635.602        1321.000          42.000  
G16 160732279.751       48466.822        -989.000          34.000  
G21 162225758.761     -154056.056        4075.000          37.000  
G26 162286545.565       49268.7281      -1303.000          35.000  
G27 159050282.575       26869.682        -556.000          43.000  
G28 163833212.411       89113.2431      -2426.000          25.000  
G31 161622018.989       82545.526       -1674.000          42.000  
> 2024 12 16  7 16 55.4619999  0 10                     
G 4 160090943.830        7710.452        -167.000          43.000  
G 7 164072566.346     -132593.0501       3585.000          23.000  
G 8 159240059.561      -87506.556        1705.000          44.000  
G 9 161210664.806      -64955.683        1320.000          42.000  
G16 160732470.207       49456.868        -990.000          33.000  
G21 162224985.847     -158130.699        4074.000          34.000  
G26 162286797.053       50573.350       -1304.000          33.000  
G27 159050388.712       27427.493        -557.000          43.000  
G28 163833676.888       91540.986       -2427.000          25.000  
G31 161622338.442       84220.935       -1675.000          42.000  
> 2024 12 16  7 16 56.4619999  0 10                     
G 4 160090974.669        7878.484        -168.000          43.000  
G 7 164071888.449     -136178.1161       3585.000          24.000  
G 8 159239734.310      -89210.746        1704.000          44.000  
G 9 161210414.648      -66274.765        1319.000          42.000  
G16 160732660.375       50447.426        -990.000          35.000  
G21 162224214.617     -162204.964        4074.000          36.000  
G26 162287045.387       51878.381       -1305.000          35.000  
G27 159050494.316       27986.288        -558.000          44.000  
G28 163834142.224       93969.1681      -2428.000          26.000  
G31 161622658.038       85897.088       -1676.000          42.000  
> 2024 12 16  7 16 57.4619999  0 10                     
G 4 160091006.865        8046.932        -168.000          43.000  
G 7 164071227.077     -139763.6361       3585.000          25.000  
G 8 159239409.885      -90914.524        1703.000          43.000  
G 9 161210165.132      -67593.417        1318.000          42.000  
G16 160732853.087       51437.742        -990.000          36.000  
G21 162223441.171     -166279.344        4074.000          37.000  
G26 162287289.428       53183.248       -1304.000          32.000  
G27 159050600.597       28545.467        -559.000          43.000  
G28 163834600.903       96397.5441      -2428.000          24.000  
G31 161622976.417       87573.307       -1676.000          41.000  
> 2024 12 16  7 16 58.4619999  0 10                     
G 4 160091038.772        8215.840        -168.000          43.000  
G 7 164070549.825     -143349.2321       3585.000          25.000  
G 8 159239085.175      -92617.897        1703.000          43.000  
G 9 161209914.970      -68911.686        1318.000          42.000  
G16 160733042.360       52428.021        -990.000          38.000  
G21 162222669.370     -170353.892        4074.000          37.000  
G26 162287541.558       54487.872       -1304.000          34.000  
G27 159050706.127       29105.074        -559.000          43.000  
G28 163835048.780       98826.0251      -2428.000          24.000  
G31 161623295.586       89249.771       -1676.000          42.000  
> 2024 12 16  7 16 59.4619999  0 10                     
G 4 160091070.397        8385.156        -169.000          43.000  
G 7 164069863.700     -146934.7761       3585.000          24.000  
G 8 159238760.322      -94320.886        1702.000          43.000  
G 9 161209665.345      -70229.481        1317.000          42.000  
G16 160733230.596       53418.132        -990.000          38.000  
G21 162221895.920     -174428.637        4074.000          37.000  
G26 162287790.036       55792.368       -1304.000          34.000  
G27 159050811.478       29665.077        -559.000          43.000  
G28 163835521.341      101254.4941      -2428.000          24.000  
G31 161623614.607       90926.331       -1676.000          42.000  
> 2024 12 16  7 17  0.4619999  0 10                     
G 4 160091101.986        8555.612        -170.000          43.000  
G 7 164069191.954     -150520.5001       3585.000          24.000  
G 8 159238435.643      -96022.742        1701.000          43.000  
G 9 161209415.724      -71546.197        1316.000          42.000  
G16 160733420.873       54408.782        -990.000          38.000  
G21 162221121.793     -178502.808        4074.000          37.000  
G26 162288040.734       57097.394       -1305.000          34.000  
G27 159050917.152       30226.152        -561.000          43.000  
G28 163835981.381      103683.5781      -2429.000          24.000  
G31 161623933.488       92603.746       -1677.000          42.000  
> 2024 12 16  7 17  1.4619999  0 10                     
G 4 160091134.574        8726.668        -171.000          43.000  
G 7 164068501.606     -154106.209        3585.000          25.000  
G 8 159238111.183      -97724.047        1701.000          43.000  
G 9 161209165.775      -72862.269        1316.000          42.000  
G16 160733610.007       55399.492        -990.000          38.000  
G21 162220348.740     -182577.042        4074.000          37.000  
G26 162288286.782       58402.313       -1304.000          34.000  
G27 159051023.005       30787.785        -561.000          42.000  
G28 163836437.848      106112.9741      -2429.000          23.000  
G31 161624252.726       94281.509       -1677.000          42.000  
> 2024 12 16  7 17  2.4619999  0 10                     
G 4 160091166.591        8898.250        -171.000          42.000  
G 7 164067807.899     -157692.2561       3586.000          23.000  
G 8 159237786.543      -99424.805        1700.000          43.000  
G 9 161208916.115      -74177.815        1315.000          43.000  
G16 160733798.566       56390.180        -990.000          38.000  
G21 162219574.002     -186651.241        4074.000          37.000  
G26 162288537.978       59707.211       -1304.000          35.000  
G27 159051129.107       31350.016        -562.000          43.000  
G28 163836892.164      108542.6381      -2429.000          24.000  
G31 161624571.677       95959.531       -1678.000          41.000  
> 2024 12 16  7 17  3.4619999  0 10                     
G 4 160091199.646        9070.063        -171.000          43.000  
G 7 164067110.182     -161278.6641       3586.000          24.000  
G 8 159237461.441     -101125.443        1700.000          43.000  
G 9 161208666.922      -75493.187        1315.000          43.000  
G16 160733987.447       57380.546        -990.000          38.000  
G21 162218797.729     -190725.893        4074.000          37.000  
G26 162288781.950       61011.676       -1304.000          34.000  
G27 159051235.353       31912.346        -562.000          43.000  
G28 163837364.223      110971.9981      -2429.000          23.000  
G31 161624889.808       97637.454       -1677.000          41.000  
> 2024 12 16  7 17  4.4619999  0 10                     
G 4 160091233.272        9242.244        -172.000          43.000  
G 7 164066442.157     -164864.5521       3585.000          23.000  
G 8 159237137.085     -102825.635        1700.000          43.000  
G 9 161208416.943      -76808.104        1314.000          42.000  
G16 160734177.078       58370.742        -990.000          36.000  
G21 162218022.063     -194800.682        4074.000          37.000  
G26 162289031.859       62316.096       -1304.000          33.000  
G27 159051342.493       32475.104        -562.000          43.000  
G28 163837822.047      113401.5551      -2429.000          23.000  
G31 161625208.366       99315.546       -1678.000          42.000  
> 2024 12 16  7 17  5.4619999  0 10                     
G 4 160091266.864        9415.106        -172.000          43.000  
G 7 164065733.133     -168451.4161       3586.000          22.000  
G 8 159236812.123     -104525.270        1699.000          43.000  
G 9 161208168.247      -78122.426        1314.000          43.000  
G16 160734367.604       59360.945        -990.000          36.000  
G21 162217247.186     -198875.451        4074.000          37.000  
G26 162289277.261       63620.302       -1304.000          33.000  
G27 159051449.737       33038.440        -563.000          43.000  
G28 163838284.735      115832.6391      -2431.000          22.000  
G31 161625527.853      100993.963       -1678.000          41.000  
> 2024 12 16  7 17  6.4619999  0 10                     
G 4 160091300.704        9588.544        -173.000          43.000  
G 7 164065056.811     -172036.9661       3585.000          22.000  
G 8 159236487.697     -106224.291        1699.000          43.000  
G 9 161207918.408      -79436.131        1313.000          43.000  
G16 160734555.094       60351.201        -990.000          35.000  
G21 162216470.590     -202950.200        4074.000          37.000  
G26 162289527.244       64924.583       -1304.000          33.000  
G27 159051557.737       33602.394        -563.000          43.000  
G28 163838753.858      118262.4321      -2429.000          21.000  
G31 161625847.201      102672.711       -1678.000          41.000  
> 2024 12 16  7 17  7.4619999  0 10                     
G 4 160091334.580        9762.299        -173.000          43.000  
G 7 164064375.192     -175623.7251       3587.000          23.000  
G 8 159236164.310     -107923.075        1698.000          43.000  
G 9 161207668.713      -80749.581        1313.000          43.000  
G16 160734724.260       61341.212        -990.000          36.000  
G21 162215684.157     -207025.154        4074.000          37.000  
G26 162289774.435       66228.539       -1303.000          33.000  
G27 159051665.095       34166.590        -564.000          43.000  
G28 163839187.431      120692.7251      -2429.000          20.000  
G31 161626166.544      104351.482       -1678.000          41.000  
> 2024 12 16  7 17  8.4619999  0 10                     
G 4 160091369.066        9936.146        -173.000          44.000  
G 7 164063676.904     -179211.4961       3587.000          23.000  
G 8 159235841.389     -109621.730        1698.000          43.000  
G 9 161207418.769      -82062.920        1313.000          42.000  
G16 160734924.877       62330.776        -989.000          35.000  
G21 162214918.581     -211100.649        4075.000          38.000  
G26 162290023.057       67531.913       -1303.000          32.000  
G27 159051773.129       34730.821        -564.000          43.000  
G28 163839650.546      123122.2331      -2429.000          23.000  
G31 161626485.962      106030.055       -1678.000          41.000  
> 2024 12 16  7 17  9.4619999  0 10                     
G 4 160091403.338       10110.729        -174.000          43.000  
G 7 164063004.587     -182799.5011       3588.000          23.000  
G 8 159235518.002     -111319.724        1697.000          43.000  
G 9 161207168.323      -83375.512        1312.000          43.000  
G16 160735116.978       63320.416        -989.000          37.000  
G21 162214143.058     -215176.029        4075.000          37.000  
G26 162290271.893       68835.551       -1303.000          33.000  
G27 159051881.342       35295.824        -564.000          43.000  
G28 163840109.583      125551.5441      -2429.000          22.000  
G31 161626804.664      107709.116       -1679.000          41.000  
> 2024 12 16  7 17 10.4619999  0 10                     
G 4 160091437.606       10286.170        -175.000          43.000  
G 7 164062312.166     -186387.4021       3587.000          21.000  
G 8 159235194.898     -113016.874        1697.000          43.000  
G 9 161206918.087      -84687.246        1311.000          43.000  
G16 160735302.425       64310.447        -990.000          39.000  
G21 162213368.177     -219251.100        4075.000          37.000  
G26 162290517.797       70139.383       -1303.000          35.000  
G27 159051989.590       35861.621        -565.000          43.000  
G28 163840578.069      127981.8591      -2430.000          21.000  
G31 161627123.867      109388.725       -1679.000          41.000  
> 2024 12 16  7 17 11.4619999  0 10                     
G 4 160091471.948       10462.269        -176.000          43.000  
G 7 164061613.089     -189974.9281       3587.000          23.000  
G 8 159234872.121     -114713.404        1696.000          43.000  
G 9 161206667.964      -85998.353        1311.000          43.000  
G16 160735488.872       65300.554        -990.000          39.000  
G21 162212592.336     -223326.137        4075.000          37.000  
G26 162290766.777       71443.257       -1303.000          36.000  
G27 159052098.445       36428.066        -566.000          43.000  
G28 163841034.890      130412.4871      -2430.000          19.000  
G31 161627443.677      111068.718       -1679.000          41.000  
> 2024 12 16  7 17 12.4619999  0 10                     
G 4 160091505.932       10638.670        -176.000          43.000  
G 7 164060924.673     -193563.3061       3588.000          23.000  
G 8 159234550.304     -116409.666        1696.000          43.000  
G 9 161206418.125      -87309.135        1310.000          43.000  
G16 160735676.610       66290.377        -989.000          39.000  
G21 162211816.600     -227401.484        4075.000          37.000  
G26 162291013.684       72746.773       -1303.000          36.000  
G27 159052206.946       36994.771        -566.000          43.000  
G28 163841507.594      132845.0681      -2432.000          22.000  
G31 161627763.523      112748.751       -1680.000          41.000  
> 2024 12 16  7 17 13.4619999  0 10                     
G 4 160091539.559       10815.923        -177.000          43.000  
G 7 164060222.450     -197151.6451       3588.000          21.000  
G 8 159234228.278     -118105.084        1695.000          43.000  
G 9 161206168.465      -88619.067        1309.000          43.000  
G16 160735864.274       67280.545        -990.000          39.000  
G21 162211042.290     -231476.518        4075.000          36.000  
G26 162291261.805       74050.539       -1303.000          35.000  
G27 159052315.944       37562.344        -567.000          43.000  
G28 163841977.079      135275.5321      -2430.000          22.000  
G31 161628083.621      114429.354       -1680.000          41.000  
> 2024 12 16  7 17 14.4619999  0 10                     
G 4 160091572.400       10994.043        -178.000          42.000  
G 7 164059519.512     -200739.7001       3588.000          20.000  
G 8 159233906.287     -119799.635        1694.000          43.000  
G 9 161205918.805      -89928.134        1309.000          43.000  
G16 160736052.549       68270.980        -990.000          39.000  
G21 162210267.413     -235551.298        4074.000          37.000  
G26 162291511.286       75354.575       -1304.000          35.000  
G27 159052424.589       38130.713        -568.000          43.000  
G28 163842436.330      137706.9911      -2431.000          21.000  
G31 161628403.823      116110.547       -1681.000          41.000  
> 2024 12 16  7 17 15.4619999  0 10                     
G 4 160091605.490       11172.682        -178.000          42.000  
G 7 164058825.517     -204320.8171       3581.000          18.000  
G 8 159233585.150     -121493.754        1694.000          43.000  
G 9 161205669.363      -91236.758        1308.000          43.000  
G16 160736241.142       69261.333        -990.000          39.000  
G21 162209493.430     -239626.188        4074.000          38.000  
G26 162291759.838       76658.487       -1303.000          35.000  
G27 159052533.125       38699.528        -568.000          43.000  
G28 163842894.442      140138.5071      -2431.000          24.000  
G31 161628724.528      117791.919       -1681.000          42.000  
> 2024 12 16  7 17 16.4619999  0  9                     
G 4 160091638.506       11351.637        -178.000          42.000  
G 8 159233263.621     -123187.547        1693.000          43.000  
G 9 161205420.239      -92544.995        1308.000          43.000  
G16 160736430.024       70251.514        -990.000          39.000  
G21 162208719.160     -243701.302        4075.000          38.000  
G26 162292007.169       77962.195       -1303.000          35.000  
G27 159052641.801       39268.693        -569.000          43.000  
G28 163843354.765      142570.6011      -2432.000          22.000  
G31 161629045.197      119473.408       -1681.000          42.000  
> 2024 12 16  7 17 17.4619999  0 10                     
G 4 160091671.849       11531.192        -179.000          42.000  
G 7 164057451.260     -211478.8241       3574.000          20.000  
G 8 159232942.276     -124880.771        1693.000          43.000  
G 9 161205171.115      -93852.653        1307.000          42.000  
G16 160736618.800       71241.672        -990.000          39.000  
G21 162207942.743     -247776.436        4075.000          38.000  
G26 162292253.649       79265.758       -1303.000          35.000  
G27 159052750.014       39838.449        -569.000          43.000  
G28 163843834.197      145002.2901      -2431.000          24.000  
G31 161629365.758      121155.170       -1681.000          42.000  
> 2024 12 16  7 17 18.4619999  0 10                     
G 4 160091705.118       11711.190        -179.000          42.000  
G 7 164056763.132     -215065.4991       3586.000          20.000  
G 8 159232621.213     -126573.560        1692.000          43.000  
G 9 161204922.066      -95159.895        1307.000          42.000  
G16 160736807.214       72231.705        -990.000          39.000  
G21 162207167.936     -251851.702        4075.000          38.000  
G26 162292500.338       80569.212       -1303.000          35.000  
G27 159052858.803       40408.546        -570.000          43.000  
G28 163844311.910      147434.0661      -2431.000          23.000  
G31 161629686.000      122837.116       -1681.000          41.000  
> 2024 12 16  7 17 19.4619999  0 10                     
G 4 160091737.920       11891.764        -180.000          42.000  
G 7 164056094.178     -218656.2331       3590.000          20.000  
G 8 159232299.719     -128265.818        1692.000          44.000  
G 9 161204673.226      -96466.550        1306.000          42.000  
G16 160736995.524       73221.764        -990.000          40.000  
G21 162206393.377     -255926.973        4075.000          38.000  
G26 162292749.318       81872.635       -1303.000          34.000  
G27 159052967.156       40979.252        -570.000          43.000  
G28 163844759.857      149866.6731      -2432.000          25.000  
G31 161630007.564      124519.353       -1682.000          42.000  
> 2024 12 16  7 17 20.4619999  0 10                     
G 4 160091770.726       12072.642        -180.000          42.000  
G 7 164055433.378     -222246.2441       3590.000          21.000  
G 8 159231979.015     -129957.831        1692.000          44.000  
G 9 161204424.604      -97772.955        1306.000          42.000  
G16 160737184.514       74211.520        -989.000          39.000  
G21 162205619.107     -260002.532        4075.000          38.000  
G26 162292995.004       83175.711       -1303.000          34.000  
G27 159053075.443       41550.171        -570.000          43.000  
G28 163845226.052      152298.5051      -2431.000          25.000  
G31 161630328.875      126201.571       -1682.000          42.000  
> 2024 12 16  7 17 21.4619999  0 10                     
G 4 160091804.065       12254.230        -181.000          41.000  
G 7 164054763.420     -225833.5931       3587.000          22.000  
G 8 159231658.022     -131649.105        1691.000          44.000  
G 9 161204175.838      -99078.565        1305.000          43.000  
G16 160737373.395       75201.469        -989.000          40.000  
G21 162204843.872     -264077.938        4075.000          38.000  
G26 162293243.129       84478.907       -1303.000          34.000  
G27 159053183.979       42121.837        -571.000          43.000  
G28 163845694.032      154730.7891      -2432.000          25.000  
G31 161630649.544      127884.273       -1682.000          42.000  
> 2024 12 16  7 17 22.4619999  0 10                     
G 4 160091838.442       12437.047        -182.000          42.000  
G 7 164054106.201     -229419.2631       3585.000          23.000  
G 8 159231336.712     -133339.207        1690.000          44.000  
G 9 161203927.255     -100383.000        1304.000          43.000  
G16 160737562.421       76192.049        -990.000          39.000  
G21 162204068.529     -268152.745        4074.000          38.000  
G26 162293494.111       85782.723       -1303.000          34.000  
G27 159053292.192       42694.675        -572.000          43.000  
G28 163846155.434      157165.4191      -2434.000          24.000  
G31 161630970.070      129567.886       -1683.000          42.000  
> 2024 12 16  7 17 23.4619999  0 10                     
G 4 160091873.464       12620.458        -183.000          42.000  
G 7 164053397.609     -233009.1041       3589.000          23.000  
G 8 159231015.471     -135028.732        1689.000          44.000  
G 9 161203679.706     -101686.820        1303.000          43.000  
G16 160737750.944       77182.700        -990.000          40.000  
G21 162203293.220     -272227.527        4074.000          38.000  
G26 162293743.234       87086.481       -1303.000          35.000  
G27 159053400.227       43268.122        -573.000          43.000  
G28 163846619.836      159598.6651      -2433.000          25.000  
G31 161631291.560      131251.848       -1683.000          41.000  
> 2024 12 16  7 17 24.4619999  0 10                     
G 4 160091907.985       12804.816        -184.000          41.000  
G 7 164052688.589     -236597.2631       3588.000          22.000  
G 8 159230693.872     -136717.344        1688.000          44.000  
G 9 161203431.870     -102989.710        1302.000          43.000  
G16 160737939.433       78173.672        -990.000          40.000  
G21 162202518.055     -276301.970        4074.000          38.000  
G26 162293991.856       88390.559       -1304.000          35.000  
G27 159053508.331       43842.438        -574.000          43.000  
G28 163847077.660      162032.5131      -2433.000          25.000  
G31 161631612.124      132936.455       -1684.000          41.000  
> 2024 12 16  7 17 25.4619999  0 10                     
G 4 160091943.937       12989.680        -184.000          42.000  
G 7 164052051.259     -240188.0601       3590.000          21.000  
G 8 159230372.417     -138405.449        1688.000          44.000  
G 9 161203184.247     -104292.103        1302.000          43.000  
G16 160738128.314       79164.644        -990.000          39.000  
G21 162201742.999     -280376.459        4074.000          38.000  
G26 162294238.834       89694.595       -1304.000          35.000  
G27 159053616.509       44417.221        -574.000          43.000  
G28 163847541.491      164465.9181      -2433.000          24.000  
G31 161631932.720      134621.313       -1684.000          41.000  
> 2024 12 16  7 17 26.4619999  0 10                     
G 4 160091979.426       13175.920        -186.000          41.000  
G 7 164051343.954     -243779.5481       3591.000          22.000  
G 8 159230051.102     -140092.238        1686.000          44.000  
G 9 161202937.130     -105593.144        1301.000          42.000  
G16 160738316.907       80156.382        -991.000          39.000  
G21 162200968.157     -284450.200        4073.000          38.000  
G26 162294483.948       90999.331       -1304.000          35.000  
G27 159053724.221       44993.340        -576.000          42.000  
G28 163848018.131      166900.0911      -2434.000          25.000  
G31 161632253.961      136307.203       -1685.000          41.000  
> 2024 12 16  7 17 27.4619999  0 10                     
G 4 160092015.269       13362.729        -186.000          41.000  
G 7 164050672.282     -247369.5411       3589.000          22.000  
G 8 159229729.573     -141778.468        1686.000          43.000  
G 9 161202690.187     -106893.593        1300.000          42.000  
G16 160738505.858       81148.138        -991.000          39.000  
G21 162200192.634     -288523.948        4073.000          37.000  
G26 162294735.576       92304.063       -1304.000          34.000  
G27 159053832.900       45570.044        -576.000          41.000  
G28 163848476.313      169335.1841      -2435.000          23.000  
G31 161632574.883      137993.448       -1686.000          40.000  
> 2024 12 16  7 17 28.4619999  0 10                     
G 4 160092051.867       13550.756        -188.000          41.000  
G 7 164050001.321     -250954.4191       3584.000          23.000  
G 8 159229408.476     -143463.508        1685.000          44.000  
G 9 161202443.424     -108192.798        1299.000          42.000  
G16 160738694.346       82140.547        -992.000          39.000  
G21 162199418.006     -292597.022        4073.000          37.000  
G26 162294988.848       93609.404       -1305.000          35.000  
G27 159053942.152       46147.941        -577.000          42.000  
G28 163848956.529      171771.0361      -2435.000          25.000  
G31 161632896.517      139680.601       -1687.000          41.000  
> 2024 12 16  7 17 29.4619999  0 10                     
G 4 160092088.495       13739.958        -189.000          41.000  
G 7 164049349.399     -254540.4001       3585.000          23.000  
G 8 159229088.238     -145147.395        1683.000          43.000  
G 9 161202197.022     -109490.892        1298.000          42.000  
G16 160738882.730       83133.546        -992.000          38.000  
G21 162198643.413     -296669.536        4072.000          37.000  
G26 162295236.397       94915.293       -1305.000          34.000  
G27 159054051.364       46726.938        -578.000          41.000  
G28 163849419.859      174207.8581      -2436.000          24.000  
G31 161633217.187      141368.658       -1688.000          40.000  
> 2024 12 16  7 17 30.4619999  0 10                     
G 4 160092124.699       13929.822        -189.000          42.000  
G 7 164048673.002     -258127.8871       3587.000          24.000  
G 8 159228767.817     -146830.632        1683.000          44.000  
G 9 161201950.760     -110788.276        1297.000          43.000  
G16 160739072.004       84126.713        -993.000          39.000  
G21 162197866.603     -300741.939        4072.000          38.000  
G26 162295481.442       96221.263       -1305.000          35.000  
G27 159054161.510       47306.626        -579.000          42.000  
G28 163849859.796      176644.2781      -2436.000          22.000  
G31 161633537.891      143057.141       -1688.000          41.000  
> 2024 12 16  7 17 31.4619999  0 10                     
G 4 160092161.650       14120.270        -190.000          43.000  
G 7 164047986.445     -261716.1761       3588.000          25.000  
G 8 159228447.257     -148513.332        1682.000          44.000  
G 9 161201704.071     -112085.105        1296.000          42.000  
G16 160739259.738       85119.852        -993.000          38.000  
G21 162197091.796     -304814.395        4072.000          38.000  
G26 162295730.496       97527.145       -1305.000          36.000  
G27 159054271.800       47886.839        -580.000          42.000  
G28 163850330.499      179082.0941      -2437.000          23.000  
G31 161633858.953      144745.880       -1688.000          41.000  
> 2024 12 16  7 17 32.4619999  0 10                     
G 4 160092198.571       14311.094        -190.000          43.000  
G 7 164047317.491     -265303.2241       3587.000          26.000  
G 8 159228126.801     -150195.695        1682.000          44.000  
G 9 161201457.914     -113381.572        1296.000          42.000  
G16 160739448.261       86112.748        -992.000          40.000  
G21 162196315.523     -308887.045        4072.000          38.000  
G26 162295971.104       98832.829       -1305.000          35.000  
G27 159054382.517       48467.384        -580.000          42.000  
G28 163850782.882      181519.3751      -2437.000          20.000  
G31 161634179.479      146434.688       -1688.000          41.000  
> 2024 12 16  7 17 33.4619999  0 10                     
G 4 160092235.596       14502.244        -191.000          43.000  
G 7 164046631.867     -268892.2081       3588.000          26.000  
G 8 159227806.349     -151877.739        1682.000          44.000  
G 9 161201210.832     -114677.693        1296.000          42.000  
G16 160739636.929       87105.447        -992.000          39.000  
G21 162195539.713     -312959.906        4072.000          38.000  
G26 162296225.593      100138.186       -1305.000          35.000  
G27 159054493.950       49048.247        -580.000          42.000  
G28 163851208.580      183961.8791      -2442.000          19.000  
G31 161634499.324      148123.577       -1688.000          41.000  
> 2024 12 16  7 17 34.4619999  0 10                     
G 4 160092272.511       14694.023        -191.000          43.000  
G 7 164045939.661     -272481.1921       3588.000          26.000  
G 8 159227486.286     -153559.189        1681.000          44.000  
G 9 161200964.143     -115973.204        1295.000          42.000  
G16 160739823.738       88098.207        -992.000          39.000  
G21 162194764.046     -317032.783        4072.000          37.000  
G26 162296474.717      101443.604       -1305.000          35.000  
G27 159054606.098       49629.713        -581.000          43.000  
G28 163851666.047      186398.8811      -2436.000          20.000  
G31 161634818.885      149812.792       -1689.000          40.000  
> 2024 12 16  7 17 35.4619999  0 10                     
G 4 160092309.824       14886.695        -192.000          43.000  
G 7 164045265.411     -276070.1911       3589.000          26.000  
G 8 159227165.795     -155239.755        1680.000          44.000  
G 9 161200717.558     -117267.814        1294.000          42.000  
G16 160740011.436       89091.304        -993.000          39.000  
G21 162193987.525     -321105.325        4072.000          37.000  
G26 162296723.409      102749.247       -1305.000          35.000  
G27 159054717.958       50212.068        -582.000          43.000  
G28 163852168.587      188837.3861      -2438.000          22.000  
G31 161635139.337      151502.659       -1689.000          40.000  
> 2024 12 16  7 17 36.4619999  0 10                     
G 4 160092347.172       15080.145        -193.000          43.000  
G 7 164044595.453     -279659.0311       3588.000          26.000  
G 8 159226845.916     -156919.592        1679.000          44.000  
G 9 161200470.834     -118561.646        1293.000          42.000  
G16 160740199.960       90084.599        -993.000          39.000  
G21 162193211.535     -325177.695        4072.000          37.000  
G26 162296972.820      104055.089       -1305.000          35.000  
G27 159054829.962       50795.119        -583.000          43.000  
G28 163852654.095      191277.6081      -2440.000          21.000  
G31 161635459.793      153193.019       -1690.000          40.000  
> 2024 12 16  7 17 37.4619999  0 10                     
G 4 160092384.625       15273.894        -193.000          43.000  
G 7 164043908.255     -283248.2451       3588.000          25.000  
G 8 159226526.105     -158599.122        1679.000          44.000  
G 9 161200224.319     -119855.196        1293.000          42.000  
G16 160740389.234       91077.636        -993.000          39.000  
G21 162192435.227     -329250.339        4072.000          36.000  
G26 162297223.728      105360.584       -1305.000          35.000  
G27 159054942.542       51378.498        -583.000          42.000  
G28 163853108.412      193716.4201      -2438.000          20.000  
G31 161635780.641      154883.402       -1690.000          40.000  
> 2024 12 16  7 17 38.4619999  0 10                     
G 4 160092422.758       15468.828        -194.000          43.000  
G 7 164043220.127     -286836.9881       3588.000          26.000  
G 8 159226206.793     -160277.508        1678.000          44.000  
G 9 161199978.131     -121147.571        1292.000          42.000  
G16 160740578.691       92071.309        -993.000          38.000  
G21 162191659.417     -333322.335        4072.000          36.000  
G26 162297469.349      106666.683       -1306.000          35.000  
G27 159055053.722       51962.975        -584.000          42.000  
G28 163853539.118      196154.7351      -2438.000          21.000  
G31 161636101.058      156574.671       -1691.000          40.000  
> 2024 12 16  7 17 39.4619999  0 10                     
G 4 160092460.354       15664.080        -195.000          43.000  
G 7 164042540.511     -290426.1161       3589.000          25.000  
G 8 159225887.022     -161955.589        1678.000          44.000  
G 9 161199731.298     -122439.570        1292.000          42.000  
G16 160740766.425       93064.707        -993.000          39.000  
G21 162190882.821     -337394.594        4072.000          36.000  
G26 162297715.750      107972.479       -1305.000          35.000  
G27 159055165.513       52547.787        -584.000          42.000  
G28 163853991.432      198595.9451      -2441.000          19.000  
G31 161636421.370      158265.982       -1691.000          40.000  
> 2024 12 16  7 17 40.4619999  0 10                     
G 4 160092497.811       15860.084        -195.000          42.000  
G 7 164041851.023     -294014.8801       3588.000          25.000  
G 8 159225567.748     -163632.974        1677.000          44.000  
G 9 161199483.963     -123730.887        1291.000          42.000  
G16 160740955.485       94058.279        -993.000          39.000  
G21 162190106.012     -341466.710        4072.000          36.000  
G26 162297968.739      109278.384       -1305.000          35.000  
G27 159055277.342       53133.282        -585.000          43.000  
G28 163854517.870      201035.2231      -2439.000          19.000  
G31 161636742.183      159957.752       -1691.000          40.000  
> 2024 12 16  7 17 41.4619999  0 10                     
G 4 160092535.194       16056.554        -196.000          43.000  
G 7 164041171.908     -297604.3221       3589.000          26.000  
G 8 159225248.614     -165309.896        1676.000          44.000  
G 9 161199237.736     -125021.712        1290.000          42.000  
G16 160741144.475       95051.782        -993.000          39.000  
G21 162189330.419     -345538.921        4072.000          36.000  
G26 162298221.798      110584.166       -1305.000          35.000  
G27 159055389.098       53719.268        -585.000          43.000  
G28 163854969.037      203474.3351      -2439.000          20.000  
G31 161637063.101      161649.729       -1691.000          39.000  
> 2024 12 16  7 17 42.4619999  0 10                     
G 4 160092571.538       16253.339        -196.000          42.000  
G 7 164040488.928     -301194.2391       3589.000          25.000  
G 8 159224930.056     -166986.523        1676.000          44.000  
G 9 161198991.548     -126312.233        1290.000          42.000  
G16 160741333.783       96045.030        -993.000          39.000  
G21 162188554.718     -349611.417        4072.000          36.000  
G26 162298472.527      111889.649       -1305.000          36.000  
G27 159055500.635       54305.515        -586.000          42.000  
G28 163855433.514      205914.6721      -2440.000          19.000  
G31 161637384.203      163341.744       -1692.000          39.000  
> 2024 12 16  7 17 43.4619999  0 10                     
G 4 160092608.171       16451.371        -198.000          42.000  
G 7 164039805.238     -304783.563        3589.000          25.000  
G 8 159224610.857     -168661.954        1675.000          44.000  
G 9 161198745.286     -127601.539        1289.000          42.000  
G16 160741523.489       97038.924        -993.000          39.000  
G21 162187780.229     -353683.282        4071.000          37.000  
G26 162298713.602      113195.769       -1306.000          36.000  
G27 159055611.998       54892.952        -587.000          42.000  
G28 163855911.440      208356.7921      -2442.000          17.000  
G31 161637706.015      165034.741       -1692.000          39.000  
> 2024 12 16  7 17 44.4619999  0 10                     
G 4 160092644.550       16650.784        -199.000          42.000  
G 7 164039119.610     -308372.0481       3588.000          25.000  
G 8 159224292.011     -170336.002        1674.000          44.000  
G 9 161198499.596     -128889.427        1287.000          42.000  
G16 160741713.051       98033.680        -994.000          37.000  
G21 162187006.281     -357754.300        4071.000          37.000  
G26 162298962.442      114502.649       -1306.000          35.000  
G27 159055723.252       55481.781        -588.000          43.000  
G28 163856323.976      210794.9231      -2438.000          17.000  
G31 161638027.898      166728.812       -1694.000          40.000  
> 2024 12 16  7 17 45.4619999  0 10                     
G 4 160092681.361       16850.271        -199.000          42.000  
G 7 164038415.956     -311960.5711       3588.000          24.000  
G 8 159223973.810     -172010.022        1674.000          44.000  
G 9 161198254.983     -130177.269        1287.000          42.000  
G16 160741902.682       99027.910        -994.000          38.000  
G21 162186231.832     -361825.843        4071.000          37.000  
G26 162299213.424      115809.025       -1306.000          37.000  
G27 159055834.685       56070.627        -588.000          43.000  
G28 163856774.999      213239.0511      -2444.000          15.000  
G31 161638349.715      168422.654       -1693.000          40.000  
> 2024 12 16  7 17 46.4619999  0 10                     
G 4 160092718.064       17049.813        -199.000          42.000  
G 7 164037744.498     -315550.5591       3589.000          24.000  
G 8 159223655.536     -173684.030        1674.000          44.000  
G 9 161198010.222     -131465.045        1287.000          43.000  
G16 160742092.781      100021.632        -993.000          39.000  
G21 162185457.313     -365897.940        4072.000          36.000  
G26 162299462.796      117114.786       -1305.000          36.000  
G27 159055946.401       56659.492        -588.000          43.000  
G28 163857247.346      215677.4401      -2438.000          16.000  
G31 161638672.352      170116.292       -1693.000          41.000  
> 2024 12 16  7 17 47.4619999  0 10                     
G 4 160092755.232       17249.954        -200.000          42.000  
G 7 164037053.076     -319140.6771       3590.000          24.000  
G 8 159223337.410     -175357.438        1673.000          44.000  
G 9 161197765.928     -132752.226        1287.000          43.000  
G16 160742282.805      101015.404        -993.000          39.000  
G21 162184683.151     -369970.016        4072.000          36.000  
G26 162299707.876      118420.591       -1305.000          36.000  
G27 159056058.087       57248.930        -589.000          42.000  
G28 163857749.598      218113.4401      -2435.000          17.000  
G31 161638994.452      171810.276       -1693.000          40.000  
> 2024 12 16  7 17 48.4619999  0 10                     
G 4 160092792.223       17450.987        -201.000          42.000  
G 7 164036363.304     -322730.6931       3590.000          22.000  
G 8 159223019.746     -177029.954        1672.000          45.000  
G 9 161197521.638     -134038.501        1286.000          43.000  
G16 160742472.798      102009.530        -994.000          39.000  
G21 162183909.274     -374041.755        4071.000          37.000  
G26 162299958.217      119726.669       -1306.000          36.000  
G27 159056169.410       57839.272        -590.000          43.000  
G28 163858170.576      220548.9141      -2435.000          17.000  
G31 161639317.730      173504.897       -1694.000          41.000  
> 2024 12 16  7 17 49.4619999  0 10                     
G 4 160092830.251       17652.924        -201.000          42.000  
G 7 164035660.436     -326320.4911       3589.000          22.000  
G 8 159222701.720     -178701.601        1671.000          44.000  
G 9 161197277.985     -135323.897        1285.000          43.000  
G16 160742662.037      103003.936        -994.000          39.000  
G21 162183134.715     -378113.226        4071.000          37.000  
G26 162300207.768      121032.939       -1306.000          35.000  
G27 159056280.882       58430.460        -591.000          42.000  
G28 163858660.665      222989.0331      -2440.000          16.000  
G31 161639641.083      175200.061       -1695.000          40.000  
> 2024 12 16  7 17 50.4619999  0 10                     
G 4 160092868.489       17855.758        -202.000          42.000  
G 7 164034982.826     -329910.1251       3589.000          22.000  
G 8 159222384.593     -180372.407        1670.000          44.000  
G 9 161197035.230     -136608.406        1284.000          43.000  
G16 160742850.918      103998.673        -994.000          39.000  
G21 162182360.340     -382184.378        4071.000          38.000  
G26 162300454.889      122339.578       -1306.000          35.000  
G27 159056393.135       59022.503        -592.000          43.000  
G28 163859114.698      225433.2641      -2444.000          13.000  
G31 161639963.506      176895.879       -1695.000          40.000  
> 2024 12 16  7 17 51.4619999  0 10                     
G 4 160092907.913       18059.877        -204.000          43.000  
G 7 164034274.592     -333498.1081       3587.000          20.000  
G 8 159222067.147     -182041.912        1669.000          44.000  
G 9 161196791.761     -137891.624        1283.000          43.000  
G16 160743040.336      104994.164        -995.000          39.000  
G21 162181585.712     -386254.798        4070.000          37.000  
G26 162300703.223      123646.859       -1307.000          34.000  
G27 159056505.820       59615.814        -593.000          42.000  
G28 163859544.401      227874.4651      -2441.000          14.000  
G31 161640286.750      178592.699       -1696.000          41.000  
> 2024 12 16  7 17 52.4619999  0  9                     
G 4 160092947.442       18264.616        -204.000          43.000  
G 7 164033606.850     -337084.0821       3585.000          20.000  
G 8 159221749.161     -183710.861        1668.000          44.000  
G 9 161196548.788     -139174.205        1282.000          43.000  
G16 160743229.501      105989.709        -995.000          39.000  
G21 162180811.367     -390325.175        4070.000          37.000  
