     2.11           OBSERVATION DATA    G                   RINEX VERSION / TYPE
cnvtToRINEX 3.08.0  convertToRINEX OPR  10-Mar-23 03:47 UTC PGM / RUN BY / DATE 
gfzrnx-1.13-7761    FILE PROCESSING     20230313 064722 UTC COMMENT             
GF04                                                        MARKER NAME         
GF04                                                        MARKER NUMBER       
GNSS Observer       Trimble                                 OBSERVER / AGENCY   
5949R91176          TRIMBLE R8s LT      5.52                REC # / TYPE / VERS 
                    TRMR8S          NONE                    ANT # / TYPE        
        1.7930        0.0000        0.0000                  ANTENNA: DELTA H/E/N
 -2956286.5606  5076152.6552  2476497.6482                  APPROX POSITION XYZ 
     5    C1    C2    L1    L2    P2                        # / TYPES OF OBSERV 
----------------------------------------------------------- COMMENT             
     1     1     0                                          WAVELENGTH FACT L1/2
     0                                                      RCV CLOCK OFFS APPL 
    18                                                      LEAP SECONDS        
CARRIER PHASE MEASUREMENTS: PHASE SHIFTS REMOVED            COMMENT             
     8                                                      # OF SATELLITES     
   G04  1815  1815  1815  1815  1815                        PRN / # OF OBS      
   G08  1815  1815  1815  1815  1815                        PRN / # OF OBS      
   G09   501   501   501   501   501                        PRN / # OF OBS      
   G16  1815        1815  1815  1815                        PRN / # OF OBS      
   G26  1815  1815  1815  1815  1815                        PRN / # OF OBS      
   G27  1815  1815  1815  1815  1815                        PRN / # OF OBS      
   G28     7           4                                    PRN / # OF OBS      
   G31   624   311   492   310    35                        PRN / # OF OBS      
     1.000                                                  INTERVAL            
  2023     3    10     2    56    4.0000000     GPS         TIME OF FIRST OBS   
  2023     3    10     3    27    3.0000000     GPS         TIME OF LAST OBS    
                                                            END OF HEADER      
 23 03 10 02 56 04.0000000  0  6G04G08G16G26G27G31                  
  21420337.547 6  21420347.316 9 112564631.019 6  87712740.354 9  21420347.16847
  21185442.992 6  21185457.648 9 111330253.049 6  86751036.788 9  21185457.01649
  21297212.688 6                 111917609.381 6  87208558.04647  21297220.97347
  22679274.094 6  22679288.895 9 119180383.383 6  92867673.703 9  22679288.91047
  19988863.633 7  19988874.016 9 105042186.114 7  81851093.861 9  19988873.76249
  23276504.555 2  23276528.402 8 122318899.536 2  95313242.749 8  23276527.72745
 23 03 10 02 56 05.0000000  0  6G04G08G16G26G27G31                  
  21420245.445 6  21420255.363 9 112564147.972 6  87712363.949 9  21420255.28947
  21185056.539 6  21185071.406 9 111328222.903 6  86749454.854 9  21185070.61349
  21297465.953 6                 111918939.485 6  87209594.48647  21297474.18047
  22679668.750 6  22679683.484 9 119182456.947 6  92869289.454 9  22679683.46147
  19988874.266 7  19988884.711 9 105042241.645 7  81851137.127 9  19988884.39849
  23276938.813 1  23276961.789 8 122321177.518 1  95315017.786 8  23276961.16845
 23 03 10 02 56 06.0000000  0  6G04G08G16G26G27G31                  
  21420153.531 6  21420163.520 9 112563665.735 6  87711988.175 9  21420163.48847
  21184670.648 6  21184685.191 9 111326193.480 6  86747873.488 9  21184684.64549
  21297718.797 6                 111920269.926 6  87210631.19447  21297727.18047
  22680063.445 6  22680078.035 8 119184530.647 6  92870905.317 8  22680077.91447
  19988885.133 7  19988895.465 9 105042298.017 7  81851181.057 9  19988895.09849
  23277372.273 1  23277395.172 8 122323455.914 1  95316793.156 8  23277394.71945
 23 03 10 02 56 07.0000000  0  6G04G08G16G26G27G31                  
  21420062.180 6  21420072.063 9 112563184.520 6  87711613.198 9  21420071.93447
  21184284.688 6  21184299.324 9 111324164.959 6  86746292.815 9  21184298.65249
  21297972.094 6                 111921600.886 6  87211668.29847  21297980.25847
  22680457.422 6  22680472.824 8 119186604.727 6  92872521.479 8  22680472.76647
  19988896.016 7  19988906.121 9 105042355.447 7  81851225.806 9  19988906.13749
  23277805.328 2  23277828.684 8 122325734.957 2  95318569.014 8  23277828.41845
 23 03 10 02 56 53.0000000  0  6G04G08G16G26G27G31                  
  21416022.695 6  21416032.301 9 112541955.680 6  87695071.105 9  21416032.28147
  21166676.414 6  21166690.961 9 111231634.520 6  86674191.253 9  21166689.93049
  21309693.750 6                 111983196.816 6  87259664.94247  21309701.80547
  22698652.023 5  22698667.102 8 119282214.865 5  92947022.477 8  22698667.04747
  19989580.484 7  19989591.148 9 105045953.896 7  81854029.718 9  19989591.02349
  23297853.313 1  23297877.824 8 122431089.04311  95400662.83418  23297877.80145
 23 03 10 02 56 54.0000000  0  6G04G08G16G26G27G31                  
  21415938.656 6  21415948.363 9 112541513.984 6  87694726.917 9  21415948.21947
  21166296.656 6  21166311.484 9 111229640.064 6  86672637.135 9  21166310.59849
  21309950.297 6                 111984543.998 6  87260714.69647  21309958.26647
  22699048.320 5  22699063.422 8 119284297.805 5  92948645.518 8  22699063.44147
  19989599.539 7  19989610.098 9 105046052.965 7  81854106.920 9  19989609.89849
  23298291.984 1  23298315.801 8 122433390.586 1  95402456.244 8  23298315.94545
 23 03 10 02 56 55.0000000  0  6G04G08G16G26G27G31                  
  21415854.500 6  21415864.406 9 112541072.854 6  87694383.175 9  21415864.32847
  21165917.313 6  21165931.930 9 111227646.093 6  86671083.388 9  21165930.88349
  21310206.563 6                 111985891.275 6  87261764.51247  21310214.64147
  22699445.125 5  22699460.137 8 119286380.678 5  92950268.533 8  22699459.89547
  19989618.438 7  19989629.230 9 105046152.654 7  81854184.600 9  19989628.85949
  23298729.250 2  23298753.594 8 122435692.405 2  95404249.879 8  23298754.05545
 23 03 10 02 56 56.0000000  0  6G04G08G16G26G27G31                  
  21415770.945 6  21415780.484 9 112540632.626 6  87694040.146 9  21415780.53147
  21165538.031 6  21165552.633 9 111225652.880 6  86669530.237 9  21165551.55949
  21310462.695 6                 111987238.934 6  87262814.63947  21310471.14547
  22699841.195 5  22699856.520 8 119288463.801 5  92951891.742 8  22699856.40247
  19989637.594 7  19989648.234 9 105046253.282 7  81854263.011 9  19989648.05549
  23299167.820 2  23299191.754 8 122437994.723 2  95406043.897 8  23299192.41045
 23 03 10 02 56 57.0000000  0  6G04G08G16G26G27G31                  
  21415687.117 6  21415696.828 9 112540193.163 6  87693697.699 9  21415697.07047
  21165159.086 6  21165173.383 9 111223660.317 6  86667977.586 9  21165172.48049
  21310719.250 6                 111988586.869 6  87263864.96948  21310727.78148
  22700237.750 5  22700253.273 8 119290547.056 5  92953515.046 8  22700252.78547
  19989656.422 7  19989667.613 9 105046354.736 7  81854342.068 9  19989667.38349
  23299606.594 2  23299630.168 8 122440297.499 2  95407838.255 8  23299630.69945
 23 03 10 02 56 58.0000000  0  6G04G08G16G26G27G31                  
  21415603.961 6  21415613.250 9 112539754.499 6  87693355.864 9  21415613.31647
  21164779.945 6  21164794.289 9 111221668.409 6  86666425.449 9  21164793.50049
  21310975.578 6                 111989935.087 6  87264915.52148  21310984.27348
  22700633.977 5  22700649.680 8 119292630.396 5  92955138.417 8  22700649.30947
  19989676.008 7  19989686.809 9 105046457.004 7  81854421.752 9  19989686.88749
  23300044.859 2  23300068.574 8 122442600.628 2  95409632.896 8  23300068.74645
 23 03 10 02 56 59.0000000  0  6G04G08G16G26G27G31                  
  21415520.383 6  21415529.859 9 112539316.626 6  87693014.676 9  21415529.91447
  21164400.922 6  21164415.559 9 111219677.171 6  86664873.833 9  21164414.66849
  21311232.648 6                 111991283.608 6  87265966.31748  21311240.77348
  22701030.484 5  22701046.098 8 119294713.934 5  92956761.944 8  22701045.89847
  19989695.688 7  19989706.395 9 105046560.128 7  81854502.107 9  19989706.47749
  23300484.484 2  23300506.977 8 122444904.318 2  95411427.977 8  23300506.96545
 23 03 10 02 57 00.0000000  0  6G04G08G16G26G27G31                  
  21415437.508 6  21415446.797 9 112538879.622 6  87692674.151 9  21415446.79347
  21164022.000 6  21164036.516 9 111217686.723 6  86663322.829 9  21164035.74249
  21311489.461 6                 111992632.512 6  87267017.40647  21311497.48047
  22701426.625 5  22701442.402 8 119296797.636 5  92958385.591 8  22701442.40647
  19989715.602 7  19989726.457 9 105046664.152 7  81854583.161 9  19989726.56649
  23300923.125 2  23300945.582 8 122447208.468 2  95413223.396 8  23300945.32045
 23 03 10 02 57 01.0000000  0  6G04G08G16G26G27G31                  
  21415354.211 6  21415363.961 9 112538443.542 6  87692334.342 9  21415363.75847
  21163643.766 6  21163658.137 9 111215697.109 6  86661772.473 9  21163657.14149
  21311746.258 6                 111993981.816 6  87268068.80148  21311754.35548
  22701823.156 5  22701839.313 8 119298881.653 5  92960009.515 8  22701838.93447
  19989735.445 7  19989746.516 9 105046769.154 7  81854664.983 9  19989746.33649
  23301361.305 2  23301383.980 8 122449513.108 2  95415019.218 8  23301384.05145
 23 03 10 02 57 02.0000000  0  6G04G08G16G26G27G31                  
  21415271.563 6  21415280.941 9 112538008.189 6  87691995.108 9  21415280.95347
  21163265.008 6  21163279.438 9 111213708.078 6  86660222.594 9  21163278.84449
  21312003.070 6                 111995331.383 6  87269120.41148  21312011.07448
  22702220.320 5  22702235.676 9 119300965.723 5  92961633.457 9  22702235.42647
  19989755.680 7  19989766.457 9 105046874.931 7  81854747.401 9  19989766.58249
  23301800.625 2  23301822.707 8 122451818.211 2  95416815.410 8  23301822.62145
 23 03 10 02 57 03.0000000  0  6G04G08G16G26G27G31                  
  21415188.758 6  21415198.234 9 112537573.599 6  87691656.468 9  21415198.25048
  21162886.867 6  21162900.961 9 111211719.693 6  86658673.205 9  21162900.33249
  21312259.813 6                 111996681.195 6  87270172.21548  21312267.93048
  22702616.914 5  22702632.355 9 119303049.904 5  92963257.488 9  22702632.00847
  19989776.188 7  19989786.816 9 105046981.487 7  81854830.431 9  19989786.88349
  23302240.891 2                                                                
 23 03 10 02 57 04.0000000  0  6G04G08G16G26G27G31                  
  21415106.523 6  21415115.844 9 112537139.711 6  87691318.372 9  21415115.69947
  21162508.164 6  21162522.715 9 111209731.935 6  86657124.302 9  21162521.77349
  21312516.242 6                 111998031.216 6  87271224.16947  21312525.00847
  22703013.844 5  22703029.258 9 119305134.135 5  92964881.550 9  22703028.92647
  19989796.445 7  19989807.477 9 105047088.813 7  81854914.064 9  19989807.27049
  23302679.461 2                                                                
 23 03 10 02 57 05.0000000  0  6G04G08G16G26G27G31                  
  21415024.195 6  21415033.695 9 112536706.634 6  87690980.910 9  21415033.21947
  21162130.180 6  21162144.625 9 111207744.848 6  86655575.927 9  21162143.89549
  21312773.523 6                 111999381.526 6  87272276.35347  21312782.05547
  22703410.164 5  22703425.895 9 119307218.518 5  92966505.732 9  22703425.70347
  19989816.813 7  19989827.766 9 105047196.980 7  81854998.345 9  19989827.75049
  23303116.477 1                                                                
 23 03 10 02 57 06.0000000  0  6G04G08G16G26G27G31                  
  21414941.445 6  21414951.430 9 112536274.476 6  87690644.157 9  21414951.07447
  21161752.438 6  21161766.676 9 111205758.586 6  86654028.193 9  21161765.94149
  21313030.328 6                 112000732.263 6  87273328.87147  21313039.05147
  22703806.836 5  22703822.578 8 119309303.153 5  92968130.104 8  22703822.38747
  19989837.664 7  19989848.406 9 105047306.125 7  81855083.393 9  19989848.83249
  23303555.109 1                                                                
 23 03 10 02 57 07.0000000  0  6G04G08G16G26G27G31                  
  21414859.336 6  21414869.297 9 112535843.000 6  87690307.938 9  21414869.01247
  21161374.375 6  21161388.902 9 111203772.855 6  86652480.869 9  21161387.90249
  21313287.656 6                 112002083.191 6  87274381.54747  21313296.13347
  22704203.320 5  22704219.133 8 119311387.854 5  92969754.550 8  22704219.07047
  19989858.492 7  19989869.410 9 105047415.991 7  81855169.000 9  19989869.59449
  23303993.516 1  23304017.844 8 122463349.61011  95425800.88718  23304016.91045
 23 03 10 02 57 08.0000000  0  6G04G08G16G26G27G31                  
  21414777.219 6  21414787.500 9 112535412.397 6  87689972.405 9  21414787.08247
  21160997.023 6  21161011.352 9 111201787.883 6  86650934.147 9  21161010.03949
  21313544.516 6                 112003434.507 6  87275434.51347  21313553.37947
  22704600.141 5  22704615.699 8 119313472.746 5  92971379.118 8  22704615.91047
  19989879.445 7  19989890.703 9 105047526.761 7  81855255.316 9  19989890.57049
  23304433.164 1  23304457.324 8 122465657.249 1  95427599.066 8  23304456.14145
 23 03 10 02 57 09.0000000  0  6G04G08G16G26G27G31                  
  21414695.422 6  21414705.598 9 112534982.586 6  87689637.477 9  21414705.13747
  21160619.453 6  21160633.727 9 111199803.561 6  86649387.920 9  21160632.70349
  21313801.672 6                 112004786.079 6  87276487.69547  21313810.55147
  22704997.391 5  22705012.559 8 119315557.789 5  92973003.835 8  22705012.73047
  19989900.805 7  19989911.758 9 105047638.377 7  81855342.279 9  19989911.83649
  23304872.539 1  23304896.398 8 122467965.272 1  95429397.530 8  23304895.25445
 23 03 10 02 57 10.0000000  0  6G04G08G16G26G27G31                  
  21414614.195 6  21414624.074 9 112534553.495 6  87689303.120 9  21414623.52047
  21160241.758 6  21160256.184 9 111197819.877 6  86647842.190 9  21160255.00049
  21314058.992 6                 112006137.932 6  87277541.07847  21314067.64547
  22705394.055 5  22705409.426 8 119317642.892 5  92974628.589 8  22705409.50847
  19989922.344 7  19989933.199 9 105047750.746 7  81855429.845 9  19989933.30949
  23305309.977 1                                                                
 23 03 10 02 57 11.0000000  0  6G04G08G16G26G27G31                  
  21414533.148 6  21414542.367 9 112534125.225 6  87688969.399 9  21414542.06647
  21159864.477 6  21159878.992 9 111195836.902 6  86646297.012 9  21159877.75849
  21314316.508 5                 112007490.047 5  87278594.67947  21314324.95747
  22705791.320 5  22705806.293 9 119319728.168 5  92976253.472 9  22705806.19947
  19989943.859 7  19989954.758 9 105047863.996 7  81855518.090 9  19989954.87149
  23305748.156 1  23305774.664 8 122472582.64611  95432995.45218  23305773.95345
 23 03 10 02 57 12.0000000  0  6G04G08G16G26G27G31                  
  21414451.391 6  21414461.012 9 112533697.824 6  87688636.354 9  21414460.75447
  21159487.680 6  21159501.598 9 111193854.701 6  86644752.438 9  21159500.56649
  21314573.359 5                 112008842.569 5  87279648.58247  21314582.35947
  22706187.797 5  22706203.262 9 119321813.658 5  92977878.509 9  22706202.99647
  19989965.273 7  19989976.602 9 105047978.147 7  81855607.036 9  19989976.46949
  23306186.188 1  23306214.035 8 122474891.981 1  95434794.911 8  23306213.43445
 23 03 10 02 57 13.0000000  0  6G04G08G16G26G27G31                  
  21414370.047 6  21414379.898 9 112533271.455 6  87688304.116 9  21414379.48447
  21159110.141 6  21159124.629 9 111191873.434 6  86643208.600 9  21159123.54749
  21314831.344 6                 112010195.629 6  87280702.91248  21314839.92248
  22706584.617 5  22706599.871 8 119323899.536 5  92979503.869 8  22706600.06347
  19989987.289 7  19989998.449 9 105048093.378 7  81855696.822 9  19989998.39149
  23306626.133 1  23306653.301 8 122477202.076 1  95436594.996 8  23306653.10545
 23 03 10 02 57 14.0000000  0  6G04G08G16G26G27G31                  
  21414289.234 6  21414299.039 9 112532845.813 6  87687972.449 9  21414298.69147
  21158733.539 6  21158747.543 9 111189892.738 6  86641665.217 9  21158746.72749
  21315089.031 6                 112011548.911 6  87281757.41247  21315097.39847
  22706981.000 5  22706996.965 8 119325985.464 5  92981129.246 8  22706996.83647
  19990009.297 7  19990020.645 9 105048209.391 7  81855787.222 9  19990020.46549
  23307064.719 1                                                                
 23 03 10 02 57 15.0000000  0  6G04G08G16G26G27G31                  
  21414208.305 6  21414217.891 9 112532421.047 6  87687641.464 9  21414217.98447
  21158356.297 6  21158370.836 9 111187912.805 6  86640122.409 9  21158369.87149
  21315346.078 6                 112012902.569 6  87282812.21348  21315355.16048
  22707378.602 5  22707393.887 8 119328071.645 5  92982754.833 8  22707393.79347
  19990031.523 7  19990042.949 9 105048326.282 7  81855878.311 9  19990042.61349
  23307504.398 1                                                                
 23 03 10 02 57 16.0000000  0  6G04G08G16G26G27G31                  
  21414127.734 6  21414137.191 9 112531996.880 6  87687310.944 9  21414137.20747
  21157979.750 6  21157994.230 9 111185933.360 6  86638579.979 9  21157993.11749
  21315603.914 6                 112014256.323 6  87283867.07847  21315612.66447
  22707775.500 5  22707790.750 9 119330157.730 5  92984380.354 9  22707790.81347
  19990054.063 7  19990065.277 9 105048443.860 7  81855969.924 9  19990064.93449
  23307944.773 1  23307972.031 8 122484134.66811  95441996.95918  23307972.41845
 23 03 10 02 57 17.0000000  0  6G04G08G16G26G27G31                  
  21414047.086 6  21414056.582 9 112531573.588 6  87686981.104 9  21414056.62547
  21157603.227 6  21157617.609 9 111183954.662 6  86637038.140 9  21157616.67649
  21315861.938 6                 112015610.426 6  87284922.21448  21315870.26248
  22708172.180 5  22708187.930 9 119332244.035 5  92986006.024 9  22708187.72347
  19990076.539 7  19990087.727 9 105048562.325 7  81856062.237 9  19990087.50449
  23308384.906 1  23308411.664 8 122486446.271 1  95443798.219 8  23308412.42245
 23 03 10 02 57 18.0000000  0  6G04G08G16G26G27G31                  
  21413966.656 6  21413976.445 9 112531151.224 6  87686651.986 9  21413976.25847
  21157227.000 6  21157241.141 9 111181976.784 6  86635496.939 9  21157240.06649
  21316119.219 6                 112016964.990 6  87285977.71947  21316128.03547
  22708569.430 5  22708585.051 8 119334330.641 5  92987631.934 8  22708584.78147
  19990099.414 7  19990110.453 9 105048681.772 7  81856155.316 9  19990110.25849
  23308824.586 1                                                                
 23 03 10 02 57 19.0000000  0  6G04G08G16G26G27G31                  
  21413886.242 6  21413896.262 9 112530729.740 6  87686323.554 9  21413895.98447
  21156850.664 6  21156864.926 9 111179999.688 6  86633956.344 9  21156863.92249
  21316376.953 5                 112018319.929 5  87287033.49547  21316386.04747
  22708966.641 5  22708982.391 8 119336417.497 5  92989258.059 8  22708981.83247
  19990122.039 7  19990133.352 9 105048802.138 7  81856249.104 9  19990133.14149
  23309266.102 1  23309291.629 7 122491071.34411  95447402.16517  23309292.44545
 23 03 10 02 57 20.0000000  0  6G04G08G16G26G27G31                  
  21413806.211 6  21413816.113 9 112530309.025 6  87685995.726 9  21413815.91047
  21156474.664 6  21156488.957 9 111178023.253 6  86632416.269 9  21156487.83249
  21316635.000 6                 112019675.156 6  87288089.51647  21316643.93847
  22709363.609 5  22709379.254 8 119338504.435 5  92990884.240 8  22709379.13747
  19990145.188 7  19990156.418 9 105048923.338 7  81856343.543 9  19990156.23049
  23309707.695 1  23309731.688 7 122493384.555 1  95449204.664 7  23309732.68845
 23 03 10 02 57 21.0000000  0  6G04G08G16G26G27G31                  
  21413726.188 6  21413736.504 9 112529889.225 6  87685668.604 9  21413735.96547
  21156098.555 6  21156112.949 9 111176047.594 6  86630876.797 9  21156111.99649
  21316892.992 5                 112021030.757 5  87289145.81947  21316901.83247
  22709760.656 5  22709776.566 8 119340591.634 5  92992510.608 8  22709776.41047
  19990168.891 7  19990179.535 9 105049045.476 7  81856438.716 9  19990179.39549
  23310148.609 1  23310172.078 7 122495698.272 1  95451007.538 7  23310172.84045
 23 03 10 02 57 22.0000000  0  6G04G08G16G26G27G31                  
  21413646.703 6  21413656.855 9 112529470.103 6  87685342.013 9  21413656.41447
  21155722.227 6  21155737.148 9 111174072.503 6  86629337.766 9  21155736.18449
  21317151.633 6                 112022386.573 6  87290202.30147  21317159.72747
  22710158.195 5  22710174.066 8 119342678.875 5  92994137.029 8  22710173.53147
  19990191.641 7  19990202.949 9 105049168.342 7  81856534.455 9  19990202.79349
  23310589.930 1  23310611.973 7 122498012.311 1  95452810.670 7  23310613.09445
 23 03 10 02 57 23.0000000  0  6G04G08G16G26G27G31                  
  21413567.156 6  21413577.152 9 112529051.928 6  87685016.151 9  21413576.82448
  21155346.820 6  21155361.496 9 111172098.245 6  86627799.383 9  21155360.45749
  21317409.008 6                 112023742.809 6  87291259.09847  21317417.89847
  22710555.023 5  22710571.145 8 119344766.404 5  92995763.658 8  22710570.65247
  19990215.242 7  19990226.625 9 105049292.179 7  81856630.948 9  19990226.42249
  23311030.445 1  23311052.141 7 122500326.890 1  95454614.244 7  23311053.45745
 23 03 10 02 57 24.0000000  0  6G04G08G16G26G27G31                  
  21413487.578 6  21413497.559 9 112528634.595 6  87684690.952 9  21413497.60547
  21154971.625 6  21154985.891 9 111170124.725 6  86626261.580 9  21154985.05149
  21317667.313 6                 112025099.386 6  87292316.17747  21317676.10547
  22710952.516 5  22710968.352 8 119346854.130 5  92997390.446 8  22710967.85547
  19990239.219 7  19990250.383 9 105049416.909 7  81856728.141 9  19990250.09449
  23311472.500 1  23311492.402 7 122502642.022 1  95456418.241 7  23311493.87545
 23 03 10 02 57 25.0000000  0  6G04G08G16G26G27G31                  
  21413408.313 6  21413418.586 9 112528217.808 6  87684366.180 9  21413418.18847
  21154595.945 6  21154610.410 9 111168151.637 6  86624724.114 9  21154609.31649
  21317925.188 6                 112026456.022 6  87293373.28748  21317934.16848
  22711349.672 5  22711365.520 9 119348941.735 5  92999017.147 9  22711365.00847
  19990263.320 7  19990274.230 9 105049542.241 7  81856825.794 9  19990274.03549
  23311913.352 1  23311932.531 7 122504957.264 1  95458222.354 7  23311934.48845
 23 03 10 02 57 26.0000000  0  6G04G08G16G26G27G31                  
  21413329.438 6  21413339.281 9 112527801.873 6  87684042.075 9  21413338.91847
  21154220.617 6  21154235.262 9 111166179.316 6  86623187.235 9  21154234.15249
  21318183.633 5                 112027813.018 5  87294430.69347  21318192.60247
  22711747.164 5  22711762.863 9 119351029.551 5  93000644.000 9  22711762.49247
  19990286.984 7  19990298.242 9 105049668.484 7  81856924.172 9  19990297.97749
  23312355.445 1  23312373.195 7 122507273.110 1  95460026.912 7  23312375.12145
 23 03 10 02 57 27.0000000  0  6G04G08G16G26G27G31                  
  21413249.820 6  21413260.164 9 112527386.718 6  87683718.577 9  21413259.86348
  21153845.453 6  21153859.746 9 111164207.630 6  86621650.856 9  21153858.98449
  21318441.656 6                 112029170.294 6  87295488.29448  21318450.89848
  22712144.625 5  22712160.512 9 119353117.499 5  93002270.960 9  22712159.81647
  19990311.453 7  19990322.285 9 105049795.518 7  81857023.160 9  19990322.00449
  23312794.617 1  23312813.547 7 122509589.335 1  95461831.755 7  23312815.81645
 23 03 10 02 57 28.0000000  0  6G04G08G16G26G27G31                  
  21413171.078 6  21413181.293 9 112526972.410 6  87683395.733 9  21413181.00847
  21153470.445 6  21153484.703 9 111162236.657 6  86620115.036 9  21153483.83249
  21318700.477 6                 112030527.901 6  87296546.17948  21318709.17648
  22712541.922 5  22712557.668 9 119355205.612 5  93003898.054 9  22712557.19947
  19990335.969 7  19990346.723 9 105049923.466 7  81857122.849 9  19990346.44549
  23313234.078 1  23313254.852 7 122511906.071 1  95463636.957 7  23313256.51644
 23 03 10 02 57 29.0000000  0  6G04G08G16G26G27G31                  
  21413092.461 6  21413102.953 9 112526558.757 6  87683073.409 9  21413102.43047
  21153095.742 6  21153110.039 9 111160266.236 6  86618579.641 9  21153108.94549
  21318958.859 6                 112031885.676 6  87297604.18047  21318967.50447
  22712939.383 5  22712955.059 8 119357293.729 5  93005525.159 8  22712954.52747
  19990360.523 7  19990370.996 9 105050052.093 7  81857223.083 9  19990370.82849
  23313674.992 1  23313695.367 7 122514222.933 1  95465442.284 7  23313697.15645
 23 03 10 02 57 30.0000000  0  6G04G08G16G26G27G31                  
  21413014.313 6  21413024.559 9 112526146.229 6  87682751.958 9  21413024.11347
  21152720.992 6  21152735.211 9 111158296.822 6  86617045.035 9  21152734.19549
  21319217.438 6                 112033244.114 6  87298662.68947  21319225.96547
  22713337.063 5  22713352.574 8 119359382.377 5  93007152.663 8  22713351.89847
  19990385.320 7  19990395.902 9 105050181.898 7  81857324.225 9  19990395.68449
  23314114.742 1                                                                
 23 03 10 02 57 31.0000000  0  6G04G08G16G26G27G31                  
  21412936.008 6  21412946.160 9 112525734.490 6  87682431.118 9  21412945.78947
  21152346.398 6  21152360.383 9 111156328.077 6  86615510.942 9  21152359.42649
  21319475.852 6                 112034602.791 6  87299721.39847  21319484.57047
  22713734.141 5  22713749.754 8 119361471.083 5  93008780.216 8  22713749.43447
  19990410.133 7  19990420.801 9 105050312.515 7  81857426.007 9  19990420.41449
  23314554.375 1  23314577.340 7 122518858.96611  95469054.76117  23314579.01644
 23 03 10 02 57 32.0000000  0  6G04G08G16G26G27G31                  
  21412857.594 6  21412868.031 9 112525323.579 6  87682110.918 9  21412867.48447
  21151972.047 6  21151985.840 9 111154360.070 6  86613977.432 9  21151985.16449
  21319734.922 5                 112035961.791 5  87300780.35547  21319743.33247
  22714131.844 5  22714147.449 8 119363559.988 5  93010407.918 8  22714146.85247
  19990435.070 7  19990445.734 9 105050444.019 7  81857528.476 9  19990445.49649
  23314994.898 1                                                                
 23 03 10 02 57 33.0000000  0  6G04G08G16G26G27G31                  
  21412779.617 5  21412790.141 9 112524913.497 5  87681791.376 9  21412789.45347
  21151597.633 6  21151611.719 9 111152392.765 6  86612444.465 9  21151610.78549
  21319993.141 5                 112037321.153 5  87301839.58947  21320002.02047
  22714529.563 5  22714544.789 8 119365649.069 5  93012035.769 8  22714544.50047
  19990460.211 6  19990471.008 9 105050576.407 6  81857631.628 9  19990470.64849
  23315435.633 1                                                                
 23 03 10 02 57 34.0000000  0  6G04G08G16G26G27G31                  
  21412701.336 6  21412712.176 9 112524504.195 6  87681472.437 9  21412711.67247
  21151223.398 6  21151237.270 9 111150426.122 6  86610912.013 9  21151236.59449
  21320251.695 6                 112038680.764 6  87302899.02947  21320260.58247
  22714926.922 5  22714942.684 8 119367738.285 5  93013663.719 8  22714942.21147
  19990485.375 6  19990496.273 9 105050709.593 6  81857735.407 9  19990496.01649
  23315875.898 1                                                                
 23 03 10 02 57 35.0000000  0  6G04G08G16G26G27G31                  
  21412623.500 5  21412634.148 9 112524095.571 5  87681154.024 9  21412633.85947
  21150849.539 6  21150863.270 9 111148460.059 6  86609380.015 9  21150862.62149
  21320510.758 5                 112040040.566 5  87303958.61047  21320519.32047
  22715324.773 5  22715340.461 8 119369827.516 5  93015291.680 8  22715339.73047
  19990510.867 6  19990521.750 9 105050843.520 6  81857839.768 9  19990521.53549
  23316316.344 1                                                                
 23 03 10 02 57 36.0000000  0  6G04G08G16G26G27G31                  
  21412546.117 5  21412556.809 9 112523687.820 5  87680836.292 9  21412556.32447
  21150475.195 6  21150489.254 9 111146494.744 6  86607848.607 9  21150488.57849
  21320769.352 5                 112041400.727 5  87305018.46147  21320778.09447
  22715721.891 4  22715738.121 8 119371916.935 4  93016919.794 8  22715737.27346
  19990536.547 6  19990547.379 9 105050978.336 6  81857944.813 9  19990547.20349
  23316758.109 1                                                                
 23 03 10 02 57 37.0000000  0  6G04G08G16G26G27G31                  
  21412469.133 5  21412479.230 9 112523280.823 5  87680519.148 9  21412478.93447
  21150101.391 6  21150115.316 9 111144530.066 6  86606317.687 9  21150114.60549
  21321028.016 5                 112042761.150 5  87306078.53047  21321036.93847
  22716119.180 4  22716135.410 9 119374006.505 4  93018548.020 9  22716134.82847
  19990562.063 6  19990573.438 9 105051113.966 6  81858050.499 9  19990573.06349
  23317200.008 1  23317225.094 7 122532777.03411  95479899.97917  23317226.71945
 23 03 10 02 57 38.0000000  0  6G04G08G16G26G27G31                  
  21412391.781 3  21412401.852 9 112522874.463 3  87680202.495 9  21412401.55147
  21149727.961 5  21149741.699 9 111142565.911 5  86604787.179 9  21149741.12148
  21321288.172 3                 112044121.712 3  87307138.70047  21321295.80147
  22716517.414 2  22716533.156 9 119376096.019 2  93020176.206 9  22716532.46146
  19990588.664 5  19990599.355 9 105051250.261 5  81858156.707 9  19990598.99249
  23317643.148 1  23317666.629 7 122535098.045 1  95481708.554 7                
 23 03 10 02 57 39.0000000  0  6G04G08G16G26G27G31                  
  21412314.242 5  21412324.703 9 112522468.924 5  87679886.483 9  21412324.50447
  21149353.773 5  21149367.988 9 111140602.509 5  86603257.253 9  21149367.35549
  21321546.078 5                 112045482.624 5  87308199.14647  21321554.90647
  22716914.844 4  22716930.664 9 119378185.761 4  93021804.566 9  22716930.11346
  19990614.781 6  19990625.477 9 105051387.471 6  81858263.616 9  19990625.23049
  23318084.227 1  23318108.418 7 122537419.547 1  95483517.538 7                
 23 03 10 02 57 40.0000000  0  6G04G08G16G26G27G31                  
  21412237.031 4  21412247.605 9 112522064.272 4  87679571.165 9  21412247.44547
  21148980.328 5  21148994.895 9 111138639.822 5  86601727.885 9  21148993.98048
  21321805.484 4                 112046843.876 4  87309259.86947  21321813.93447
  22717312.500 3  22717328.492 9 119380275.674 3  93023433.061 9  22717327.82446
  19990640.586 5  19990651.688 9 105051525.559 5  81858371.217 9  19990651.50049
  23318526.313 1                                                                
 23 03 10 02 57 41.0000000  0  6G04G08G16G26G27G31                  
  21412160.328 5  21412170.629 9 112521660.365 5  87679256.427 9  21412170.68447
  21148607.008 6  21148621.250 9 111136677.731 6  86600198.985 9  21148620.51249
  21322064.852 5                 112048205.361 5  87310320.76347  21322073.01647
  22717710.391 4  22717726.156 8 119382365.670 4  93025061.621 8  22717725.46146
  19990667.352 6  19990678.043 9 105051664.409 6  81858479.415 9  19990678.00849
  23318969.320 1                                                                
 23 03 10 02 57 42.0000000  0  6G04G08G16G26G27G31                  
  21412083.719 6  21412094.016 9 112521257.255 6  87678942.315 9  21412094.00447
  21148234.102 6  21148247.895 9 111134716.386 6  86598670.661 9  21148247.30949
  21322323.641 5                 112049567.198 5  87311381.92547  21322332.13747
  22718108.586 5  22718123.641 8 119384455.871 5  93026690.345 8  22718123.09847
  19990694.172 6  19990704.504 9 105051804.166 6  81858588.312 9  19990704.37949
  23319413.914 1                                                                
 23 03 10 02 57 43.0000000  0  6G04G08G16G26G27G31                  
  21412007.328 4  21412017.656 9 112520854.845 4  87678628.746 9  21412017.55947
  21147860.586 5  21147874.805 9 111132755.613 5  86597142.790 9  21147874.26648
  21322583.336 4                 112050929.229 4  87312443.25147  21322591.47347
  22718505.813 3  22718521.594 8 119386546.077 3  93028319.069 8  22718521.03146
  19990721.125 5  19990731.383 9 105051944.633 5  81858697.769 9  19990731.12949
  23319858.602 1  23319875.977 7 122546709.78411  95490756.68117                
 23 03 10 02 57 44.0000000  0  6G04G08G16G26G27G31                  
  21411930.586 4  21411941.391 9 112520453.435 4  87678315.953 9  21411941.15247
  21147487.672 5  21147501.730 9 111130795.735 5  86595615.612 9  21147501.30548
  21322841.938 4                 112052291.729 4  87313504.92747  21322850.73047
  22718903.836 3  22718919.863 8 119388636.637 3  93029948.075 8  22718918.98446
  19990747.742 5  19990758.258 9 105052086.133 5  81858808.029 9  19990758.09849
  23320301.773 1  23320318.457 7 122549033.604 1  95492567.457 7                
 23 03 10 02 57 45.0000000  0  6G04G08G16G26G27G31                  
  21411855.766 2  21411864.820 9 112520052.752 2  87678003.732 9  21411865.07447
  21147115.688 3  21147129.047 9 111128836.468 3  86594088.904 9  21147128.44948
  21323101.984 2                 112053654.488 2  87314566.81747  21323109.99247
  22719301.336 1  22719317.547 8 119390727.248 1  93031577.111 8  22719316.98046
  19990775.188 4  19990785.375 9 105052228.419 4  81858918.896 9  19990785.18049
  23320744.695 1  23320760.660 7 122551357.701 1  95494378.440 7                
 23 03 10 02 57 46.0000000  0  6G04G08G16G26G27G31                  
  21411779.188 5  21411788.816 9 112519652.825 5  87677692.104 9  21411789.01647
  21146742.000 5  21146756.344 9 111126877.849 5  86592562.710 9  21146755.75049
  21323360.875 5                 112055017.489 5  87315628.88947  21323369.50847
  22719698.953 3  22719715.477 8 119392817.983 3  93033206.241 8  22719714.77046
  19990802.281 5  19990812.574 9 105052371.491 5  81859030.378 9  19990812.35549
  23321188.234 1  23321203.000 7 122553682.282 1  95496189.803 7                
 23 03 10 02 57 47.0000000  0  6G04G08G16G26G27G31                  
  21411703.203 4  21411712.969 9 112519253.701 4  87677381.097 9  21411713.06347
  21146370.023 5  21146383.988 9 111124919.916 5  86591037.053 9  21146383.13748
  21323620.156 4                 112056380.750 4  87316691.16947  21323628.93047
  22720096.773 3  22720113.547 8 119394908.875 3  93034835.503 8  22720112.77046
  19990829.563 5  19990839.945 9 105052515.415 5  81859142.524 9  19990839.71149
  23321630.445 1  23321645.578 7 122556007.24511  95498001.45217                
 23 03 10 02 57 48.0000000  0  6G04G08G16G26G27G31                  
  21411626.820 2  21411637.199 9 112518855.427 2  87677070.740 9  21411637.24647
  21145997.250 2  21146011.434 9 111122962.719 2  86589511.968 9  21146010.68448
  21323880.289 2                 112057744.396 2  87317753.73846  21323888.30146
  22720495.133 1  22720511.297 8 119396999.921 1  93036464.886 8  22720510.73846
  19990857.164 4  19990867.594 9 105052660.216 4  81859255.355 9  19990867.38749
  23322072.664 1  23322088.266 7 122558332.73911  95499813.51517                
 23 03 10 02 57 49.0000000  0  6G04G08G16G26G27G31                  
  21411551.563 1  21411561.629 9 112518458.066 1  87676761.112 9  21411561.71547
  21145625.203 2  21145639.195 9 111121006.307 2  86587987.495 9  21145638.53948
  21324140.086 1                 112059108.456 1  87318816.65246  21324147.87546
  22720892.945 1  22720909.254 9 119399091.319 1  93038094.532 9  22720908.62146
  19990885.625 3  19990895.109 9 105052806.003 3  81859368.955 9  19990894.98849
  23322515.641 1  23322530.797 7 122560658.75611  95501625.97417                
 23 03 10 02 57 50.0000000  0  6G04G08G16G26G27G31                  
  21411474.484 1  21411486.219 9 112518061.434 1  87676452.038 9  21411486.12546
  21145252.570 1  21145267.047 9 111119050.526 1  86586463.514 9  21145266.33247
  21324398.977 1                 112060472.758 1  87319879.73546  21324407.43446
  22721290.414 1  22721307.113 9 119401182.713 1  93039724.182 9  22721306.71946
  19990913.703 2  19990923.145 9 105052952.504 2  81859483.112 9  19990922.92648
  23322957.664 1                                                                
 23 03 10 02 57 51.0000000  0  5G04G08G16G26G27                     
  21411400.133 3  21411411.047 9 112517665.653 3  87676143.633 9  21411410.82446
  21144880.656 3  21144895.039 9 111117095.521 3  86584940.136 9  21144894.33648
  21324659.289 3                 112061837.351 3  87320943.03546  21324667.15246
  22721687.766 1  22721705.223 9 119403274.303 1  93041353.979 9  22721704.81646
  19990941.063 4  19990951.195 9 105053099.958 4  81859598.008 9  19990950.93849
 23 03 10 02 57 52.0000000  0  5G04G08G16G26G27                     
  21411325.195 3  21411335.664 9 112517270.495 3  87675835.714 9  21411335.64846
  21144509.492 3  21144523.059 9 111115141.045 3  86583417.161 9  21144522.35248
  21324918.883 3                 112063202.132 3  87322006.50046  21324926.75446
  22722086.547 1  22722103.195 9 119405365.910 1  93042983.806 9  22722102.84446
  19990968.539 3  19990979.375 9 105053248.068 3  81859713.417 9  19990979.09449
 23 03 10 02 57 53.0000000  0  5G04G08G16G26G27                     
  21411249.930 1  21411260.770 9 112516876.331 1  87675528.566 9  21411260.66846
  21144138.297 1  21144151.293 9 111113187.395 1  86581894.834 9  21144150.60247
  21325178.070 1                 112064567.351 1  87323070.31346  21325186.52346
  22722484.586 1  22722501.172 8 119407457.817 1  93044613.861 8  22722500.78146
  19990998.055 1  19991007.527 9 105053397.201 1  81859829.624 9  19991007.48848
 23 03 10 02 57 54.0000000  0  5G04G08G16G26G27                     
  21411175.164 1  21411185.723 9 112516482.883 1  87675221.979 9  21411185.88346
  21143764.891 1  21143779.652 9 111111234.326 1  86580372.961 9  21143778.90647
  21325438.250 1                 112065932.810 1  87324134.33746  21325446.33646
  22722882.016 1  22722899.469 8 119409549.768 1  93046243.950 8  22722898.93845
  19991026.406 1  19991036.320 9 105053547.037 1  81859946.381 9  19991036.02347
 23 03 10 02 57 55.0000000  0  5G04G08G16G26G27                     
  21411100.078 1  21411111.051 9 112516090.089 1  87674915.901 9  21411111.13745
  21143393.656 1  21143408.074 9 111109281.803 1  86578851.521 9  21143407.41047
  21325698.156 1                 112067298.356 1  87325198.33046  21325706.25046
  22723281.781 1  22723297.559 8 119411641.688 1  93047874.002 8  22723297.16445
  19991054.289 1  19991064.750 9 105053697.630 1  81860063.722 9  19991064.68047
 23 03 10 02 57 56.0000000  0  5G04G08G16G26G27                     
  21411025.461 1  21411036.500 9 112515698.034 1  87674610.401 9  21411036.64846
  21143022.258 2  21143036.754 9 111107330.038 2  86577330.668 9  21143036.02047
  21325957.047 1                 112068664.261 1  87326262.70946  21325966.10546
  22723679.391 1  22723696.047 8 119413733.818 1  93049504.227 8  22723695.32445
  19991082.883 2  19991093.887 9 105053849.032 2  81860181.693 9  19991093.34848
 23 03 10 02 57 57.0000000  0  5G04G08G16G26G27                     
  21410950.945 3  21410961.980 9 112515306.870 3  87674305.603 9  21410962.30546
  21142650.602 4  21142665.301 9 111105379.004 4  86575810.390 9  21142664.77348
  21326218.219 3                 112070030.545 3  87327327.33546  21326225.94546
  22724077.313 2  22724093.988 9 119415826.131 2  93051134.597 9  22724093.45345
  19991112.844 4  19991122.688 9 105054001.359 4  81860300.388 9  19991122.41048
 23 03 10 02 57 58.0000000  0  5G04G08G16G26G27                     
  21410877.156 5  21410887.703 9 112514916.452 5  87674001.376 9  21410888.02747
  21142279.430 4  21142294.383 9 111103428.514 4  86574290.521 9  21142293.46548
  21326477.289 5                 112071396.988 5  87328392.08247  21326485.97347
  22724475.742 4  22724492.441 9 119417918.498 4  93052764.998 9  22724491.57046
  19991142.008 5  19991151.609 9 105054154.438 5  81860419.672 9  19991151.43449
 23 03 10 02 57 59.0000000  0  5G04G08G16G26G27                     
  21410802.727 1  21410813.449 9 112514526.838 1  87673697.778 9  21410814.02046
  21141908.781 2  21141923.090 9 111101478.747 2  86572771.228 9  21141922.47348
  21326737.281 2                 112072763.781 2  87329457.11946  21326745.99646
  22724874.586 1  22724890.348 9 119420011.062 1  93054395.554 9  22724889.66046
  19991170.813 3  19991181.195 9 105054308.360 3  81860539.612 9  19991180.72349
 23 03 10 02 58 00.0000000  0  5G04G08G16G26G27                     
  21410728.984 3  21410739.535 9 112514137.987 3  87673394.767 9  21410739.93847
  21141538.344 3  21141552.000 9 111099529.648 3  86571252.452 9  21141551.64548
  21326998.063 3                 112074130.810 3  87330522.33347  21327006.17247
  22725272.594 3  22725288.582 9 119422103.674 3  93056026.153 9  22725287.92246
  19991200.047 5  19991210.215 9 105054463.089 5  81860660.179 9  19991210.05149
 23 03 10 02 58 01.0000000  0  5G04G08G16G26G27                     
  21410654.984 3  21410665.762 9 112513749.874 3  87673092.337 9  21410665.87547
  21141167.070 4  21141181.434 9 111097581.155 4  86569734.141 9  21141180.90648
  21327257.734 3                 112075498.064 3  87331587.72847  21327266.23447
  22725671.398 2  22725686.902 9 119424196.406 2  93057656.861 9  22725686.25046
  19991229.875 5  19991240.074 9 105054618.604 5  81860781.354 9  19991239.68049
 23 03 10 02 58 02.0000000  0  5G04G08G16G26G27                     
  21410581.328 4  21410592.121 9 112513362.562 4  87672790.534 9  21410592.26647
  21140796.438 5  21140810.996 9 111095633.369 5  86568216.388 9  21140810.12549
  21327518.305 4                 112076865.667 4  87332653.38147  21327526.48447
  22726068.117 4  22726085.305 9 119426289.280 4  93059287.657 9  22726084.60547
  19991259.930 6  19991269.766 9 105054774.963 6  81860903.193 9  19991269.39849
 23 03 10 02 58 03.0000000  0  5G04G08G16G26G27                     
  21410508.016 3  21410518.449 9 112512976.118 3  87672489.408 9  21410518.83247
  21140425.898 4  21140440.332 9 111093686.345 4  86566699.232 9  21140439.74249
  21327778.016 4                 112078233.614 4  87333719.31347  21327786.69947
  22726466.867 3  22726483.559 9 119428382.365 3  93060918.620 9  22726483.01646
  19991289.484 5  19991299.719 9 105054932.244 5  81861025.748 9  19991299.39149
 23 03 10 02 58 04.0000000  0  5G04G08G16G26G27                     
  21410434.406 4  21410445.012 9 112512590.360 4  87672188.812 9  21410445.48447
  21140055.656 5  21140070.039 9 111091739.891 5  86565182.515 9  21140069.34449
  21328038.852 5                 112079601.739 5  87334785.37647  21328047.14147
  22726864.695 4  22726881.938 9 119430475.494 4  93062549.615 9  22726881.34846
  19991319.719 6  19991329.656 9 105055090.242 6  81861148.862 9  19991329.40249
 23 03 10 02 58 05.0000000  0  6G04G08G16G26G27G31                  
  21410361.563 5  21410371.758 9 112512205.347 5  87671888.795 9  21410372.16847
  21139685.328 5  21139699.879 9 111089794.058 5  86563666.290 9  21139699.02749
  21328299.531 5                 112080970.111 5  87335851.64247  21328307.46147
  22727263.367 4  22727279.668 9 119432568.696 4  93064180.670 9  22727279.68447
  19991349.945 6  19991359.828 9 105055249.035 6  81861272.593 9  19991359.50449
  23329606.844 1                                                                
 23 03 10 02 58 06.0000000  0  6G04G08G16G26G27G31                  
  21410288.359 5  21410298.711 9 112511821.134 5  87671589.407 9  21410298.91447
  21139315.688 5  21139329.672 9 111087848.901 5  86562150.586 9  21139328.87149
  21328559.859 5                 112082338.759 5  87336918.11747  21328567.87947
  22727661.742 4  22727678.184 8 119434662.066 4  93065811.859 8  22727678.05147
  19991380.125 6  19991390.348 9 105055408.649 6  81861396.973 9  19991390.02049
  23330051.086 1                                                                
 23 03 10 02 58 07.0000000  0  6G04G08G16G26G27G31                  
  21410215.227 5  21410225.785 9 112511437.781 5  87671290.681 9  21410225.86347
  21138945.313 6  21138959.727 9 111085904.476 6  86560635.440 9  21138958.97749
  21328820.984 5                 112083707.799 5  87337984.89647  21328828.37147
  22728059.570 4  22728076.941 8 119436755.586 4  93067443.162 8  22728076.42247
  19991410.500 6  19991421.172 9 105055569.174 6  81861522.054 9  19991420.43849
  23330495.531 1                 122602594.22611                                
 23 03 10 02 58 08.0000000  0  6G04G08G16G26G27G31                  
  21410142.633 5  21410152.758 9 112511055.206 5  87670992.572 9  21410153.09047
  21138575.352 6  21138589.801 9 111083960.737 6  86559120.848 9  21138588.96549
  21329080.891 5                 112085077.096 5  87339051.87747  21329088.91047
  22728457.969 4  22728474.988 8 119438849.310 4  93069074.622 8  22728474.85547
  19991441.047 6  19991451.543 9 105055730.529 6  81861647.782 9  19991451.22349
  23330939.758 1                                                                
 23 03 10 02 58 09.0000000  0  6G04G08G16G26G27G31                  
  21410069.750 5  21410080.289 9 112510673.463 5  87670695.111 9  21410080.27747
  21138205.914 6  21138220.125 9 111082017.720 6  86557606.813 9  21138219.19949
  21329341.742 6                 112086446.741 6  87340119.12647  21329349.60247
  22728856.586 4  22728873.270 8 119440943.151 4  93070706.178 8  22728873.29747
  19991472.109 6  19991482.535 9 105055892.736 6  81861774.174 9  19991482.16049
  23331383.531 1  23331402.625 7 122607262.54111                                
 23 03 10 02 58 10.0000000  0  6G04G08G16G26G27G31                  
  21409996.891 5  21410007.695 9 112510292.362 5  87670398.144 9  21410007.78147
  21137835.789 6  21137850.234 9 111080075.261 6  86556093.211 9  21137849.44549
  21329602.461 5                 112087816.498 5  87341186.45747  21329610.16847
  22729255.391 4  22729271.734 9 119443036.983 4  93072337.728 9  22729271.74247
  19991503.359 6  19991513.324 9 105056055.636 6  81861901.107 9  19991512.93449
  23331826.453 1  23331846.758 7 122609597.144 1  95540010.94117                
 23 03 10 02 58 11.0000000  0  6G04G08G16G26G27G31                  
  21409924.766 5  21409935.094 9 112509911.874 5  87670101.653 9  21409935.31647
  21137466.477 6  21137480.609 9 111078133.279 6  86554579.980 9  21137480.01649
  21329862.367 6                 112089186.396 6  87342253.91547  21329870.77347
  22729653.945 5  22729670.055 9 119445130.804 5  93073969.251 9  22729670.22747
  19991534.352 6  19991544.484 9 105056219.169 6  81862028.536 9  19991544.04749
  23332271.172 1  23332291.109 7 122611932.095 1  95541830.394 7                
 23 03 10 02 58 12.0000000  0  6G04G08G16G26G27G31                  
  21409852.586 5  21409862.973 9 112509532.218 5  87669805.810 9  21409863.00847
  21137097.203 6  21137111.250 9 111076192.020 6  86553067.309 9  21137110.43849
  21330123.789 6                 112090556.578 6  87343321.58947  21330131.63747
  22730052.313 4  22730068.691 9 119447224.775 4  93075600.915 9  22730068.55947
  19991565.523 6  19991575.949 9 105056383.595 6  81862156.656 9  19991575.56349
  23332715.094 1  23332735.621 7 122614267.480 1  95543650.170 7                
 23 03 10 02 58 13.0000000  0  6G04G08G16G26G27G31                  
  21409780.766 5  21409790.801 9 112509153.471 5  87669510.682 9  21409791.03147
  21136728.250 6  21136741.691 9 111074251.559 6  86551555.271 9  21136741.16449
  21330384.688 5                 112091927.221 5  87344389.61947  21330392.52747
  22730450.734 4  22730467.516 9 119449319.015 4  93077232.786 9  22730467.09846
  19991597.125 6  19991607.418 9 105056548.990 6  81862285.536 9  19991606.90249
  23333159.211 1  23333179.887 7 122616603.371 1  95545470.351 7                
 23 03 10 02 58 14.0000000  0  6G04G08G16G26G27G31                  
  21409708.523 5  21409718.820 9 112508775.402 5  87669216.082 9  21409719.04347
  21136358.375 6  21136372.641 9 111072311.655 6  86550043.657 9  21136371.87549
  21330645.773 5                 112093298.000 5  87345457.75647  21330653.43847
  22730849.492 5  22730865.742 9 119451413.262 5  93078864.650 9  22730865.70747
  19991628.695 6  19991638.941 9 105056715.071 6  81862414.945 9  19991638.52049
  23333603.375 1  23333624.828 7 122618939.655 1  95547290.831 7                
 23 03 10 02 58 15.0000000  0  6G04G08G16G26G27G31                  
  21409636.844 6  21409647.137 9 112508398.012 6  87668922.013 9  21409647.23847
  21135988.914 6  21136003.723 9 111070372.305 6  86548532.478 9  21136002.89149
  21330906.516 6                 112094668.971 6  87346526.04047  21330914.28147
  22731247.625 4  22731264.328 9 119453507.541 4  93080496.555 9  22731264.19947
  19991660.500 6  19991670.652 9 105056881.890 6  81862544.936 9  19991670.24649
  23334046.586 1  23334069.285 7 122621276.242 1  95549111.510 7                
 23 03 10 02 58 16.0000000  0  6G04G08G16G26G27G31                  
  21409565.492 6  21409575.430 9 112508021.435 6  87668628.569 9  21409575.49647
  21135620.516 6  21135634.625 9 111068433.668 6  86547021.847 9  21135633.93449
  21331167.391 6                 112096040.263 6  87347594.57047  21331175.16047
  22731646.023 5  22731662.965 9 119455601.997 5  93082128.591 9  22731662.76647
  19991692.430 6  19991702.387 9 105057049.572 6  81862675.589 9  19991701.96949
  23334488.703 1  23334513.867 7 122623613.192 1  95550932.496 7                
 23 03 10 02 58 17.0000000  0  6G04G08G16G26G27G31                  
  21409493.789 6  21409503.840 9 112507645.577 6  87668335.690 9  21409503.89147
  21135251.594 6  21135265.996 9 111066495.597 6  86545511.664 9  21135265.11749
  21331428.188 6                 112097411.748 6  87348663.26547  21331436.16047
  22732044.461 4  22732061.402 9 119457696.505 4  93083760.666 9  22732061.25047
  19991724.117 7  19991734.457 9 105057217.979 7  81862806.816 9  19991734.02349
  23334934.055 1                                                                
 23 03 10 02 58 18.0000000  0  6G04G08G16G26G27G31                  
  21409422.203 6  21409432.344 9 112507270.527 6  87668043.439 9  21409432.44947
  21134882.797 6  21134897.332 9 111064558.243 6  86544002.041 9  21134896.24249
  21331689.375 6                 112098783.540 6  87349732.18447  21331697.23847
  22732443.344 4  22732459.945 8 119459791.157 4  93085392.851 8  22732459.89147
  19991756.672 7  19991766.711 9 105057387.264 7  81862938.727 9  19991766.28949
  23335377.922 1  23335403.223 7 122628288.41411  95554575.50817                
 23 03 10 02 58 19.0000000  0  6G04G08G16G26G27G31                  
  21409351.523 6  21409361.027 9 112506896.354 6  87667751.880 9  21409361.19147
  21134514.047 6  21134528.887 9 111062621.625 6  86542492.990 9  21134527.92249
  21331950.367 6                 112100155.718 6  87350801.41347  21331958.31347
  22732842.445 5  22732858.758 8 119461886.005 5  93087025.192 8  22732858.56347
  19991788.852 7  19991799.207 9 105057557.443 7  81863071.327 9  19991798.57849
  23335822.406 1  23335847.848 7 122630626.77411  95556397.58817                
 23 03 10 02 58 20.0000000  0  6G04G08G16G26G27G31                  
  21409279.898 6  21409290.094 9 112506522.974 6  87667460.931 9  21409290.07847
  21134145.883 6  21134160.152 9 111060685.724 6  86540984.499 9  21134159.43449
  21332211.844 6                 112101528.194 6  87351870.87547  21332219.50847
  22733241.031 5  22733257.070 8 119463981.029 5  93088657.673 8  22733257.35947
  19991821.813 7  19991831.629 9 105057728.501 7  81863204.610 9  19991831.19149
  23336269.031 1  23336292.766 7 122632965.416 1  95558219.904 7                
 23 03 10 02 58 21.0000000  0  6G04G08G16G26G27G31                  
  21409209.000 6  21409218.918 9 112506150.382 6  87667170.587 9  21409219.12547
  21133777.781 6  21133792.082 9 111058750.506 6  86539476.535 9  21133791.03549
  21332472.469 6                 112102900.938 6  87352940.53847  21332480.96547
  22733639.594 5  22733655.949 9 119466076.156 5  93090290.220 9  22733656.10547
  19991854.164 7  19991864.477 9 105057900.342 7  81863338.513 9  19991864.05549
  23336715.039 1                                                                
 23 03 10 02 58 22.0000000  0  6G04G08G16G26G27G31                  
  21409138.305 6  21409148.504 9 112505778.571 6  87666880.861 9  21409148.19147
  21133409.578 6  21133423.926 9 111056815.930 6  86537969.080 9  21133422.86349
  21332734.250 6                 112104273.951 6  87354010.42447  21332742.13747
  22734038.125 5  22734055.121 9 119468171.443 5  93091922.906 9  22734055.11747
  19991887.070 7  19991897.383 9 105058073.009 7  81863473.063 9  19991896.94149
  23337160.469 1                                                                
 23 03 10 02 58 23.0000000  0  6G04G08G16G26G27G31                  
  21409067.695 6  21409077.824 9 112505407.609 6  87666591.805 9  21409077.49647
  21133041.594 6  21133056.223 9 111054882.114 6  86536462.212 9  21133055.03549
  21332995.758 6                 112105647.309 6  87355080.56447  21333003.38747
  22734437.203 5  22734453.828 9 119470266.888 5  93093555.715 9  22734453.90247
  19991920.047 7  19991930.309 9 105058246.577 7  81863608.305 9  19991929.98049
  23337607.398 1                                                                
 23 03 10 02 58 24.0000000  0  6G04G08G16G26G27G31                  
  21408997.180 6  21409007.598 9 112505037.426 6  87666303.353 9  21409006.99247
  21132673.898 6  21132688.230 9 111052949.014 6  86534955.903 9  21132686.91049
  21333257.273 6                 112107020.960 6  87356150.94247  21333264.80547
  22734836.805 5  22734852.527 9 119472362.474 5  93095188.629 9  22734852.80547
  19991953.477 7  19991963.516 9 105058420.973 7  81863744.195 9  19991963.07449
  23338053.289 1                                                                
 23 03 10 02 58 25.0000000  0  6G04G08G16G26G27G31                  
  21408927.602 6  21408937.309 9 112504668.051 6  87666015.527 9  21408936.79347
  21132306.430 6  21132320.355 9 111051016.568 6  86533450.102 9  21132319.09049
  21333518.500 6                 112108394.898 6  87357221.54447  21333526.28947
  22735234.977 5  22735251.453 9 119474458.213 5  93096821.674 9  22735251.58647
  19991986.516 6  19991996.961 9 105058596.196 6  81863880.736 9  19991996.40249
  23338499.750 1  23338516.621 7 122644665.65711  95567337.01517                
 23 03 10 02 58 26.0000000  0  6G04G08G16G26G27G31                  
  21408857.555 6  21408866.934 9 112504299.497 6  87665728.341 9  21408866.63347
  21131938.367 6  21131952.730 9 111049084.860 6  86531944.874 9  21131951.51249
  21333780.227 6                 112109769.185 6  87358292.40647  21333787.87547
  22735633.852 5  22735650.277 9 119476554.129 5  93098454.842 9  22735650.27747
  19992019.805 7  19992030.430 9 105058772.306 7  81864017.960 9  19992029.93449
  23338946.750 1  23338961.926 7 122647007.115 1  95569161.537 7                
 23 03 10 02 58 27.0000000  0  6G04G08G16G26G27G31                  
  21408787.172 6  21408797.031 9 112503931.791 6  87665441.817 9  21408796.53547
  21131571.117 6  21131585.141 9 111047153.839 6  86530440.175 9  21131584.00049
  21334041.703 6                 112111143.771 6  87359363.51647  21334049.35247
  22736032.336 5  22736049.277 9 119478650.236 5  93100088.161 9  22736049.22347
  19992054.047 7  19992064.195 9 105058949.279 7  81864155.862 9  19992063.59849
  23339393.281 1  23339407.492 7 122649349.021 1  95570986.393 7                
 23 03 10 02 58 28.0000000  0  6G04G08G16G26G27G31                  
  21408717.711 6  21408727.176 9 112503564.729 6  87665155.796 9  21408726.64147
  21131203.641 6  21131217.816 9 111045223.384 6  86528935.923 9  21131216.48049
  21334302.898 6                 112112518.550 6  87360434.75948  21334310.89148
  22736431.227 5  22736447.852 9 119480746.324 5  93101721.466 9  22736448.02747
  19992087.469 6  19992097.668 9 105059126.969 6  81864294.317 9  19992097.44549
  23339838.063 1  23339853.258 7 122651691.121 1  95572811.406 7                
 23 03 10 02 58 29.0000000  0  6G04G08G16G26G27G31                  
  21408647.984 6  21408657.430 9 112503198.491 6  87664870.405 9  21408657.02347
  21130836.086 6  21130850.375 9 111043293.614 6  86527432.214 9  21130849.31349
  21334564.805 6                 112113893.632 6  87361506.24647  21334572.46947
  22736830.219 5  22736846.781 9 119482842.588 5  93103354.907 9  22736846.76247
  19992121.563 6  19992131.820 9 105059305.492 6  81864433.427 9  19992131.62949
  23340284.492 1  23340299.020 7 122654033.710 1  95574636.832 7                
 23 03 10 02 58 30.0000000  0  6G04G08G16G26G27G31                  
  21408578.102 6  21408588.012 9 112502833.021 6  87664585.619 9  21408587.35247
  21130469.281 6  21130483.453 9 111041364.521 6  86525929.021 9  21130482.14849
  21334826.086 6                 112115268.941 6  87362577.92147  21334834.32047
  22737229.930 5  22737245.770 9 119484938.953 5  93104988.426 9  22737245.76647
  19992155.906 6  19992166.023 9 105059484.827 6  81864573.169 9  19992165.66849
  23340730.789 1  23340744.832 7 122656376.750 1  95576462.570 7                
 23 03 10 02 58 31.0000000  0  6G04G08G16G26G27G31                  
  21408508.867 6  21408518.777 9 112502468.401 6  87664301.495 9  21408517.86747
  21130102.273 6  21130116.371 9 111039436.188 6  86524426.429 9  21130115.29349
  21335088.305 6                 112116644.636 6  87363649.88647  21335096.09847
  22737627.945 5  22737644.754 9 119487035.535 5  93106622.121 9  22737644.77047
  19992189.891 6  19992200.238 9 105059665.064 6  81864713.606 9  19992199.93049
  23341175.063 1  23341190.965 7 122658720.236 1  95578288.663 7                
 23 03 10 02 58 32.0000000  0  6G04G08G16G26G27G31                  
  21408439.602 6  21408449.215 9 112502104.542 6  87664017.960 9  21408448.65647
  21129735.453 6  21129749.801 9 111037508.460 6  86522924.293 9  21129748.52049
  21335349.867 6                 112118020.563 6  87364722.03047  21335357.87547
  22738027.195 5  22738044.000 9 119489132.191 5  93108255.872 9  22738043.84047
  19992224.516 6  19992234.895 9 105059846.077 6  81864854.660 9  19992234.38749
  23341619.867 1  23341637.195 7 122661064.186 1  95580115.125 7                
 23 03 10 02 58 33.0000000  0  6G04G08G16G26G27G31                  
  21408370.609 6  21408380.398 9 112501741.418 6  87663735.007 9  21408379.59847
  21129368.688 6  21129382.691 9 111035581.409 6  86521422.700 9  21129381.71949
  21335612.398 6                 112119396.749 6  87365794.38347  21335619.69547
  22738426.648 5  22738443.000 9 119491228.954 5  93109889.701 9  22738442.97747
  19992259.188 6  19992269.422 9 105060027.887 6  81864996.327 9  19992269.12949
  23342064.367 1  23342083.492 7 122663408.480 1  95581941.839 7                
 23 03 10 02 58 34.0000000  0  6G04G08G16G26G27G31                  
  21408301.367 6  21408311.230 9 112501378.951 6  87663452.566 9  21408310.55947
  21129002.516 6  21129016.016 9 111033654.881 6  86519921.511 9  21129015.05949
  21335873.953 6                 112120773.063 6  87366866.83347  21335881.57047
  22738825.148 5  22738841.930 9 119493325.694 5  93111523.508 9  22738841.87947
  19992293.758 7  19992304.148 9 105060210.402 7  81865138.550 9  19992303.85949
